[{"name":"Custom cars","address":"Mainland Lagos, Lagos, Lagos","state":"Lagos","description":"Nigeria Custom cars for sale; 1st Hand New Tokunbo cars for sale here in Nigeria> CALL 08136968286: this car are seized by different custom officers for illegal importation of this cars to the country...","rating":"","reviews":"","location":{},"category":"Automotives","link":"https://www.businesslist.com.ng/company/196842/custom-cars","imageUrl":"https://www.businesslist.com.ng/img/ng/l/1404809123_80053.jpg","phone":"08136968286","website":""},{"name":"Kojo Motors Limited","address":"59 Rasag Balogun Street, Western Avenue, Surulere, Lagos, Lagos","state":"Lagos","description":"","rating":"","reviews":"","location":{},"category":"Automotives","link":"https://www.businesslist.com.ng/company/190342/kojo-motors-limited","phone":"0803496182308073049956","website":"www.kojomotors.com"},{"name":"Dominion Wheels Limited","address":"7b, idejo street,victoria island lagos, Victoria Island, Lagos","state":"Lagos","description":"DOMINION WHEELS LIMITED is an Automobile Company. We specialize in sales of Brand New and fairly used Cars. Our company is also experienced in Advisory and Consulting Services. This package enables us...","rating":"","reviews":"","location":{"lat":"6.4311111","lng":"3.415833300000031"},"category":"Automotives","link":"https://www.businesslist.com.ng/company/190937/dominion-wheels-limited","phone":"0808619561908033486552","website":"www.dominionwheelsng.org"}]