[{"name":"Nexton Petroleum NIgeria Limited","address":"3 Timbo Close, off Abuloma Road, PH, Port Harcourt, Rivers","state":"Rivers","description":"Nexton Petroleum Nigeria Limited is an oil servicing company, manufacturer and marketer of Base oils. Our product range also comprises of used and waste oils, reclaimed and recycled oils, lubricant oi...","rating":"","reviews":"","location":{},"category":"Automotives","link":"https://www.businesslist.com.ng/company/261904/nexton-petroleum-nigeria-limited","imageUrl":"https://www.businesslist.com.ng/img/ng/b/1535674939-14-nexton-petroleum-nigeria-limited.jpg","phone":"07030758504","website":"www.nextonpetroleum.com"},{"name":"Johvic Automobile Services","address":"303, Old Abeokuta Expressway, Able Eggs Agege, Lagos, Lagos, Lagos","state":"Lagos","description":"","rating":"","reviews":"","location":{"lat":"6.648140582295702","lng":"3.3093564212322235"},"category":"Automotives","link":"https://www.businesslist.com.ng/company/150386/johvic-automobile-services","phone":"+234 815 500 6007","website":"www.johvicautos.com"},{"name":"Secureteck Services Limited","address":"7, Sunday Adigun Street, Alausa, Ikeja, Lagos","state":"Lagos","description":"Secureteck services in a technology company with special focus on system integration, installation, support and maintenance services. Products and services includes: Hotel management systems design an...","rating":"","reviews":"","location":{},"category":"Automotives","link":"https://www.businesslist.com.ng/company/233605/secureteck-services-limited","imageUrl":"https://www.businesslist.com.ng/img/ng/k/1456925557-48-secureteck-services-limited.jpg","phone":"0806639344808084228861","website":"www.secureteckservices.com"}]