[{"name":"Protaxi","address":"HFP Complex, Lagos, Lagos","state":"Lagos","description":"Protaxi is the most affordable taxi booking application (that can be downloaded on all smart phones), launched recently here in Lagos. We are active on social media platforms and in no distant time we...","rating":"","reviews":"","location":{"lat":"6.473062559221193","lng":"3.586272235949764"},"category":"Automotives","link":"https://www.businesslist.com.ng/company/262013/protaxi","imageUrl":"https://www.businesslist.com.ng/img/ng/j/1536658883-40-protaxi.jpg","phone":"07031705028","website":"www.protaxiapp.ng/"},{"name":"Oscars Autocare and Grill","address":"43 Akanni Ajiran Street,Agungi,Lekki, Lagos, Lagos","state":"Lagos","description":"Oscars Auto care and grill provides the following services in Lekki,Lagos Nigeria.Auto Care Auto repair,Car wash,Grill,Restaurant and Unisex Salon.We are opened 8 am from Monday through Saturday and 9...","rating":"","reviews":"","location":{"lat":"6.451029890802774","lng":"3.3969318866729736"},"category":"Automotives","link":"https://www.businesslist.com.ng/company/256517/oscars-autocare-and-grill","imageUrl":"https://www.businesslist.com.ng/img/ng/e/1472613579-90-oscars-autocare-and-grill.jpg","phone":"08090565859","website":"oscarsautocareandgrill.com"},{"name":"HelpApp Ltd","address":"Wuse II, Abuja, Abuja","state":"Abuja","description":"We offer a full range of services and products to car owners located in Abuja area. HelpApp professionals and partners know how to handle a wide range of car services: Waterless car wash - ecofriendly...","rating":"","reviews":"","location":{"lat":"9.069389","lng":"7.48758"},"category":"Automotives","link":"https://www.businesslist.com.ng/company/265274/helpapp-ltd","imageUrl":"https://www.businesslist.com.ng/img/ng/c/1569659570-32-helpapp-ltd.png","phone":"0705 6496 111 (also on WhatsApp)","website":"helpapp.com.ng"},{"name":"ZEAL MOBILE NETWORK","address":"Highway by Michael Archibong medical hostel calabar,cross river state., Calabar, Cross River","state":"Cross River","description":"car charter and hiring,online booking,whatsapp booking emailing etc.we provide quality transportation with asorted and comfortable transport vehicles,taking our passengers to their various destination...","rating":"","reviews":"","location":{"lat":"5.015578499279621","lng":"8.334825038909912"},"category":"Automotives","link":"https://www.businesslist.com.ng/company/257586/zeal-mobile-network","imageUrl":"https://www.businesslist.com.ng/img/ng/x/1489925103-86-zeal-mobile-network.jpg","phone":"08162499010","website":"twitter.com/abengigut"},{"name":"AutoHub Nigeria Services","address":"No 12 Ijara Cause-Way Ijora Apapa, Lagos, Lagos","state":"Lagos","description":"AutoHub is an online car spare parts dealership platform in Nigeria. We deal in high quality car parts for a wide range of makes and models – offered and guaranteed at the lowest prices. Our Mission...","rating":"","reviews":"","location":{"lat":"6.4694302762087466","lng":"3.3732962608337402"},"category":"Automotives","link":"https://www.businesslist.com.ng/company/257299/autohub-nigeria-services","imageUrl":"https://www.businesslist.com.ng/img/ng/r/1486215492-89-autohub-nigeria-services.jpg","phone":"08117328007","website":"www.autohub.com.ng/"},{"name":"Motus Technologies","address":"350 Borno Way,Off Herbert Macauley ,Yaba., Lagos, Lagos","state":"Lagos","description":"We provide Ground Transportation Services and Vehicle Management Solutions for Corporate Entities.We recently added Intercity Shuttle Service and The Operate and Maintain services .","rating":"","reviews":"","location":{"lat":"6.507209729872998","lng":"3.371429443359375"},"category":"Automotives","link":"https://www.businesslist.com.ng/company/263960/motus-technologies","imageUrl":"https://www.businesslist.com.ng/img/ng/e/1558094152-16-motus-technologies.png","phone":"07067416903","website":"www.motustek.com"},{"name":"MeziaTech Ltd","address":"12 MCC Road off Aba Owerri Road Abayi (Martins Plaza), Aba, Abia","state":"Abia","description":"Meziatech Ltd Nigeria is one of the outstanding vehicle tracking & fleet management company across Nigeria. We have been providing quality telematic solutions for many companies and corporations. We t...","rating":"","reviews":"","location":{},"category":"Automotives","link":"https://www.businesslist.com.ng/company/261744/meziatech-ltd","imageUrl":"https://www.businesslist.com.ng/img/ng/z/1534172507-64-meziatech-ltd.png","phone":"08107326077","website":"www.meziatech.com.ng"},{"name":"NIGERIA CUSTOMS AUCTION CARS FOR SALE","address":"Daura Border, Daura, Katsina","state":"Katsina","description":"Nigeria Custom Auction Impounded Vehicles for sale. We auction out Impounded cleared vehicles New and Tokumbo.","rating":"","reviews":"","location":{"lat":"13.056423399965011","lng":"8.488247394561768"},"category":"Automotives","link":"https://www.businesslist.com.ng/company/260623/nigeria-customs-auction-cars-for-sale","imageUrl":"https://www.businesslist.com.ng/img/ng/e/1524052746-58-nigeria-customs-auction-cars-for-sale.jpg","phone":"08064385278","website":"www.businesslist.com.ng"},{"name":"Pinakle Computer Technologies ","address":"6 Patrick Pillah Crescent, Makurdi, Benue","state":"Benue","description":"Pinakle Computer Technologies is a Nigerian IT company with expertise in a wide range of technologies. We specialize in: Home security systems, Access control, Internet Services, Networking, software ...","rating":"","reviews":"","location":{"lat":"7.730555599999999","lng":"8.536111099999971"},"category":"Automotives","link":"https://www.businesslist.com.ng/company/252567/pinakle-computer-technologies","imageUrl":"https://www.businesslist.com.ng/img/ng/r/1398612051_44918.jpg","phone":"07065488188","website":"Pinakle-ct.com"},{"name":"Brakes and Shocks Mobile Mechanics","address":"10, Oladimeji Alo Street, Ikate, Lekki Eti Osa Ikate, Lekki, Lagos, Lagos","state":"Lagos","description":"If you drive a car in Lagos or it's environs such as lekki, Ajah, Victoria Island, Ikeja, or other places on the island or mainland of Lagos, you would have experienced the frustration of having to de...","rating":"","reviews":"","location":{"lat":"6.435042","lng":"3.477002"},"category":"Automotives","link":"https://www.businesslist.com.ng/company/264493/brakes-and-shocks-mobile-mechanics","imageUrl":"https://www.businesslist.com.ng/img/ng/g/1563210472-32-brakes-and-shocks-mobile-mechanics.png","phone":"0817 882 4561","website":"www.brakesandshocks.ng/"},{"name":"RICHBON NIGERIA LIMITED","address":"PLOT 242 OSHODI-APAPA EXPRESSWAY, ODOLOWU BUSTOP, Lagos, Lagos","state":"Lagos","description":"RICHBON NIGERIA LIMITED was established over a decade ago. Richbon is an indigenous incorporated company dealing on high quality heavy duty trucks, Construction Equipment, trailers, tankers, Axles, (O...","rating":"","reviews":"","location":{"lat":"6.498492847960414","lng":"3.321390151977539"},"category":"Automotives","link":"https://www.businesslist.com.ng/company/253330/richbon-nigeria-limited","phone":"0700RICHBON0800RICHBON","website":"www.richbontruck.com"},{"name":"Demo Technologies","address":"30, 6, Olusegun Obasanjo way, Ita eko, Olorunsogo, Abeokuta South, Abeokuta, Ogun","state":"Ogun","description":"","rating":"","reviews":"","location":{"lat":"7.16083","lng":"3.34833"},"category":"Automotives","link":"https://www.businesslist.com.ng/company/201479/demo-technologies","phone":"0803715516407082301779","website":"www.demotechnologies.com.ng"},{"name":"CarFix Vehicle Solutions","address":"No 34B Katampe Road, Beside Daylight Plaza, Abuja, Nigeria, Abuja, Abuja","state":"Abuja","description":"CarFix Vehicle Solutions is a modern vehicle repair garage in Abuja at CarFix.ng we offer affordable and guaranteed vehicle repair services to individuals and corporate organizations. Our services are...","rating":"","reviews":"","location":{},"category":"Automotives","link":"https://www.businesslist.com.ng/company/267499/carfix-vehicle-solutions","imageUrl":"https://www.businesslist.com.ng/img/ng/c/1588037641-75-carfix-vehicle-solutions.jpg","phone":"07018999924","website":"www.carfix.ng"},{"name":"Mequip Engineering Ltd","address":"48 Circular Road, Elekahia Housing Estate., Port Harcourt, Rivers","state":"Rivers","description":"Mequip Engineering Ltd provides specialist in full service multi-brand vehicle leasing, offers companies tailored solutions aimed at optimising their employees’ mobility while outsourcing the risks ...","rating":"","reviews":"","location":{"lat":"4.815259652868477","lng":"7.049649953842163"},"category":"Automotives","link":"https://www.businesslist.com.ng/company/254890/mequip-engineering-ltd","phone":"084302868","website":"www.mequipengineering.com"},{"name":"Beatams","address":"Grace Court, Iseri-Lasu Road, General Busstop, Igando, Lagos, Lagos","state":"Lagos","description":"We are a fleet partner with the model cab service (Uber, Bolt etc). Our company is responsible for selecting the right vehicles and maintaining them in good operating condition so that the company can...","rating":"","reviews":"","location":{"lat":"6.559661079728918","lng":"3.249669149765899"},"category":"Automotives","link":"https://www.businesslist.com.ng/company/267088/beatams","imageUrl":"https://www.businesslist.com.ng/img/ng/h/1584367903-21-beatams.jpg","phone":"09030009046","website":"www.beatams.com"},{"name":"PICKMEUP RIDE","address":"N027, okungade okuneye street, Lagos, Lagos","state":"Lagos","description":"Pickmeup is a reliable platform that connect Drivers with host of riders who request for rides daily. It is a means of transport created for he general public to enjoy luxury on transportation with mu...","rating":"","reviews":"","location":{"lat":"6.570885583727111","lng":"3.3744174242019653"},"category":"Automotives","link":"https://www.businesslist.com.ng/company/259107/pickmeup-ride","imageUrl":"https://www.businesslist.com.ng/img/ng/g/1510144544-44-pickmeup-ride.jpg","phone":"08135330301","website":"www.pickmeup.com.ng"},{"name":"Anstel Motors Limited","address":"23A, Adeola Odeku Street, Victoria Island, Lagos, Lagos","state":"Lagos","description":"If you are looking for quality automotive services with competitive pricing, Anstel Limited is your answer. We are an auto sales and services workshop aimed at reducing automotive stress for vehicle o...","rating":"","reviews":"","location":{"lat":"6.430763240245866","lng":"3.415515476304563"},"category":"Automotives","link":"https://www.businesslist.com.ng/company/104005/anstel-motors-limited","imageUrl":"https://www.businesslist.com.ng/img/ng/k/1435575454_35836.jpg","phone":"+234-1-7755434+234-704-512-0773+231-704-067-7071+234-704-067-7072","website":"www.anstellimited.com"},{"name":"Elegante Hair","address":"70 Usuma Street Off Gana Street, Maitama, FCT, Abuja, Abuja","state":"Abuja","description":"Elegante is a growing brand that deals with luxury beauty products. We offer quality products from various brands ranging from 100% human hair extensions, electronic styling appliances, hair maintenan...","rating":"","reviews":"","location":{},"category":"Automotives","link":"https://www.businesslist.com.ng/company/170631/elegante-hair","imageUrl":"https://www.businesslist.com.ng/img/ng/c/1472636607_29273.jpg","phone":"0706868683909-2901072","website":"www.myeleganteworld.com"},{"name":"Princelink Technologies ltd.","address":"plot 1084 odumegwu ojukwu street Gudu district FCT Abuja.(NNPC filling station Gudu), Abuja, Abuja","state":"Abuja","description":"Autocentre is a professional Automobile servicing and repair centre.we have the latest Automobile tools and software for vehicle repairs and upgrade. We have OEM Auto spare parts for European, America...","rating":"","reviews":"","location":{"lat":"9.000720827055446","lng":"7.475016117095947"},"category":"Automotives","link":"https://www.businesslist.com.ng/company/256681/princelink-technologies-ltd","imageUrl":"https://www.businesslist.com.ng/img/ng/n/1484612261-52-princelink-technologies-ltd.jpg","phone":"08168686909","website":"www.autocentre.com.ng"},{"name":"jcgold continental Ltd","address":"22 Iduwo taylor street victoria island , Victoria Island, Lagos","state":"Lagos","description":"JCGOLD is a duly registered and licensed indigenous company engaged in the provision of car rental services, Car lease, Car Sales, Cars & Services and Auto financing. We have acquired competence which...","rating":"","reviews":"","location":{"lat":"22","lng":""},"category":"Automotives","link":"https://www.businesslist.com.ng/company/259436/jcgold-continental-ltd","imageUrl":"https://www.businesslist.com.ng/img/ng/g/1510843576-61-jcgold-continental-ltd.jpg","phone":"2348057228918","website":"www.jcgoldgroup.com"},{"name":"Auto Drive Business CONCEPT","address":"43 Kudirat Abiola Way, Oregun, Ikeja, Lagos, Lagos","state":"Lagos","description":"Auto Drive Business Concept is Incorporated in Nigeria. We are a first Class transport organization operating from Lagos and Abuja to different parts of Nigeria and West Africa Regions. Our task is to...","rating":"","reviews":"","location":{},"category":"Automotives","link":"https://www.businesslist.com.ng/company/264764/auto-drive-business-concept","imageUrl":"https://www.businesslist.com.ng/img/ng/k/1565720712-38-auto-drive-business-concept.png","phone":"+2348185029724","website":"www.autodrive.ng"},{"name":"Vogue Express Nig Ltd","address":"20 Church Street, Odonguyan, Ikorodu, Ikorodu, Lagos","state":"Lagos","description":"We are a haulage and logistic company carrying out the services of international air freight, sea freight and Transportational services. We are solely concerned about our customers satisfaction, we op...","rating":"","reviews":"","location":{"lat":"6.661581153335684","lng":"3.519669771194458"},"category":"Automotives","link":"https://www.businesslist.com.ng/company/256742/vogue-express-nig-ltd","phone":"+2347051128298","website":"www.vogueexpress.ng"},{"name":"spare space limited","address":"Suite C4 Lenu Shopping Mall Sanni Abacha Road P.H, Port Harcourt, Rivers","state":"Rivers","description":"SPARE SPACE LIMITED is a dynamic, innovative and instrumental vehicles and equipment leasing company that is technically structured to afford its client quality and affordable leasing terms, using 21s...","rating":"","reviews":"","location":{"lat":"9.08572818596997","lng":"8.649871116210988"},"category":"Automotives","link":"https://www.businesslist.com.ng/company/190162/spare-space-limited","phone":"084-795437","website":"www.sparespace.com.ng"},{"name":"HEMADEBS RESOURCES","address":"7, OLUBUKOLA ILORI STREET, OFF AJALA BUS STOP, IJAYE, Alagbado, Lagos","state":"Lagos","description":"We are pleased to introduce our company, HEMADEBS RESOURCES to you our esteemed customers. We have been in the tyre business for over 10years in Nigeria. We have wide range of tyre brands manufactured...","rating":"","reviews":"","location":{},"category":"Automotives","link":"https://www.businesslist.com.ng/company/196487/hemadebs-resources","imageUrl":"https://www.businesslist.com.ng/img/ng/m/1379247018_90578.jpg","phone":"2348164634531","website":"www.hemadebs.gnbo.com.ng"},{"name":"AUTOMOBILE RECOVERY AND MANAGEMENT LIMITED","address":"89 Opebi Street Ikeja, Lagos., Ikeja, Lagos","state":"Lagos","description":"We provide vehicle delivery/ pickup solutions to individuals and organizations. We are in business to address the need for quality delivery and pick up of cars at the right price by going the extra mi...","rating":"","reviews":"","location":{"lat":"6.5855740920463495","lng":"3.3638459191406582"},"category":"Automotives","link":"https://www.businesslist.com.ng/company/253989/automobile-recovery-and-management-limited","phone":"0802888888108028888882","website":"www.autorecovery.mobi"},{"name":"Autotek Pro","address":"Ifako-Gbagada , Lagos, Lagos","state":"Lagos","description":"Auto Diagnostics & Repair Information Service Center. The leading provider in auto repair diagnostic code data and repair procedure in Lagos. We subscribe to professional auto repair information syste...","rating":"","reviews":"","location":{},"category":"Automotives","link":"https://www.businesslist.com.ng/company/260758/autotek-pro","imageUrl":"https://www.businesslist.com.ng/img/ng/s/1525199575-15-autotek-pro.jpg","phone":"0902156805","website":"www.autotekpro.com/"}]