[{"name":"BUTRUPA LTD","address":"No 19 Forest crescent G.R.A Enugu, Enugu, Enugu","state":"Enugu","description":"Butrupa Ltd is a trusted supplier of spare parts for buses, trucks and Electronic items. Butrupa offers our customers in Nigeria an extensive range of products and services from manufacturers and supp...","rating":"","reviews":"","location":{},"category":"Automotives","link":"https://www.businesslist.com.ng/company/252804/butrupa-ltd","imageUrl":"https://www.businesslist.com.ng/img/ng/h/1404908619_64870.jpg","phone":"0806051647908182755231","website":"www.butrupa.com"},{"name":"Tekra car rentals","address":"Suite C9, SHM complex, Along Kado/Mabushi expressway, FCT Abuja., Abuja, Abuja","state":"Abuja","description":"Are you searching for a car rental company with brand new cars,well trained chauffeurs and an excellent fleet management team for all your logistics need such as airport shuttle,full day services,trav...","rating":"","reviews":"","location":{},"category":"Automotives","link":"https://www.businesslist.com.ng/company/257923/tekra-car-rentals","imageUrl":"https://www.businesslist.com.ng/img/ng/h/1493656791-89-tekra-car-rentals.jpg","phone":"07069001551","website":"www.tekraglobalconcepts.com"},{"name":"Arrowhead Automobiles","address":"35C, Adetokunbo Ademola Street, Victoria Island, Lagos","state":"Lagos","description":"Arrowhead Automobiles have over the years carved a niche in the high-end segment of the automobile market. We import and stock latest models of luxury brands like Mercedes Benz, Range Rover, Jaguar, B...","rating":"","reviews":"","location":{},"category":"Automotives","link":"https://www.businesslist.com.ng/company/255159/arrowhead-automobiles","phone":"","website":"www.arrowheadautomobile.com"},{"name":"Neu Speed Tyre Service Ltd","address":"23 Ikosi /Ziatech Road Oregun Oregun Ikeja Lagos, Ikeja, Lagos","state":"Lagos","description":"Neu Speed Tyre Services was established in the year 2000 basically to provide choice of premium and mid-range tyres aligned with world class tyre maintenance service to our motorists. At Neu Speed we ...","rating":"","reviews":"","location":{},"category":"Automotives","link":"https://www.businesslist.com.ng/company/165573/neu-speed-tyre-service-centre","imageUrl":"https://www.businesslist.com.ng/img/ng/z/1534157259_49329.jpg","phone":"+2348033299530+2349093900839","website":""},{"name":"Expedite tracking company","address":"127, Ikorodu road, Onipanu, Lagos state, Lagos, Lagos","state":"Lagos","description":"EXPEDITE is a globally recognized security based company. We are a core manufacturer and installer of Vehicle Tracking units, Asset Monitoring devices. We are professionally indemnified, certified by ...","rating":"","reviews":"","location":{},"category":"Automotives","link":"https://www.businesslist.com.ng/company/262906/expedite-tracking-company","phone":"08036442107","website":"www.expeditetrackingltd.com.ng"},{"name":"DUNAC INVESTMENT LTD","address":"Zone C, block 5 suite 7 & 8 Aspamda shopping plaza,Trade Fair complex Badagry express Lagos State Nigeria, Lagos, Lagos","state":"Lagos","description":"Dealing on Heavy duty truck spare parts.","rating":"","reviews":"","location":{},"category":"Automotives","link":"https://www.businesslist.com.ng/company/138765/dunac-investment-ltd","phone":"+23414548319","website":"dunacnigeria.com"},{"name":"McDrive Logistics & Insitute Limited","address":"58 Ibeshe Road Ikorodu, Ikorodu, Lagos","state":"Lagos","description":"The company designs innovative logistic solutions and proffers alternative and cost effective means of transportation. Currently working on delivering a viable seaportation structure for ameliorating ...","rating":"","reviews":"","location":{"lat":"6.5741429","lng":"3.4861958000000186"},"category":"Automotives","link":"https://www.businesslist.com.ng/company/170752/mcdrive-logisticsinsitute-limited","imageUrl":"https://www.businesslist.com.ng/img/ng/c/1337729608_59140.png","phone":"","website":"www.gotestdrivenaija.org"}]