[{"name":"Obalola Limited","address":"Beside Rita Lori, Garki, Abuja","state":"","description":"","rating":"","reviews":"","location":{"lat":"9.06667","lng":"7.48333"},"category":"automotive","phone":"","website":"","email":""},{"name":"Ojo Mash Automobile Clinic","address":"104B, Murital Mohammed Airport, Nasarawa, Kano","state":"","description":"","rating":"","reviews":"","location":{"lat":"12","lng":"8.516667"},"category":"automotive","phone":"","website":"","email":""},{"name":"Olasco Enginneering Company","address":"Km 4, Apapa-Oshodi Expressway, Orege, Ajeromi Ifelodun, Lagos","state":"","description":"","rating":"","reviews":"","location":{"lat":"6.4883284","lng":"3.3246135"},"category":"automotive","phone":"","website":"","email":""},{"name":"","address":"","state":"","description":"","rating":"","reviews":"","location":{},"category":"automotive","phone":"","website":"","email":""},{"name":"Olar And Company Nigeria Limited","address":"2, Olayiwola Street, Ayetoro, Ido Osi, Ekiti","state":"","description":"","rating":"","reviews":"","location":{"lat":"7.66558","lng":"5.31025"},"category":"automotive","phone":"","website":"","email":""},{"name":"OliveTrack","address":"1, Sanusi street, Off market street, Shomolu, Lagos","state":"","description":"OliveTrack is one of the leading I.T. company in Nigeria toady introducing the latest technologies in car tracking systems, cctv, gps navigation systems etc","rating":"","reviews":"","location":{},"category":"automotive","phone":"","website":"","email":""},{"name":"Olusegun Orewale Peroleum","address":"133, Idimu Road, Egbeda, Alimosho, Lagos","state":"","description":"","rating":"","reviews":"","location":{"lat":"6.44116","lng":"3.41798"},"category":"automotive","phone":"","website":"","email":""},{"name":"Opeyemi Enginnering","address":"3, Oniwaya Road Agege, Agege, Lagos","state":"","description":"","rating":"","reviews":"","location":{"lat":"6.6204889","lng":"3.3247693"},"category":"automotive","phone":"","website":"","email":""},{"name":"","address":"","state":"","description":"","rating":"","reviews":"","location":{},"category":"automotive","phone":"","website":"","email":""},{"name":"Owejicom General Enterprises And Services","address":"8, safi Street Wuse Zone Abuja, Wuse 4, Wuse, Abuja","state":"","description":"","rating":"","reviews":"","location":{"lat":"9.06737","lng":"7.4712"},"category":"automotive","phone":"","website":"","email":""},{"name":"Owo Automobile Workshop","address":"1, Ayora Street, Eruwon, Ijebu Ode, Ogun","state":"","description":"","rating":"","reviews":"","location":{"lat":"6.8208333","lng":"3.9208333"},"category":"automotive","phone":"","website":"","email":""},{"name":"Park \"N\" Fly International","address":"5B, Igwe Street, Off Aba Road, 1st Artillery, Rivers, Port Harcourt","state":"","description":"","rating":"","reviews":"","location":{"lat":"4.8627484","lng":"7.0279839"},"category":"automotive","phone":"","website":"","email":""},{"name":"Petr Stone Security Nigeria Limited","address":"Block E Suite 4, Powa International Market, Nyanya, Abuja","state":"","description":"","rating":"","reviews":"","location":{"lat":"8.99395","lng":"7.56975"},"category":"automotive","phone":"","website":"","email":""},{"name":"Power By Tools Techiques Company","address":"21, Aina Road, Agiliti Mile12, Ketu, Kosofe, Lagos","state":"","description":"","rating":"","reviews":"","location":{"lat":"6.59878","lng":"3.40946"},"category":"automotive","phone":"","website":"","email":""},{"name":"","address":"","state":"","description":"","rating":"","reviews":"","location":{},"category":"automotive","phone":"","website":"","email":""},{"name":"Premium Car Wash 'N' Detail Center","address":"18, Afaha-Eket Road, Akwa Ibom, Eket","state":"","description":"","rating":"","reviews":"","location":{"lat":"4.6356444","lng":"7.9258301"},"category":"automotive","phone":"","website":"","email":""},{"name":"Prems Car Wash","address":"KM 7, Shop 5, Idi Iroko Road, Iyana Iyesi, Ado Odo/Ota, Ogun","state":"","description":"","rating":"","reviews":"","location":{"lat":"6.63333","lng":"2.73333"},"category":"automotive","phone":"","website":"","email":""},{"name":"Prime Track Nigeria","address":"Lagos, Lagos","state":"","description":"PrimeTrack Nigeria - Vehicle tracking gives you peace of mind","rating":"","reviews":"","location":{},"category":"automotive","phone":"","website":"","email":""},{"name":"Prioritygold Nigeria Limited","address":"Asero International Market, Asero, Abeokuta South, Ogun","state":"","description":"","rating":"","reviews":"","location":{"lat":"7.16083","lng":"3.34833"},"category":"automotive","phone":"","website":"","email":""},{"name":"Prince Car Wash","address":"4, Agbonyin Avenue, Off Adelabu Street, Surulere, Lagos","state":"","description":"","rating":"","reviews":"","location":{"lat":"6.4987484","lng":"3.3498923"},"category":"automotive","phone":"","website":"","email":""},{"name":"Rantexson Auto Care","address":"Oando Filling Station, Alausa, Ikeja, Lagos","state":"Lagos","description":"","rating":"","reviews":"","location":{"lat":"6.5833333","lng":"3.3333333"},"category":"automotive","phone":"","website":"","email":""},{"name":"R Cross Mechanical Engineering","address":"21A, Ago Palace Way, Okota, Oshodi Isolo, Lagos","state":"","description":"","rating":"","reviews":"","location":{"lat":"6.50231","lng":"3.30497"},"category":"automotive","phone":"","website":"","email":""},{"name":"Richie Rich Motors","address":"Olusanya Area, Ring Road, Ibadan South West, Oyo","state":"","description":"","rating":"","reviews":"","location":{"lat":"7.3963889","lng":"3.9166667"},"category":"automotive","phone":"","website":"","email":""},{"name":"","address":"","state":"","description":"","rating":"","reviews":"","location":{},"category":"automotive","phone":"","website":"","email":""},{"name":"Rondok Commercial Enterprises","address":"1, Aina Alashe Street, Itamaga, Ikorodu, Ikorodu","state":"","description":"","rating":"","reviews":"","location":{"lat":"6.6","lng":"3.5"},"category":"automotive","phone":"","website":"","email":""},{"name":"Rosand Business Enterprises Limited","address":"Awe Street, Benue, Makurdi","state":"","description":"","rating":"","reviews":"","location":{"lat":"7.73056","lng":"8.53611"},"category":"automotive","phone":"","website":"","email":""},{"name":"Sammechson Snow Car Wash","address":"213, Abuloma Road, Abuloma, Rivers, Port Harcourt","state":"","description":"","rating":"","reviews":"","location":{"lat":"4.78136","lng":"7.05061"},"category":"automotive","phone":"","website":"","email":""},{"name":"San Technologies","address":"19, Mafikuyomi Area, Iwo Road, Egbeda, Oyo","state":"","description":"","rating":"","reviews":"","location":{"lat":"7.40187","lng":"3.93939"},"category":"automotive","phone":"","website":"","email":""},{"name":"Selkins Global Links Limited","address":"19/21, Jimmyco Shopping Complex, Ojaoba, Lagos/Abeokuta EXpreeway, Alimosho, Lagos","state":"","description":"","rating":"","reviews":"","location":{"lat":"6.6105556","lng":"3.2958333"},"category":"automotive","phone":"","website":"","email":""},{"name":"Shalom Auto Land Limited","address":"Front of Eti-Osa local govt secretariat, Lekki-Epe exp way., Along Lekki Ekpe Expresswau, Eti Osa, Lagos","state":"","description":"","rating":"","reviews":"","location":{"lat":"6.43836","lng":"3.51912"},"category":"automotive","phone":"","website":"","email":""},{"name":"Soapy Wash","address":"Along Numan Road, Kofare, Yola North, Adamawa","state":"","description":"","rating":"","reviews":"","location":{"lat":"9.2035","lng":"12.4954"},"category":"automotive","phone":"","website":"","email":""},{"name":"Store Technology","address":"26, Adegbola Street, Anifowoshe, Ikeja, Lagos","state":"Lagos","description":"","rating":"","reviews":"","location":{"lat":"6.45306","lng":"3.39583"},"category":"automotive","phone":"","website":"","email":""},{"name":"Swift Tech Global Limited","address":"Block 8, Flat 13B, Jubilee Housing Estate, Ikorodu, Lagos","state":"Lagos","description":"","rating":"","reviews":"","location":{"lat":"6.45306","lng":"3.39583"},"category":"automotive","phone":"","website":"","email":""},{"name":"Tbn Global Resources Limited","address":"1, Olu-Obasanjo Road, Water Line, Rivers, Port Harcourt","state":"","description":"","rating":"","reviews":"","location":{"lat":"4.78482","lng":"7.00545"},"category":"automotive","phone":"","website":"","email":""}]