[{"name":"Tebenaj Automobile Solutions ","address":"10, Community Road Awoyaya Lagos., Lagos Island, Lagos","state":"Lagos","description":"Tebenaj automobile solutions is a one stop automobile workshop equipped with best in class tools, equipment, machines and human resources. We provide world class vehicle repairs and maintenance soluti...","rating":"5.0","reviews":"1 Review","location":{"lat":"6.470453684061782","lng":"3.711140226951102"},"category":"Automotives","link":"https://www.businesslist.com.ng/company/253143/tebenaj-automobile-solutions","imageUrl":"https://www.businesslist.com.ng/img/ng/s/1412674601-tebenaj-automobile-solutions.jpg","phone":"08172078475","website":"www.facebook.com/TebenajAutomobilesolutions"},{"name":"PG Drive Nig Limited","address":"Km 24 Lekki epe expressway Sangotedo Ajah Lekki Lagos., Shop E181, Lagos Island, Lagos","state":"Lagos","description":"PG Drive Nig Limited is a multi purpose and multi functional transport Logistics company, Running Driving School, Fleet management, Transport management, Drivers License processing, Drivers recruiter,...","rating":"","reviews":"","location":{"lat":"6.47040295384932","lng":"3.639655493523559"},"category":"Automotives","link":"https://www.businesslist.com.ng/company/266845/pg-drive-nig-limited","imageUrl":"https://www.businesslist.com.ng/img/ng/c/1582875087-86-pg-drive-nig-limited.jpg","phone":"07036362694","website":"pgdriveng.business.site/"},{"name":"Auto-profs Automobile Services","address":"Lekki beach road Jakande roundabout Lekki Lagos, Lagos, Lagos","state":"Lagos","description":"We are one of the leading automobile services provider in Nigeria. We venture into services such as consultancy,automotive educational services and support, trainings, maintenance and repairs","rating":"5.0","reviews":"1 Review","location":{"lat":"6.430114539201801","lng":"3.509045577383631"},"category":"Automotives","link":"https://www.businesslist.com.ng/company/258023/auto-profs-automobile-services","imageUrl":"https://www.businesslist.com.ng/img/ng/z/1533304513-63-auto-profs.jpg","phone":"+2347057299596","website":"www.auto-profs.com"},{"name":"SHARP AUTOS","address":"168 Okota Road, Okota - Ago-Palace way, ISOLATION, Lagos, Lagos, Lagos","state":"Lagos","description":"SHARP AUTOS is a No 1 Genuine car dealer company in Okota - Ago-Palace way, Lagos, Nigeria. We sell, New, second handed(Tokunbo), and registered cars. We are Affordable and Trust is the soul key in ou...","rating":"5.0","reviews":"2 Reviews","location":{"lat":"6.5088035526473185","lng":"3.321505016924373"},"category":"Automotives","link":"https://www.businesslist.com.ng/company/267596/sharp-autos","imageUrl":"https://www.businesslist.com.ng/img/ng/m/1588853450-31-sharp-autos.png","phone":"+2347039796414","website":""},{"name":"Qship Nigeria","address":"951A Admiral Oduwaye Crescent, Omole Phase II, Ikeja, Lagos","state":"Lagos","description":"Qship is an online Truckers-Marketplace where shippers (anyone who has goods/loads) post their shipment and get bids from truckers/transporters nationwide. The Company provides a wide range of alterna...","rating":"","reviews":"","location":{"lat":"6.633214274934621","lng":"3.3670497397644112"},"category":"Automotives","link":"https://www.businesslist.com.ng/company/257828/qship-ltd","imageUrl":"https://www.businesslist.com.ng/img/ng/s/1492606050-40-qship-ltd.png","phone":"08031230423","website":"www.qship.com.ng"},{"name":"WESTERN FUNERAL HOME LIMITED","address":"1, Oluwatosin Onamade Street, Igbodu Junction / Elemu Oke-eletu, Ijede Road. (2nd Office) Western Cemetery (ILCDA) Ijede Road, Abule Eko, Ikorodu., Ikorodu, Lagos","state":"Lagos","description":"WESTERN FUNERAL HOME LIMITED is a private establishment initiative, designed to provide funeral “Superstore” for discerning clients to be fully satisfy. The funeral home is equipped with the state...","rating":"","reviews":"","location":{"lat":"6.605725687325692","lng":"3.5880031253491325"},"category":"Automotives","link":"https://www.businesslist.com.ng/company/253222/western-funeral-home-limited","imageUrl":"https://www.businesslist.com.ng/img/ng/l/1414656952-western-funeral-home-limited.jpg","phone":"+2348023601534","website":"www.westernfuneralhome.ng.com"},{"name":"Prima Nova Chauffeur Services","address":"27 Unachukwu Avenue, Rumuibekwe, Port Harcourt, Rivers State, Nigeria, Port Harcourt, Rivers","state":"Rivers","description":"Prima Nova is a premium car hire service company based in Port Harcourt, providing affordable executive car hire and vehicle leasing services within the city and to all states in Nigeria. All our vehi...","rating":"5.0","reviews":"1 Review","location":{"lat":"4.8411152691508","lng":"7.055293321609497"},"category":"Automotives","link":"https://www.businesslist.com.ng/company/256487/prima-nova-chauffeur-services","imageUrl":"https://www.businesslist.com.ng/img/ng/m/1472051974-67-prima-nova-chauffeur-services.jpg","phone":"+234 909 000 5342","website":"www.facebook.com/primanovacab"},{"name":"Sparrows Car Wash Systems","address":"Anthony Village, Lagos, Lagos","state":"Lagos","description":"Sparrows Car Wash Systems is a vehicle wash equipment provider and service company based in Lagos, Nigeria. We are the exclusive supplier of the automatic roll-over and wash tunnels systems.","rating":"5.0","reviews":"1 Review","location":{"lat":"6.5574648336051995","lng":"3.3681335411865803"},"category":"Automotives","link":"https://www.businesslist.com.ng/company/255724/sparrows-car-wash-systems","imageUrl":"https://www.businesslist.com.ng/img/ng/k/1461958322-76-sparrows-car-wash-systems.png","phone":"08058521127","website":"www.sparrowscws.com"},{"name":"Ears Nigeria Limited","address":"3rd Floor, Olatunji House, 299 Ikorodu Road, Maryland, Lagos, Lagos, Lagos","state":"Lagos","description":"Welcome to EARS Nigeria Limited, the pioneer Auto Breakdown Recovery company. EARS Nigeria Limited does business as EARS Auto Recovery and we have presence in 5 states of the federation. EARS began bu...","rating":"","reviews":"","location":{"lat":"6.5653681569812035","lng":"3.366164799769649"},"category":"Automotives","link":"https://www.businesslist.com.ng/company/150353/ears-nigeria-limited","imageUrl":"https://www.businesslist.com.ng/img/ng/c/1471606894-19-ears-nigeria-limited.jpg","phone":"08023060156","website":"www.earsautorecovery.com"},{"name":"Torima Technology Limited","address":"Favour bakery,along Aka Avenue,through Refinery road,after Apribet filling station,Effurun,Delta State, Warri, Delta","state":"Delta","description":" We at Torima technology limited deals on different services which include Vehicle Tracking,Speed Limiter Installation,Auto Locksmith Service,Hotel Card Lock,Revolving Door,Automatic Sliding Doors,Gat...","rating":"","reviews":"","location":{"lat":"5.548572904705816","lng":"5.79070486474609"},"category":"Automotives","link":"https://www.businesslist.com.ng/company/264849/torima-technology-limited","imageUrl":"https://www.businesslist.com.ng/img/ng/e/1566293366-59-torima-technology-limited.jpg","phone":"081263430450807517155309034492428","website":"www.torimatechnology.com"},{"name":"POWER ASSETS RESOURCE MANAGEMENT COMPANY","address":"33/34 Eastern Bypass (BICS House), Port Harcourt, Rivers","state":"Rivers","description":"PARMC Ltd is a leading end to end integrated supply chain logistics solution provider. Our clients challenges require specific customized solutions targeted at unique wide ranging business goals. PARM...","rating":"5.0","reviews":"1 Review","location":{"lat":"4.797767704881278","lng":"7.012701213265927"},"category":"Automotives","link":"https://www.businesslist.com.ng/company/264395/power-assets-resource-management-company","phone":"09036022934","website":"www.parmcltd.com"},{"name":"V-DILESOLUTIONS","address":"Head Office:1 Thomas Olaniyan Street Idiroko bus-stop Anthony Lagos Nigeria and Branches Nationwide , Lagos, Lagos","state":"Lagos","description":"V-Dile solutions Nigeria Limited is committed to delivering the best quality network of IP cameras which will pass any local or international quality certification.V-Dile Solutions is a security Solut...","rating":"","reviews":"","location":{"lat":"6.563700102546717","lng":"3.367414709170589"},"category":"Automotives","link":"https://www.businesslist.com.ng/company/260626/v-dilesolutions","imageUrl":"https://www.businesslist.com.ng/img/ng/l/1524056588-30-v-dilesolutions.jpg","phone":"+2348065605024","website":"www.vdilesolution.com"},{"name":"GPSFLEETMATIC","address":"410 ikorodu road, Ojota bustop, Lagos, Lagos","state":"Lagos","description":"We are general Merchants of GPS tracking devices, installation, and fleet management services, With over 5 years in the business and a number of top companies in our tracking database. Our seasoned tr...","rating":"","reviews":"","location":{"lat":"6.588024","lng":"3.37915"},"category":"Automotives","link":"https://www.businesslist.com.ng/company/261782/gpsfleetmatic","imageUrl":"https://www.businesslist.com.ng/img/ng/f/1536482072-88-gpsfleetmatic.jpg","phone":"08033233325","website":"gpscartracking.com.ng"},{"name":"Asia-Africa International Fze","address":"Lekki Coastal Road, Ibeju-Lekki Local Government Area, Lagos State, Nigeria., Lagos, Lagos","state":"Lagos","description":"Asia-Africa International FZE is an automobile assembly company that specialized on heavy and light vehicles, established in 2015, registered in lekki free zone, Ibeju-lekki Lagos state, Nigeria. . Ou...","rating":"","reviews":"","location":{"lat":"6.43807374297374","lng":"3.937824148422237"},"category":"Automotives","link":"https://www.businesslist.com.ng/company/265067/asia-africa-international-fze","imageUrl":"https://www.businesslist.com.ng/img/ng/h/1568042263-68-asia-africa-international-fze.jpg","phone":"09020723330","website":"en-howgroup.com.ng"},{"name":"Getmypapers.com.ng","address":"Suite100, Adebola house, Opebi, Ikeja, Lagos, Ikeja, Lagos","state":"Lagos","description":"Getmypapers.com.ng is an online vehicle registration agent and logistics platform. We offer wide range of services from vehicle registration, vehicle change of ownership, car papers renewal, drivers l...","rating":"","reviews":"","location":{"lat":"6.591136901508669","lng":"3.359307197603812"},"category":"Automotives","link":"https://www.businesslist.com.ng/company/263805/getmypaperscomng","imageUrl":"https://www.businesslist.com.ng/img/ng/c/1556409033-24-getmypapers-com-ng.png","phone":"08128799114","website":"www.getmypapers.com.ng"},{"name":"daitrans logistics services ltd","address":"Lavista Court lokogoma Abuja. , Abuja, Abuja","state":"Abuja","description":"Daitrans Logistics Services LTD. Is a foremost logistics company in Nigeria. We render all kinds of logistics services ranging from car hire services, Transportation, vacation plannings all over Niger...","rating":"","reviews":"","location":{"lat":"9.064497917185426","lng":"7.390488672491415"},"category":"Automotives","link":"https://www.businesslist.com.ng/company/259542/daitrans-logistics-services-ltd","imageUrl":"https://www.businesslist.com.ng/img/ng/z/1571210294-60-daitrans-logistics-services-ltd.png","phone":"09010802732","website":"www.daitransltd.com"},{"name":"GMI INTERNATIONAL GLOBAL SERVICES","address":"51, TRANS-WOJI ELELENWO ROAD, BY ELITOR BUSTOP, WOJI, PORT HARCOURT, Port Harcourt, Rivers","state":"Rivers","description":"GMI GROUP is a reputable and registered company with CAC Nigeria.over the years our company has offered quality and undeniable professional services. Our services cuts through; DIGITAL SECURITIES (Aut...","rating":"","reviews":"","location":{"lat":"6.561720554599535","lng":"3.2724666595458984"},"category":"Automotives","link":"https://www.businesslist.com.ng/company/257470/gmi-international-global-services","imageUrl":"https://www.businesslist.com.ng/img/ng/f/1488446064-27-gmi-international-global-services.jpg","phone":"08137917495","website":"www.gmibulksms.com.ng"},{"name":"Vehicle Papers & Insurance Shop","address":"A&P House, 121 Muyibi Street, Olodi-Apapa, Lagos, Apapa, Lagos","state":"Lagos","description":"Vehicle papers & insurance shop offers you tailor made solutions to everything relating to vehicle registration, licensing, road worthiness, insurance and much more either at our centre or delivered t...","rating":"","reviews":"","location":{"lat":"6.447746321822351","lng":"3.334028720855713"},"category":"Automotives","link":"https://www.businesslist.com.ng/company/258219/vehicle-papersinsurance-shop","imageUrl":"https://www.businesslist.com.ng/img/ng/a/1502096038-50-vehicle-papers-insurance-shop.png","phone":"09066675664","website":"www.vehiclepapers.wix.com/vehiclepapers"},{"name":"Dael Autos","address":"9, Alhaji Bankole Crescent (BOET ESTATE), Off Adeniyi Jones, Ikeja, Lagos, Ikeja, Lagos","state":"Lagos","description":"Dael Autos is a Car dealership that specializes in car sales and car rentals in Nigeria. At Dael Autos we Buy, Sell, Swap affordable luxury and conventional cars. Our Car rental service is very afford...","rating":"","reviews":"","location":{"lat":"6.616806596861122","lng":"3.3501742780208588"},"category":"Automotives","link":"https://www.businesslist.com.ng/company/259430/dael-autos","imageUrl":"https://www.businesslist.com.ng/img/ng/f/1510824265-50-dael-autos.jpg","phone":"+234 803 883 1526","website":"www.daelautos.com"},{"name":"Eonsfleet Prosolutions Limited ","address":"Plot 5D, 5th Avenue, Gowon Estate, Alimosho, Ikeja, Lagos","state":"Lagos","description":"Capture rich data on vehicle position, speed, fuel use, idling, and more with Eonsfleet's GPS fleet management solutions. Optimize your fleet with high-performance technology that's scalable, flexible...","rating":"","reviews":"","location":{"lat":"6.6003966","lng":"3.2838021"},"category":"Automotives","link":"https://www.businesslist.com.ng/company/262832/eonsfleet-prosolutions-limited","imageUrl":"https://www.businesslist.com.ng/img/ng/a/1568058629-90-eonsfleet-telematics.png","phone":"07087887146","website":"www.eonsfleet.com"},{"name":"Onis Ventures Key Duplicating and Auto Diagnostics","address":"29, College Road, Haruna Bus-Stop Besides Mr Biggs. Ifako-Ijaiye, Lagos State, Nigeria, Ikeja, Lagos","state":"Lagos","description":"I am a professional key Cutter and I programme different types of Car key (Immobilizer Programming) using different types of Machine E.g X100 Pro Key Programming, T-Code, CK 200, Toyota Smart, Techstr...","rating":"","reviews":"","location":{"lat":"6.615735437747465","lng":"3.3501773820007656"},"category":"Automotives","link":"https://www.businesslist.com.ng/company/255572/onis-ventures-key-duplicating-and-auto-diagnostics","imageUrl":"https://www.businesslist.com.ng/img/ng/n/1459664392-57-onis-ventures-key-duplicating-and-auto-diagnostics.jpg","phone":"08055445655","website":""},{"name":"AlignMyCar Klinic Global Ltd","address":"No: 2 Bukuru - Jos Express Way Near Fire Service, Anguldi, Jos, Plateau","state":"Plateau","description":"AlignMyCar Klinic Global Ltd Is a Modern Tyre Service Center where by We take care of You, Your vehicle Tyres and The Car Itself. Here @ AMC Klinic Global Ltd, We offer services like: 3D Wheel alignme...","rating":"","reviews":"","location":{"lat":"9.778474760719178","lng":"8.860766345785578"},"category":"Automotives","link":"https://www.businesslist.com.ng/company/255534/alignmycar-klinic-global-ltd","imageUrl":"https://www.businesslist.com.ng/img/ng/j/1458747625-64-alignmycar-klinic-global-ltd.jpg","phone":"08037032695","website":""},{"name":"Cypher Data Management Ltd","address":"129 Isawo Road, Owutu, Ikorodu, Lagos, Ikorodu, Lagos","state":"Lagos","description":"Providing strategic guidance to organizations on IT technologies and infrastructures. Supporting the accomplishment of major business processes through counselling on how to use information technology...","rating":"","reviews":"","location":{"lat":"6.6","lng":"3.5"},"category":"Automotives","link":"https://www.businesslist.com.ng/company/190096/cypher-data-management-ltd","imageUrl":"https://www.businesslist.com.ng/img/ng/c/1341426655_99007.jpg","phone":"07038810250","website":"www.cypher.com.ng"},{"name":"Tyreman.ng","address":"51, Olaide Adeyeye Street, MCC Estate, Gbagada, Kosofe, Lagos, Nigeria, Lagos, Lagos","state":"Lagos","description":"Tyreman.ng get people new tyres for every vehicle at the best price, and with free shipping within lagos! Customers get the best prices because of a unique low-cost, high-volume business model.","rating":"","reviews":"","location":{"lat":"6.562072286791479","lng":"3.3790791034698486"},"category":"Automotives","link":"https://www.businesslist.com.ng/company/263556/tyremanng","imageUrl":"https://www.businesslist.com.ng/img/ng/e/1553037498-26-tyreman-ng.jpg","phone":"+2348188888965","website":"www.tyreman.ng"},{"name":"Alcredo car rentals","address":"2c babatunde dabiri, lekki phase one., Lagos Island, Lagos","state":"Lagos","description":"At Alcredo, we proudly stand head and shoulders above our competitors offering similar services. We are a technology driven company with plans to simplify the mode of life of the average person. Our u...","rating":"","reviews":"","location":{"lat":"6.434074433230245","lng":"3.464244687137011"},"category":"Automotives","link":"https://www.businesslist.com.ng/company/262358/alcredo-car-rentals","imageUrl":"https://www.businesslist.com.ng/img/ng/f/1539869762-23-alcredo-car-rentals.jpg","phone":"09030006622","website":"www.alcredogroup.com"},{"name":"Nabkpon Auto Solutions Limited","address":"Suit 11 Dodondawa PPlaza, Chivita Avenue Ajao Estate, Oshodi Isolo, Ikeja, Lagos","state":"Lagos","description":"Your one-stop Auto Solution Provider. Delivering creative solution to auto problems. Absolute commitment to quality and excellence!","rating":"","reviews":"","location":{"lat":"6.540606614240798","lng":"3.3235801532866844"},"category":"Automotives","link":"https://www.businesslist.com.ng/company/201468/nabkon-auto-solution-limited","imageUrl":"https://www.businesslist.com.ng/img/ng/x/1544603272_85929.jpg","phone":"0705555803208023134264","website":"www.nabkon.com"},{"name":"KevHServices","address":"No 6, Amara Olu Street off Agidingbi, Ikeja, Ikeja, Lagos","state":"Lagos","description":"KevHServices is a well fashioned up-to-date dealership with clear-cut detailed services. We deal in wide range of Vehicles. We Sell, Swap, and We Buy Cars. Cheap cars, quality cars, used cars and new ...","rating":"","reviews":"","location":{"lat":"6.626515011479888","lng":"3.355526626110077"},"category":"Automotives","link":"https://www.businesslist.com.ng/company/263105/kevhservices","imageUrl":"https://www.businesslist.com.ng/img/ng/s/1558523813-48-kevhservices.png","phone":"07088839070","website":"www.kevhservices.com"},{"name":"Sh&id Logistics Trucks Services","address":"Plot 25/27 Igando Isheri Rd. Lagos, Lagos, Lagos","state":"Lagos","description":"Sh&id logistics is one of the leading company in logistics, We provide complete solutions for all logistics requirements from flexible to complex freight within Nigeria Our constant endeavor to achiev...","rating":"","reviews":"","location":{"lat":"6.567881161300054","lng":"3.2517707347869873"},"category":"Automotives","link":"https://www.businesslist.com.ng/company/255655/shid-logistics","imageUrl":"https://www.businesslist.com.ng/img/ng/x/1461312412-59-sh-id-logistics.jpg","phone":"08172823802","website":"www.shaidonline.com"},{"name":"Carpartsnigeria Automobile Inc.","address":"15 Adekunle Street, Yaba, Lagos, Lagos","state":"Lagos","description":"CarpartsNigeria.com was born out of the need to Centralize parts inventory across the nation. A place to find difficult auto parts, Reduce high prices and ensure that trust worthy vendors can compete ...","rating":"","reviews":"","location":{"lat":"6.587897277005107","lng":"3.3570098876953125"},"category":"Automotives","link":"https://www.businesslist.com.ng/company/259689/carpartsnigeria-automobile-inc","imageUrl":"https://www.businesslist.com.ng/img/ng/k/1513839666-89-carpartsnigeria-automobile-inc.png","phone":"09099995678","website":"WWW.CARPARTSNIGERIA.COM"},{"name":"Protaxi","address":"HFP Complex, Lagos, Lagos","state":"Lagos","description":"Protaxi is the most affordable taxi booking application (that can be downloaded on all smart phones), launched recently here in Lagos. We are active on social media platforms and in no distant time we...","rating":"","reviews":"","location":{"lat":"6.473062559221193","lng":"3.586272235949764"},"category":"Automotives","link":"https://www.businesslist.com.ng/company/262013/protaxi","imageUrl":"https://www.businesslist.com.ng/img/ng/j/1536658883-40-protaxi.jpg","phone":"07031705028","website":"www.protaxiapp.ng/"},{"name":"Oscars Autocare and Grill","address":"43 Akanni Ajiran Street,Agungi,Lekki, Lagos, Lagos","state":"Lagos","description":"Oscars Auto care and grill provides the following services in Lekki,Lagos Nigeria.Auto Care Auto repair,Car wash,Grill,Restaurant and Unisex Salon.We are opened 8 am from Monday through Saturday and 9...","rating":"","reviews":"","location":{"lat":"6.451029890802774","lng":"3.3969318866729736"},"category":"Automotives","link":"https://www.businesslist.com.ng/company/256517/oscars-autocare-and-grill","imageUrl":"https://www.businesslist.com.ng/img/ng/e/1472613579-90-oscars-autocare-and-grill.jpg","phone":"08090565859","website":"oscarsautocareandgrill.com"},{"name":"HelpApp Ltd","address":"Wuse II, Abuja, Abuja","state":"Abuja","description":"We offer a full range of services and products to car owners located in Abuja area. HelpApp professionals and partners know how to handle a wide range of car services: Waterless car wash - ecofriendly...","rating":"","reviews":"","location":{"lat":"9.069389","lng":"7.48758"},"category":"Automotives","link":"https://www.businesslist.com.ng/company/265274/helpapp-ltd","imageUrl":"https://www.businesslist.com.ng/img/ng/c/1569659570-32-helpapp-ltd.png","phone":"0705 6496 111 (also on WhatsApp)","website":"helpapp.com.ng"},{"name":"ZEAL MOBILE NETWORK","address":"Highway by Michael Archibong medical hostel calabar,cross river state., Calabar, Cross River","state":"Cross River","description":"car charter and hiring,online booking,whatsapp booking emailing etc.we provide quality transportation with asorted and comfortable transport vehicles,taking our passengers to their various destination...","rating":"","reviews":"","location":{"lat":"5.015578499279621","lng":"8.334825038909912"},"category":"Automotives","link":"https://www.businesslist.com.ng/company/257586/zeal-mobile-network","imageUrl":"https://www.businesslist.com.ng/img/ng/x/1489925103-86-zeal-mobile-network.jpg","phone":"08162499010","website":"twitter.com/abengigut"},{"name":"AutoHub Nigeria Services","address":"No 12 Ijara Cause-Way Ijora Apapa, Lagos, Lagos","state":"Lagos","description":"AutoHub is an online car spare parts dealership platform in Nigeria. We deal in high quality car parts for a wide range of makes and models – offered and guaranteed at the lowest prices. Our Mission...","rating":"","reviews":"","location":{"lat":"6.4694302762087466","lng":"3.3732962608337402"},"category":"Automotives","link":"https://www.businesslist.com.ng/company/257299/autohub-nigeria-services","imageUrl":"https://www.businesslist.com.ng/img/ng/r/1486215492-89-autohub-nigeria-services.jpg","phone":"08117328007","website":"www.autohub.com.ng/"},{"name":"Motus Technologies","address":"350 Borno Way,Off Herbert Macauley ,Yaba., Lagos, Lagos","state":"Lagos","description":"We provide Ground Transportation Services and Vehicle Management Solutions for Corporate Entities.We recently added Intercity Shuttle Service and The Operate and Maintain services .","rating":"","reviews":"","location":{"lat":"6.507209729872998","lng":"3.371429443359375"},"category":"Automotives","link":"https://www.businesslist.com.ng/company/263960/motus-technologies","imageUrl":"https://www.businesslist.com.ng/img/ng/e/1558094152-16-motus-technologies.png","phone":"07067416903","website":"www.motustek.com"},{"name":"NIGERIA CUSTOMS AUCTION CARS FOR SALE","address":"Daura Border, Daura, Katsina","state":"Katsina","description":"Nigeria Custom Auction Impounded Vehicles for sale. We auction out Impounded cleared vehicles New and Tokumbo.","rating":"","reviews":"","location":{"lat":"13.056423399965011","lng":"8.488247394561768"},"category":"Automotives","link":"https://www.businesslist.com.ng/company/260623/nigeria-customs-auction-cars-for-sale","imageUrl":"https://www.businesslist.com.ng/img/ng/e/1524052746-58-nigeria-customs-auction-cars-for-sale.jpg","phone":"08064385278","website":"www.businesslist.com.ng"},{"name":"Pinakle Computer Technologies ","address":"6 Patrick Pillah Crescent, Makurdi, Benue","state":"Benue","description":"Pinakle Computer Technologies is a Nigerian IT company with expertise in a wide range of technologies. We specialize in: Home security systems, Access control, Internet Services, Networking, software ...","rating":"","reviews":"","location":{"lat":"7.730555599999999","lng":"8.536111099999971"},"category":"Automotives","link":"https://www.businesslist.com.ng/company/252567/pinakle-computer-technologies","imageUrl":"https://www.businesslist.com.ng/img/ng/r/1398612051_44918.jpg","phone":"07065488188","website":"Pinakle-ct.com"},{"name":"Brakes and Shocks Mobile Mechanics","address":"10, Oladimeji Alo Street, Ikate, Lekki Eti Osa Ikate, Lekki, Lagos, Lagos","state":"Lagos","description":"If you drive a car in Lagos or it's environs such as lekki, Ajah, Victoria Island, Ikeja, or other places on the island or mainland of Lagos, you would have experienced the frustration of having to de...","rating":"","reviews":"","location":{"lat":"6.435042","lng":"3.477002"},"category":"Automotives","link":"https://www.businesslist.com.ng/company/264493/brakes-and-shocks-mobile-mechanics","imageUrl":"https://www.businesslist.com.ng/img/ng/g/1563210472-32-brakes-and-shocks-mobile-mechanics.png","phone":"0817 882 4561","website":"www.brakesandshocks.ng/"},{"name":"RICHBON NIGERIA LIMITED","address":"PLOT 242 OSHODI-APAPA EXPRESSWAY, ODOLOWU BUSTOP, Lagos, Lagos","state":"Lagos","description":"RICHBON NIGERIA LIMITED was established over a decade ago. Richbon is an indigenous incorporated company dealing on high quality heavy duty trucks, Construction Equipment, trailers, tankers, Axles, (O...","rating":"","reviews":"","location":{"lat":"6.498492847960414","lng":"3.321390151977539"},"category":"Automotives","link":"https://www.businesslist.com.ng/company/253330/richbon-nigeria-limited","phone":"0700RICHBON0800RICHBON","website":"www.richbontruck.com"},{"name":"Demo Technologies","address":"30, 6, Olusegun Obasanjo way, Ita eko, Olorunsogo, Abeokuta South, Abeokuta, Ogun","state":"Ogun","description":"","rating":"","reviews":"","location":{"lat":"7.16083","lng":"3.34833"},"category":"Automotives","link":"https://www.businesslist.com.ng/company/201479/demo-technologies","phone":"0803715516407082301779","website":"www.demotechnologies.com.ng"},{"name":"Mequip Engineering Ltd","address":"48 Circular Road, Elekahia Housing Estate., Port Harcourt, Rivers","state":"Rivers","description":"Mequip Engineering Ltd provides specialist in full service multi-brand vehicle leasing, offers companies tailored solutions aimed at optimising their employees’ mobility while outsourcing the risks ...","rating":"","reviews":"","location":{"lat":"4.815259652868477","lng":"7.049649953842163"},"category":"Automotives","link":"https://www.businesslist.com.ng/company/254890/mequip-engineering-ltd","phone":"084302868","website":"www.mequipengineering.com"},{"name":"Beatams","address":"Grace Court, Iseri-Lasu Road, General Busstop, Igando, Lagos, Lagos","state":"Lagos","description":"We are a fleet partner with the model cab service (Uber, Bolt etc). Our company is responsible for selecting the right vehicles and maintaining them in good operating condition so that the company can...","rating":"","reviews":"","location":{"lat":"6.559661079728918","lng":"3.249669149765899"},"category":"Automotives","link":"https://www.businesslist.com.ng/company/267088/beatams","imageUrl":"https://www.businesslist.com.ng/img/ng/h/1584367903-21-beatams.jpg","phone":"09030009046","website":"www.beatams.com"},{"name":"PICKMEUP RIDE","address":"N027, okungade okuneye street, Lagos, Lagos","state":"Lagos","description":"Pickmeup is a reliable platform that connect Drivers with host of riders who request for rides daily. It is a means of transport created for he general public to enjoy luxury on transportation with mu...","rating":"","reviews":"","location":{"lat":"6.570885583727111","lng":"3.3744174242019653"},"category":"Automotives","link":"https://www.businesslist.com.ng/company/259107/pickmeup-ride","imageUrl":"https://www.businesslist.com.ng/img/ng/g/1510144544-44-pickmeup-ride.jpg","phone":"08135330301","website":"www.pickmeup.com.ng"},{"name":"Anstel Motors Limited","address":"23A, Adeola Odeku Street, Victoria Island, Lagos, Lagos","state":"Lagos","description":"If you are looking for quality automotive services with competitive pricing, Anstel Limited is your answer. We are an auto sales and services workshop aimed at reducing automotive stress for vehicle o...","rating":"","reviews":"","location":{"lat":"6.430763240245866","lng":"3.415515476304563"},"category":"Automotives","link":"https://www.businesslist.com.ng/company/104005/anstel-motors-limited","imageUrl":"https://www.businesslist.com.ng/img/ng/k/1435575454_35836.jpg","phone":"+234-1-7755434+234-704-512-0773+231-704-067-7071+234-704-067-7072","website":"www.anstellimited.com"},{"name":"Princelink Technologies ltd.","address":"plot 1084 odumegwu ojukwu street Gudu district FCT Abuja.(NNPC filling station Gudu), Abuja, Abuja","state":"Abuja","description":"Autocentre is a professional Automobile servicing and repair centre.we have the latest Automobile tools and software for vehicle repairs and upgrade. We have OEM Auto spare parts for European, America...","rating":"","reviews":"","location":{"lat":"9.000720827055446","lng":"7.475016117095947"},"category":"Automotives","link":"https://www.businesslist.com.ng/company/256681/princelink-technologies-ltd","imageUrl":"https://www.businesslist.com.ng/img/ng/n/1484612261-52-princelink-technologies-ltd.jpg","phone":"08168686909","website":"www.autocentre.com.ng"},{"name":"jcgold continental Ltd","address":"22 Iduwo taylor street victoria island , Victoria Island, Lagos","state":"Lagos","description":"JCGOLD is a duly registered and licensed indigenous company engaged in the provision of car rental services, Car lease, Car Sales, Cars & Services and Auto financing. We have acquired competence which...","rating":"","reviews":"","location":{"lat":"22","lng":""},"category":"Automotives","link":"https://www.businesslist.com.ng/company/259436/jcgold-continental-ltd","imageUrl":"https://www.businesslist.com.ng/img/ng/g/1510843576-61-jcgold-continental-ltd.jpg","phone":"2348057228918","website":"www.jcgoldgroup.com"},{"name":"Vogue Express Nig Ltd","address":"20 Church Street, Odonguyan, Ikorodu, Ikorodu, Lagos","state":"Lagos","description":"We are a haulage and logistic company carrying out the services of international air freight, sea freight and Transportational services. We are solely concerned about our customers satisfaction, we op...","rating":"","reviews":"","location":{"lat":"6.661581153335684","lng":"3.519669771194458"},"category":"Automotives","link":"https://www.businesslist.com.ng/company/256742/vogue-express-nig-ltd","phone":"+2347051128298","website":"www.vogueexpress.ng"},{"name":"spare space limited","address":"Suite C4 Lenu Shopping Mall Sanni Abacha Road P.H, Port Harcourt, Rivers","state":"Rivers","description":"SPARE SPACE LIMITED is a dynamic, innovative and instrumental vehicles and equipment leasing company that is technically structured to afford its client quality and affordable leasing terms, using 21s...","rating":"","reviews":"","location":{"lat":"9.08572818596997","lng":"8.649871116210988"},"category":"Automotives","link":"https://www.businesslist.com.ng/company/190162/spare-space-limited","phone":"084-795437","website":"www.sparespace.com.ng"},{"name":"AUTOMOBILE RECOVERY AND MANAGEMENT LIMITED","address":"89 Opebi Street Ikeja, Lagos., Ikeja, Lagos","state":"Lagos","description":"We provide vehicle delivery/ pickup solutions to individuals and organizations. We are in business to address the need for quality delivery and pick up of cars at the right price by going the extra mi...","rating":"","reviews":"","location":{"lat":"6.5855740920463495","lng":"3.3638459191406582"},"category":"Automotives","link":"https://www.businesslist.com.ng/company/253989/automobile-recovery-and-management-limited","phone":"0802888888108028888882","website":"www.autorecovery.mobi"},{"name":"Johvic Automobile Services","address":"303, Old Abeokuta Expressway, Able Eggs Agege, Lagos, Lagos, Lagos","state":"Lagos","description":"","rating":"","reviews":"","location":{"lat":"6.648140582295702","lng":"3.3093564212322235"},"category":"Automotives","link":"https://www.businesslist.com.ng/company/150386/johvic-automobile-services","phone":"+234 815 500 6007","website":"www.johvicautos.com"},{"name":"McDrive Logistics & Insitute Limited","address":"58 Ibeshe Road Ikorodu, Ikorodu, Lagos","state":"Lagos","description":"The company designs innovative logistic solutions and proffers alternative and cost effective means of transportation. Currently working on delivering a viable seaportation structure for ameliorating ...","rating":"","reviews":"","location":{"lat":"6.5741429","lng":"3.4861958000000186"},"category":"Automotives","link":"https://www.businesslist.com.ng/company/170752/mcdrive-logisticsinsitute-limited","imageUrl":"https://www.businesslist.com.ng/img/ng/c/1337729608_59140.png","phone":"","website":"www.gotestdrivenaija.org"},{"name":"Dominion Wheels Limited","address":"7b, idejo street,victoria island lagos, Victoria Island, Lagos","state":"Lagos","description":"DOMINION WHEELS LIMITED is an Automobile Company. We specialize in sales of Brand New and fairly used Cars. Our company is also experienced in Advisory and Consulting Services. This package enables us...","rating":"","reviews":"","location":{"lat":"6.4311111","lng":"3.415833300000031"},"category":"Automotives","link":"https://www.businesslist.com.ng/company/190937/dominion-wheels-limited","phone":"0808619561908033486552","website":"www.dominionwheelsng.org"},{"name":"Edmundo Nigeria Services","address":"4 abakaliki rd, Enugu","state":"","description":"Edmundo Nigeria Services is an automobile security company based in Enugu. Edmundo Nigeria Services is into car tracking and security services","rating":"","reviews":"","location":{"lat":"6.5719540830474905","lng":"3.368253707885742"},"category":"Automotives","link":"https://www.businesslist.com.ng/company/259552/edmundo-nigeria-services","imageUrl":"https://www.businesslist.com.ng/img/ng/r/1512293561-85-edmundo-nigeria-services.jpg","phone":"08034574823","website":""},{"name":"Quickfix tire and service center ","address":"61 kudirat abiola way oregun.ikeja , Ikeja, Lagos","state":"Lagos","description":"Automated tire services and car service ","rating":"","reviews":"","location":{"lat":"6.598645747242171","lng":"3.3662179112434387"},"category":"Automotives","link":"https://www.businesslist.com.ng/company/255752/quickfix-tire-and-service-center","phone":"08091100015","website":""}]