[{"name":"STANDARD ENGINEERING CONSTRUCTION COMPANY LTD","address":"KM 3 REFINERY ROAD, EFFURUN WARRI, Warri, Delta","state":"Delta","description":"STANDARD ENGINEERING CONSTRUCTION COMPANY LIMITED, was established and founded as a company in the year 1977, Registered and incorporated as a limited liability company on 29th April 1977 by the Corpo...","rating":"","reviews":"","location":{"lat":"5.568824956472424","lng":"5.762189626693726"},"category":"Contractors","link":"https://www.businesslist.com.ng/company/254573/standard-engineering-construction-company-ltd","imageUrl":"https://www.businesslist.com.ng/img/ng/f/1441363684-99-standard-engineering-construction-company-ltd.jpg","phone":"053260680","website":"www.standardengineeringltd.com"},{"name":"Ritworth Intl co","address":"Surulere, Lagos, Lagos","state":"Lagos","description":"We specialize in the supply and installation of carports,mega shades,pool covers and stainless handrails. We also supply shade net of various colours,high grade transulent polycarbonate sheets and wat...","rating":"","reviews":"","location":{"lat":"6.508157936887588","lng":"3.3844999701359484"},"category":"Contractors","link":"https://www.businesslist.com.ng/company/260482/ritworth-intl-co","imageUrl":"https://www.businesslist.com.ng/img/ng/c/1522784699-54-ritworth-intl-co.jpg","phone":"07042177775","website":"www.ritworth.com"},{"name":"PUREVIEW PURETECH","address":"1,16th crescent, General Gas, Akobo., Ibadan, Oyo","state":"Oyo","description":"@ PUREVIEWPURETECH WE ARE INTO BUILDING CONSTRUCTION, RENOVATION, DESIGN, FABRICATION, REMODELING, RESTRUCTURING,WE PRODUCE AND LAY INTERLOCKING PAVING STONE, PAINTING, INSTALLATION, TILLING, LANDSCAP...","rating":"","reviews":"","location":{"lat":"7.4155804548954745","lng":"4.4158172607421875"},"category":"Contractors","link":"https://www.businesslist.com.ng/company/258870/pureview-puretech","imageUrl":"https://www.businesslist.com.ng/img/ng/e/1587004192-27-pureview-puretech.jpg","phone":"+2348071833719","website":""},{"name":"LesJey Construction Company Ltd.","address":"Suit 23, Collage B/Stop, Ikotun. Lagos, Lagos, Lagos","state":"Lagos","description":"LesJey Construction Company Ltd. Is a Building and Civil Engineering Contractor, that specializes on residential construction (public and private), Schools, Markets, etc. We have designed and build so...","rating":"","reviews":"","location":{"lat":"6.587756236157207","lng":"3.352353572845459"},"category":"Contractors","link":"https://www.businesslist.com.ng/company/259968/lesjey-construction-company-ltd","imageUrl":"https://www.businesslist.com.ng/img/ng/f/1517397573-44-lesjey-construction-company-ltd.jpg","phone":"+2348160781766","website":""},{"name":"SYLVA CONSTRUCTION COMPANY LIMITED","address":"Plot 95 phase 2 bricks estate independent layout enugu, Enugu, Enugu","state":"Enugu","description":"This is one of the leading building construction company in Enugu state south east Nigeria. This company is also registered with coperate afairs commission.","rating":"","reviews":"","location":{"lat":"13.679118418477323","lng":"-7.329065573827847"},"category":"Contractors","link":"https://www.businesslist.com.ng/company/264871/sylva-construction-company-limited","imageUrl":"https://www.businesslist.com.ng/img/ng/s/1568193895-80-sylvac-construction-company.jpg","phone":"+2348064075217","website":""},{"name":"Fisayo Akintokun & Associates","address":"No 4 Quadri street , felele layout, Felele, Ibadan, Oyo","state":"Oyo","description":"FAA LTD is a professional services firm engaging in architectural design, Interior design, Construction, Project management, as well as related research, planning and consulting activities. Under our ...","rating":"","reviews":"","location":{"lat":"6.593640943056614","lng":"3.63410085439682"},"category":"Contractors","link":"https://www.businesslist.com.ng/company/257133/fisayo-akintokunassociates","imageUrl":"https://www.businesslist.com.ng/img/ng/x/1551459102-31-fisayo-akintokun-associates.jpg","phone":"08034865067","website":"www.faasng.com"},{"name":"Decke Integra","address":"755A Babatunde Atere Street, Omole plase2, Lagos state., Lagos, Lagos","state":"Lagos","description":"DECKE INTEGRA is a civil engineering company with expertise in construction and infrastructural development (roads, drainages, schools, warehouses, hospitals, commercial housing units, public building...","rating":"","reviews":"","location":{"lat":"6.6340519125513735","lng":"3.3740989153442342"},"category":"Contractors","link":"https://www.businesslist.com.ng/company/264768/decke-integra","imageUrl":"https://www.businesslist.com.ng/img/ng/n/1565775242-70-decke-integra.jpg","phone":"08105547096","website":"www.deckeintegra.com"},{"name":"Swimmingpoolboss","address":"Suite 37 Amaden Plaza, Mabushi , Abuja, Abuja","state":"Abuja","description":"SWIMMINGPOOLBOSS BELONG TO THE TOP 1% SWIMMING POOL CONSTRUCTION COMPANY IN NIGERIA The top 20% swimming pool construction companies in Nigeria are managed by registered engineers and they handle 80% ...","rating":"","reviews":"","location":{"lat":"9.080940748105057","lng":"7.449733305212362"},"category":"Contractors","link":"https://www.businesslist.com.ng/company/259090/swimmingpoolboss","imageUrl":"https://www.businesslist.com.ng/img/ng/e/1506525308-98-swimming-pool-construction.jpg","phone":"08059665527","website":"swimmingpoolboss.com.ng"},{"name":"Juplam Infotech Limited","address":"Plot 4562. Suite 3, Ishan Road National Park Quarters Karu Site. (FCT) Abuja, Abuja, Abuja","state":"Abuja","description":"ABOUT US Juplam Infotech Limited is an innovation-driven global Computer/Information communication Technology company saddled with the responsibility of providing world class information Technology so...","rating":"","reviews":"","location":{"lat":"7.372000543703731","lng":"3.9444351196289062"},"category":"Contractors","link":"https://www.businesslist.com.ng/company/259204/juplam-infotech-limited","imageUrl":"https://www.businesslist.com.ng/img/ng/g/1590544888-95-juplam-infotech-limited.jpg","phone":"(+234) 08035499999","website":"www.juplam.com"},{"name":"Windrush Investment Limited","address":"85 Ada George Road, Port Harcourt. (Next to Royal Dynasty Filling Station), Port Harcourt, Rivers","state":"Rivers","description":"Address - 85 Ada George Road, Rumueme, Port Harcourt. Nigeria (Next to Royal Dynasty Filling Station) POLISHED & VITRIFIED TILES: wall & floor, wood imitation floor tiles, Versace, designers brand, bo...","rating":"","reviews":"","location":{"lat":"4.817029351488519","lng":"6.978368694171081"},"category":"Contractors","link":"https://www.businesslist.com.ng/company/261162/windrush-investment-limited","imageUrl":"https://www.businesslist.com.ng/img/ng/d/1528893361-58-windrush-investment-limited.jpg","phone":"08033039345","website":"windrushtiles.com/"},{"name":"BRICK CRAFT CONSTRUCTION COMPANY","address":"5th Avenue ,D close, house 10, Festac town, Enugu, Enugu","state":"Enugu","description":"Brick craft construction is a building construction company specialized in design, construction and management of building construction work.","rating":"","reviews":"","location":{"lat":"6.601048705541713","lng":"3.3527001384045434"},"category":"Contractors","link":"https://www.businesslist.com.ng/company/260649/brick-craft-construction-company","imageUrl":"https://www.businesslist.com.ng/img/ng/e/1535887139-14-brick-craft-construction-company.jpg","phone":"08034477581","website":""},{"name":"Habitat Development Centre","address":"41 Tejuosho Street, off Western Avenue, Surulere, Lagos Nigeria, Lagos, Lagos","state":"Lagos","description":"Habitat Development Centre is a first class firm specialising in project development services, investment management and training. With a commitment to deliver excellent results for partners with prem...","rating":"","reviews":"","location":{"lat":"6.505767682091065","lng":"3.3672968332824667"},"category":"Contractors","link":"https://www.businesslist.com.ng/company/253876/habitat-development-centre","imageUrl":"https://www.businesslist.com.ng/img/ng/e/1432720194_53089.jpg","phone":"01-2910698","website":"www.habitatdevcentre.com"},{"name":"Pirotti Projects Limited","address":"5,Asa Street,Maitama,Abuja., Abuja, Abuja","state":"Abuja","description":"Pirotti Projects limited is an architectural,engineering and real estate development company,We have been in operation since 2011 and we have been doing bespoke design and talk of town real estate des...","rating":"","reviews":"","location":{"lat":"9.086131642119907","lng":"7.423517659277422"},"category":"Contractors","link":"https://www.businesslist.com.ng/company/257880/pirotti-projects-limited","imageUrl":"https://www.businesslist.com.ng/img/ng/e/1505125302-39-pirotti-projects-limited.jpg","phone":"08020690678","website":"www.pirottiprojects.com"},{"name":"france aluminium roofing system","address":"mulero street, agege,ipaja road , nigeria lagos, Lagos, Lagos","state":"Lagos","description":"we are dealers in all kinds of roofing sheets e.g long-span galvanize zinc steptiels metcopo alloy zinc ","rating":"","reviews":"","location":{"lat":"6.625557945674332","lng":"3.3076913363199933"},"category":"Contractors","link":"https://www.businesslist.com.ng/company/267369/france-aluminium-roofing-system","imageUrl":"https://www.businesslist.com.ng/img/ng/m/1586882827-50-france-aluminium-roofing-system.jpg","phone":"+2349037410074","website":""},{"name":"iAbB Limited","address":"block 2 plot 2 b Fatai Aroibieke Street Lekko Phase 1, Lagos, Lagos","state":"Lagos","description":"iAbB, incorporated in 2014, is a multi- disciplinary design practice based in Lagos Nigeria and founded by Phygenia Oluwafemi Beckley. Our core team of diverse design experiences and international exp...","rating":"","reviews":"","location":{"lat":"6.458595166598012","lng":"3.4729403257369995"},"category":"Contractors","link":"https://www.businesslist.com.ng/company/257716/iabb-limited","imageUrl":"https://www.businesslist.com.ng/img/ng/z/1491324199-14-iabb-limited.jpg","phone":"08168950467","website":"www.iabblimited.com"},{"name":"Roofingplus Int.Ltd","address":"49,Bamgboye Street, Alafia-Mushin,Lagos, Mushin, Lagos","state":"Lagos","description":"Roofingplus is one of the major Marketers of DECRA Stone coated roofs in Nigeria.DecraRoofs feature on some of the country's finest commercial and residential properties.Decra roofs shares a larger pe...","rating":"","reviews":"","location":{"lat":"6.525128051569499","lng":"3.345212007379132"},"category":"Contractors","link":"https://www.businesslist.com.ng/company/130408/decra","imageUrl":"https://www.businesslist.com.ng/img/ng/c/1455714223_79812.jpg","phone":"01-743066308033604132","website":"www.decraafrica.com"},{"name":"Shadop International Properties","address":"22B LIGALI AYORINDE, Victoria Island, Lagos","state":"Lagos","description":"Our Company operates in Nigeria, Ghana, Dubai and USA we provide services and consultation ranging from planning, design, approvals, construction, renovation, sales, letting and property facility mana...","rating":"","reviews":"","location":{"lat":"6.425273733390637","lng":"3.441424009595721"},"category":"Contractors","link":"https://www.businesslist.com.ng/company/262022/shadop-international-properties","imageUrl":"https://www.businesslist.com.ng/img/ng/r/1536755874-56-shadop-international-properties.jpg","phone":"+234-1-453-6554","website":"www.shadopproperties.com.ng"},{"name":"Maiolica Roofing and Aluminium","address":"Rufus Jegede Street, Ogombo, Ajah, Ikeja, Lagos","state":"Lagos","description":"We are into Installation of Aluminium Roofing, Stone Coated Roofing, Aluminium Windows and Doors, Wall Cladding and Partitioning. ","rating":"","reviews":"","location":{"lat":"6.598448578593117","lng":"3.3371829986572266"},"category":"Contractors","link":"https://www.businesslist.com.ng/company/255842/maiolica-roofing-and-aluminium","imageUrl":"https://www.businesslist.com.ng/img/ng/x/1499318866-59-maiolica-roofing-and-aluminium.jpg","phone":"09026207189","website":"www.maiolicaaluminium.blogspot.com"},{"name":"Domisun Nigeria Limited","address":"25 Adebiyi street, Ifako Ijaiye Ogba,, Ikeja, Lagos","state":"Lagos","description":"Alcobond cladding services is a foremost remodelling and retrofits outfit. We are actively engaged in the building services industry and our premium products guarantee value for your investment. It do...","rating":"","reviews":"","location":{"lat":"6.636601911864253","lng":"3.340144157409668"},"category":"Contractors","link":"https://www.businesslist.com.ng/company/254927/alcobond-cladding-services","imageUrl":"https://www.businesslist.com.ng/img/ng/s/1447712806-61-alcobond-cladding-services.jpg","phone":"+2348182466331","website":""},{"name":"JuNeng Nigeria Limited","address":"88 Shalom Road, Off Okota Road, Amuwo Odofin, Lagos, Lagos, Lagos","state":"Lagos","description":"JuNeng NigLtd is a full-service EPC turnkey provider, manufacturer and contractor in the field of FRP Composites, Infrastructure Protection and Environmental Technologies with operations across Nigeri...","rating":"","reviews":"","location":{"lat":"6.442895556009001","lng":"7.5165581703186035"},"category":"Contractors","link":"https://www.businesslist.com.ng/company/212499/juneng-nigeria-limited","imageUrl":"https://www.businesslist.com.ng/img/ng/h/1511885232_85139.jpg","phone":"08034806486","website":"www.junengnig.com"},{"name":"LIFETIME GUTTER SYSTEMS ","address":"NO. 25, Lagos Abeokuta Exp.Way. B4 Cement B.Stop. Dopemu, Ikeja, Lagos","state":"Lagos","description":"Welcome, Our company is involved in the Imports,Manufacture,Distribution and Installation of American Aluminum Rain Gutters otherwise known as Water Collector. We are a major distributor of all types ...","rating":"","reviews":"","location":{"lat":"6.607358654693105","lng":"3.319557283886752"},"category":"Contractors","link":"https://www.businesslist.com.ng/company/255888/lifetime-gutter-systems","imageUrl":"https://www.businesslist.com.ng/img/ng/g/1464363831-83-lifetime-roof-gutters-ltd.jpg","phone":"+2349071661652","website":"www.lifetimeng.com"},{"name":"Sag-Mik Oil Limited","address":"No 1 Pina Jetty, Abuloma, Port Harcourt, Rivers State, Port Harcourt, Rivers","state":"Rivers","description":"Sag-Mik Oil Limited is an indigenous company in Nigeria that renders the following services: Leasing/construction of Marine vessels and equipment such as tugboats, barges, houseboats, dredgers, amphib...","rating":"","reviews":"","location":{"lat":"4.77246378688657","lng":"7.059997916221619"},"category":"Contractors","link":"https://www.businesslist.com.ng/company/197039/sag-mik-oil-limited","imageUrl":"https://www.businesslist.com.ng/img/ng/k/1394191892_95397.jpg","phone":"+2348185815443","website":"sagmikoillimited.gnbo.com.ng/"},{"name":"Laimar Limited","address":"26, Nembe Street, Rumuibekwe, Port Harcourt, Rivers","state":"Rivers","description":"Laimar Limited is a subsidiary of Laiman Group, we focus on Oil and Gas Logistics, Heavy Equipment Lease, Manpower Supply, Car Lease and Dredging & Reclamation Services. Our services range from leasin...","rating":"","reviews":"","location":{"lat":"4.8470416969934655","lng":"7.049900692596452"},"category":"Contractors","link":"https://www.businesslist.com.ng/company/251397/laimar-limited","imageUrl":"https://www.businesslist.com.ng/img/ng/g/1528437386_63914.png","phone":"08033036131","website":"www.laimangroupng.com"},{"name":"eSignation NG","address":"89 Palm Avenue, Mushin, Lagos","state":"Lagos","description":"Trusted distributor of top quality power tools, hand tools, chainsaws and brushcutters and customized promotional gift items in Nigeria.","rating":"","reviews":"","location":{"lat":"6.536192662009488","lng":"3.35007905960083"},"category":"Contractors","link":"https://www.businesslist.com.ng/company/258458/esignation-ng","imageUrl":"https://www.businesslist.com.ng/img/ng/s/1499682535-27-esignation-ng.png","phone":"09097449944","website":"www.konga.com/esignationng"},{"name":"Klirview Integrated Nigeria Limited","address":"First floor ance building Jericho ibadan, Ibadan, Oyo","state":"Oyo","description":"Klearview is an Design Build,Renovation and building construction company. We have been able to create a niche in our services. The Company has been able to deliver an unexceptional services to our cl...","rating":"","reviews":"","location":{"lat":"6.566708733372741","lng":"3.505690097808838"},"category":"Contractors","link":"https://www.businesslist.com.ng/company/259040/klirview-integrated-nigeria-limited","imageUrl":"https://www.businesslist.com.ng/img/ng/l/1525724520-45-klearview-integrated.jpg","phone":"08136644016","website":""},{"name":"Asset Management Group","address":"6th Floor Foreshore Towers, 2A, Osborne Road, Ikoyi, Lagos, Lagos","state":"Lagos","description":"Asset Management Group is a leading consultancy firm which provides both financial, business and project advisory services focused on the entire real estate development value chain, ranging from land ...","rating":"","reviews":"","location":{"lat":"6.46352779123886","lng":"3.420094570855781"},"category":"Contractors","link":"https://www.businesslist.com.ng/company/100834/asset-management-group","imageUrl":"https://www.businesslist.com.ng/img/ng/b/1463134853_82370.jpg","phone":"+234-1-454-0028","website":"amggroupnigeria.com/"},{"name":"Paraexcel","address":"2292 Airport Road, Kano, Kano, Kano","state":"Kano","description":"Suppliers of Stamped concrete mat made from high quality and durable polyurethane rubber for sale. It is available in different patterns and sizes to fit your design and budget. We also install the st...","rating":"","reviews":"","location":{"lat":"12.009372290303526","lng":"8.617229461669922"},"category":"Contractors","link":"https://www.businesslist.com.ng/company/257859/paraexcel","imageUrl":"https://www.businesslist.com.ng/img/ng/e/1570757659-22-paraexcel-global-limited.jpg","phone":"+2348036684660","website":""},{"name":"Gems Techniques Limited","address":"13 Olufemi Road, Off Ogunlana Drive, Surulere Lagos, Lagos, Lagos","state":"Lagos","description":"Gems Techniques Limited is a multiple-discipline building/construction services company based in Lagos Nigeria with competences in Architecture, Engineering, Project Management, Building Construction ...","rating":"","reviews":"","location":{"lat":"9.085537635855124","lng":"8.67921638462576"},"category":"Contractors","link":"https://www.businesslist.com.ng/company/137611/gems-techniques-limited","imageUrl":"https://www.businesslist.com.ng/img/ng/h/1410866901_90708.jpg","phone":"+2347087321346+2348077383550","website":"www.gemstechniques.com"},{"name":"Vinayak Construction Equipments","address":"Aminu Kano Road, Kano, Kano","state":"Kano","description":"Installed - Mobile Asphalt Drum Mix Plant Successful Installations #Nigeria Capacity of : 60 TPH | 90 TPH | 120 TPH | 150 TPH Installed in #Kano #Gboko #Akure #Maiduguri #Ilesa #Lokoja #Jos Manufactur...","rating":"","reviews":"","location":{"lat":"6.518879","lng":"3.374056"},"category":"Contractors","link":"https://www.businesslist.com.ng/company/253443/vinayak-construction-equipments","imageUrl":"https://www.businesslist.com.ng/img/ng/x/1419339266-vinayak-construction-equipments.jpg","phone":"9879430770","website":"www.vinayakequipments.com"},{"name":"DREAM HOMES CONSTRUCTIONS","address":"20, Omoniyi street, Ogba, Ikeja, Lagos","state":"Lagos","description":"A structural and building engineering establishment designed to put an end to your building and constructions related worries, with staff of years of experience in the building construction industry. ...","rating":"","reviews":"","location":{"lat":"6.632083610148945","lng":"3.3342557892883633"},"category":"Contractors","link":"https://www.businesslist.com.ng/company/256516/dream-homes-constructions","imageUrl":"https://www.businesslist.com.ng/img/ng/x/1473366937-49-dream-homes-constructions.png","phone":"07033469830","website":"premisesconstruction.blogspot.com.ng/"}]