[{"name":"Nulis Concept","address":"14, Egbe Road, Sabo Gari, Fagge, Kano, Kano","state":"Kano","description":"Architectural development Fashion designers ","rating":"","reviews":"","location":{"lat":"12.0175","lng":"8.52794"},"category":"Contractors","link":"https://www.businesslist.com.ng/company/200953/nulis-concept","imageUrl":"https://www.businesslist.com.ng/img/ng/g/1590753159-28-nulis-concept.png","phone":"0809336352207060819444","website":""},{"name":"Osehu Engineering Services Nig. Ltd","address":"98, Alakoro Marina, Lagos Island, Lagos","state":"Lagos","description":" Design, fabrication and erection of steal structures. Oil and Gas services. Building Services. Cleaning services. Tanks for petroleum products. Stainless steel vessels. Pipeline of various sizes (inc...","rating":"","reviews":"","location":{},"category":"Contractors","link":"https://www.businesslist.com.ng/company/259374/osehu-engineering-services-nig-ltd","imageUrl":"https://www.businesslist.com.ng/img/ng/s/1510140814-39-osehu-engineering-services-nig-ltd.png","phone":"+2348037666771","website":"www.osehuengineering.com"},{"name":"The freelance Dredge Consultant","address":"Sangotedo lekki, Lagos, Lagos","state":"Lagos","description":"Helping individuals understand the rudiments, tips and tricks of the dredging business with little or no capital. Visit my blog- dredgingdigest.blogspot.com","rating":"","reviews":"","location":{"lat":"6.46237079004832","lng":"3.6308910207374083"},"category":"Contractors","link":"https://www.businesslist.com.ng/company/260206/the-freelance-dredge-consultant","phone":"08036341211","website":"dredgingdigest.blogspot.com"},{"name":"Setraco Nigeria Limited","address":"Setraco Building Plot 526, Shehu Yar'Adua Way Kado District Abuja, Abuja","state":"","description":"Setraco Nigeria Limited is a leading engineering company with over 30 years working experience in delivering value-added civil and infrastructural projects in Nigeria. Setraco was established in 1977 ...","rating":"","reviews":"","location":{"lat":"9.079020623025663","lng":"7.4329003396728694"},"category":"Contractors","link":"https://www.businesslist.com.ng/company/116132/setraco-nigeria-limited","phone":"234 (0)806 944 7441805 222 5220","website":"www.setraco.net"},{"name":"DKI DESIGN ASSOCIATES","address":" 5 Pius Cresent, Itedo Housing Estate, Shangotedo, Lekki – Epe Expressway,Lagos, Lagos, Lagos","state":"Lagos","description":"We are passionate about great architecture and all things sustainable. As Architects, Engineers, and Developers, we believe it is our responsibility to design high-performing, healthy buildings.","rating":"","reviews":"","location":{},"category":"Contractors","link":"https://www.businesslist.com.ng/company/253634/dki-design-associates","imageUrl":"https://www.businesslist.com.ng/img/ng/m/1432891635-56-dki-design-associates.jpg","phone":"+234-8037862229","website":"www.dkidesignassociates.com"},{"name":"Francis Adejumobi And Company","address":"10 Ilasamaja Road, Mushin, Lagos","state":"Lagos","description":"We deal with swimming pool and plumbing in Nigeria & International. You can contact us for your plumbing,design,construction,installation of swimming pool,water treatment & swimming pool maintenance.","rating":"","reviews":"","location":{"lat":"6.52341223763197","lng":"3.346034288406372"},"category":"Contractors","link":"https://www.businesslist.com.ng/company/255205/francis-adejumobi-and-company","imageUrl":"https://www.businesslist.com.ng/img/ng/b/1452792957-56-francis-adejumobi-and-company.jpg","phone":"08055109436","website":""},{"name":"Chuksen Engineering","address":" No. 40D Ogboroama Road Opposite Stream Lane Hotel Rumukwurushi P.O. Box 5342 Trans Amadi Port Harcourt, Rivers State, Nigeria , Port Harcourt, Rivers","state":"Rivers","description":" Chuksen Engineering Limited was formed in June, 2008 to provide high construction materials and building/civil Engineering Construction Services to Nigerians. The founder of the firm, Engr. Edwin Chu...","rating":"","reviews":"","location":{"lat":"4.857025","lng":"7.061472"},"category":"Contractors","link":"https://www.businesslist.com.ng/company/265460/chuksen-engineering","phone":"+2348033104331","website":"www.chuksen.com.ng"},{"name":"Ace'Cohort Atelier Limited","address":"3 Etchezu Eke Close, Off road 26, F.H.E Woji , Port Harcourt, Rivers","state":"Rivers","description":"Ace’Cohort Atelier is a multidisciplinary design studio established by group of professionals and incorporated in 2014. The studio have worked and partner at multiple scales with various organizatio...","rating":"","reviews":"","location":{},"category":"Contractors","link":"https://www.businesslist.com.ng/company/256449/acecohort-atelier-limited","imageUrl":"https://www.businesslist.com.ng/img/ng/g/1471441447-10-ace-cohort-atelier-limited.jpg","phone":"08064560417","website":"http:/www.acecohort.com"},{"name":"IronInNaija","address":"441 Ikwerre Road, Port Harcourt, Rivers","state":"Rivers","description":"We sell iron and steel building materials; steel rods, reinforcement bars, steel plates, nails, british reinforced wire mesh, design doors and all iron and steel products for construction and fabricat...","rating":"","reviews":"","location":{},"category":"Contractors","link":"https://www.businesslist.com.ng/company/259161/ironinnaija","imageUrl":"https://www.businesslist.com.ng/img/ng/k/1507484605-74-ironinnaija.jpg","phone":"09067012105","website":"www.ironinnaija.com"},{"name":"Wafflemould Nigeria","address":"11 Adeboyejo Street, Off Odolowu street. Ijeshatedo Surulere, Lagos, Lagos","state":"Lagos","description":"We are Nigeria's number 1 supplier of Waffle and Trough moulds for cost effective slab construction For over 30 years, Most leading consultants and contractors insist on Waffle Mould Nigeria when desi...","rating":"","reviews":"","location":{},"category":"Contractors","link":"https://www.businesslist.com.ng/company/256051/wafflemould-nigeria","imageUrl":"https://www.businesslist.com.ng/img/ng/f/1536967125-78-wafflemould-nigeria.jpg","phone":"08037159047","website":"www.wafflemouldnigeria.com"},{"name":"ColdFire Creative Resources Ltd","address":"Deverlyn Complex, 60 Nouakchott Street, Wuse Zone 1, Abuja, Abuja","state":"","description":"ColdFire Creative Resources is a Limited Liability Company registered and based in Abuja Nigeria, West Africa. We are a team of dedicated professionals focused on providing business services in the Me...","rating":"","reviews":"","location":{},"category":"Contractors","link":"https://www.businesslist.com.ng/company/266863/coldfire-creative-resources-ltd","imageUrl":"https://www.businesslist.com.ng/img/ng/g/1582930646-13-coldfire-creative-resources-ltd.jpg","phone":"+2347088866620","website":"www.coldfireresources.com"},{"name":"Builders Zone Nigeria","address":"Ware House, 32/33 Divine Plaza, Coker Lagos, Mile2 Lagos., Lagos, Lagos","state":"Lagos","description":"Trusted online marketplace for sourcing quality building materials, handy men, artisans and service providers with cost-effective ease. The Builders’ Zone Value Proposition We are focused on not jus...","rating":"","reviews":"","location":{},"category":"Contractors","link":"https://www.businesslist.com.ng/company/261398/builders-zone-nigeria","imageUrl":"https://www.businesslist.com.ng/img/ng/g/1531152040-66-builders-zone-nigeria.png","phone":"+2349029679266","website":"www.builderszoneng.com/"},{"name":"TorPhil Enterprises","address":"4th Floor,Niger House,Anthony,Ikorordu Road,Lagos, Lagos, Lagos","state":"Lagos","description":"A Plumbing and Site Management Company with expertise in Plumbing Installation and Maintenance. We offer the following services: -Installation of Bathrooms, Kitchens, Toilets, Laundry Rooms, Drainage ...","rating":"","reviews":"","location":{},"category":"Contractors","link":"https://www.businesslist.com.ng/company/254386/torphil-enterprises","imageUrl":"https://www.businesslist.com.ng/img/ng/n/1438368564-90-torphil-enterprises.jpg","phone":"","website":"www.torphil.com"},{"name":"Green Facilities Limited","address":"6B, Bendel Close, Off Bishop Aboyade Cole Street, Victoria Island, Lagos","state":"Lagos","description":"GREEN FACILITIES LIMITED (GFL)is an indigenous Facilities Management company based in Lagos Nigeria. Our primary focus is to provide facilities management, project management and real estate developme...","rating":"","reviews":"","location":{"lat":"6.4545053334927305","lng":"3.4232711791992188"},"category":"Contractors","link":"https://www.businesslist.com.ng/company/257914/green-facilities-limited","imageUrl":"https://www.businesslist.com.ng/img/ng/b/1493467849-10-green-facilities-limited.jpg","phone":"08060009599","website":"www.greenfacilitiesltd.com"},{"name":"SOHRAY construction company limited","address":"No 3, Oke olu street, off leez building, Iponri, Surulere, Lagos, Lagos, Lagos","state":"Lagos","description":"Sohray construction company limited is an engineering company that deals with designing, construction and supervision of building structures such has houses, shopping complexes, petrol stations and so...","rating":"","reviews":"","location":{"lat":"6.488074899667316","lng":"3.3656404279072376"},"category":"Contractors","link":"https://www.businesslist.com.ng/company/262112/sohray-construction-company-limited","imageUrl":"https://www.businesslist.com.ng/img/ng/g/1537725679-82-sohray-construction-company-limited.jpg","phone":"08139232883080760194920803662696909036152833","website":""},{"name":"PRECIPITO PLUMBING SERVICES","address":"YABA, LAGOS, Lagos, Lagos","state":"Lagos","description":"Precipito Plumbing Service is an indigenous firm that provides B2B & B2C plumbing services with experience of over 20 years. We are already and empowered to serve you at all times. Weekdays, weekends ...","rating":"","reviews":"","location":{"lat":"6.518423626532111","lng":"3.377920389175415"},"category":"Contractors","link":"https://www.businesslist.com.ng/company/257152/precipito-plumbing-services","phone":"08075677707","website":"www.precipitoplumbing.com"},{"name":"sm quick fix integrated services","address":"office ffb9 city complex nnebisi road, Asaba, Delta","state":"Delta","description":"We understand the effort it takes to locate service providers for REPAIRS,RENOVATIONS ,DAILY NEEDS,PERSONAL NEEDS etc especially when requiring an emergency service(s) or even in situation whereby you...","rating":"","reviews":"","location":{"lat":"6.235475733020887","lng":"6.6946855460327015"},"category":"Contractors","link":"https://www.businesslist.com.ng/company/259235/sm-quick-fix-integrated-services","phone":"09068848366","website":"www.smintegratedservices.com"},{"name":"Germain’s Construction Nigeria Limited","address":"info@germainsconstruction.com, Port Harcourt, Rivers","state":"Rivers","description":" Germain’s Construction Nigeria Limited is an indigenous company registered under statutory Law of the Federal Republic of Nigeria. Germain’s Construction Nigeria Limited was setup to provide serv...","rating":"","reviews":"","location":{"lat":"4.812560199429177","lng":"7.004900000223643"},"category":"Contractors","link":"https://www.businesslist.com.ng/company/264617/germains-construction-nigeria-limited","imageUrl":"https://www.businesslist.com.ng/img/ng/n/1564345681-29-germain-s-construction-nigeria-limited.jpg","phone":"+2348185950599","website":""},{"name":"NovoView Properties Limited","address":"29 Ogui Road, Union bank bustop. Enugu , Enugu, Enugu","state":"Enugu","description":"Our Pledge To You Are you buying or selling? We understand the process can often be challenging and complicated. We focus on taking the pressure off you, so you can make clear and concise decisions th...","rating":"","reviews":"","location":{"lat":"6.440216953910645","lng":"7.4944111704826355"},"category":"Contractors","link":"https://www.businesslist.com.ng/company/264226/novoview-properties-limited","imageUrl":"https://www.businesslist.com.ng/img/ng/m/1560746043-93-novoview-properties-limited.jpg","phone":"08051009004","website":""},{"name":"Proximal Heights Development Limited","address":"41 Tejuosho Street, off Western Avenue, Surulere, Lagos Nigeria, Lagos, Lagos","state":"Lagos","description":"Proximal Heights Development Limited is a multi disciplinary Architectural and Building practice providing professional consulting services. The practice specializes in Architecture and Design, Planni...","rating":"","reviews":"","location":{"lat":"6.486814294363441","lng":"3.358949798828121"},"category":"Contractors","link":"https://www.businesslist.com.ng/company/253967/proximal-heights-development-limited","imageUrl":"https://www.businesslist.com.ng/img/ng/a/1431342503-84-proximal-heights-development-limited.jpg","phone":"01-2910698","website":"www.proximalheights.com.ng"},{"name":"Success Is Now Global Oil and Gas Ltd ","address":"Plt B, Abdulwaheed Avenue, Off Lagos Abeoukuta Exp Way Lagos, Nigeria, Ikeja, Lagos","state":"Lagos","description":"Success Is Now Group is one of the privately owned companies in Nigeria with interest in Petroleum Marketing, Real Estate, General Contracts, Commodity Trading and Constructions","rating":"","reviews":"","location":{"lat":"6.580194187108038","lng":"3.348306793457027"},"category":"Contractors","link":"https://www.businesslist.com.ng/company/261345/success-is-now-global-oil-and-gas-ltd","imageUrl":"https://www.businesslist.com.ng/img/ng/h/1530960030-61-success-is-now-group.jpg","phone":"08076619686","website":"www.successisnowgroup.com"},{"name":"Sehnaoui Plant Nigeria LTD","address":"Plot 938, Block 33A, Dipo Oshikoya Street, Omole phase 2, Lagos, Nigeria, Ikeja, Lagos","state":"Lagos","description":"Overview: SEHNAOUI Plant Nigeria Ltd \"SPNL\" was incorporated in 2005 through the concerted and strategic efforts of SEHNAOUI Plant group of companies, a global distributor of construction machinery wi...","rating":"","reviews":"","location":{"lat":"6.63378","lng":"3.368849"},"category":"Contractors","link":"https://www.businesslist.com.ng/company/259633/sehnaoui-plant-nigeria-ltd","imageUrl":"https://www.businesslist.com.ng/img/ng/n/1513327143-17-sehnaoui-plant-nigeria-ltd.png","phone":"002347032498698","website":"www.sehnaouiplant-nig.com"},{"name":"BuildEasy","address":"no 9 chief idowu bale stree, okera kekere, ajah, lagos , Lagos, Lagos","state":"Lagos","description":"Our job is to make sure you get all that’s required, from handymen to building material at one stop. It will be online platform which will enable us reach millions of people, and them us from anywhe...","rating":"","reviews":"","location":{"lat":"6.492653676061715","lng":"3.584184944629669"},"category":"Contractors","link":"https://www.businesslist.com.ng/company/258383/buildeasy","imageUrl":"https://www.businesslist.com.ng/img/ng/g/1498753731-35-buildeasy.png","phone":"08038619085","website":"buildeasyservices.com"},{"name":"DEREK'S COURT HOSTEL FACILITY","address":"Block C4, Int'l Timber Market, Dei-Dei, FCT, Bwari Timber Shade, Technology village, Bwari., Abuja, Abuja","state":"Abuja","description":"ND Unique Ventures is your number one stop store for all your roofing, furniture, wood and building material needs. We pride ourselves in the timely delivery of full length straight roofing woods, bot...","rating":"","reviews":"","location":{},"category":"Contractors","link":"https://www.businesslist.com.ng/company/255269/derek-s-court-hostel-facility","imageUrl":"https://www.businesslist.com.ng/img/ng/f/1510905352-88-derek-s-court-hostel-facility.jpg","phone":"07039031765","website":"www.pushafrica.org"},{"name":"BMS Electro Services","address":"Alimosho, Lagos, Lagos","state":"Lagos","description":"BMS ELECTRO SERVICES deals with sale of Electronics and Cooling works such as, Freezers, Cold Storage, Ice block Machines, Airconditionings, Washing Machines e.t.c and also install, repair and maintai...","rating":"","reviews":"","location":{},"category":"Contractors","link":"https://www.businesslist.com.ng/company/265407/bms-electro-services","imageUrl":"https://www.businesslist.com.ng/img/ng/g/1570842945-77-bms-electro-services.jpg","phone":"08022493242","website":"wa.me/2348098552404"},{"name":"City wet Mechanical service ventures","address":"Heritage/Cocoa Mall Ibadan., Ibadan, Oyo","state":"Oyo","description":"City wet mechanical service ventures are specialized in construction, installation, maintenance, plumbering work, cleaning and general contract. ","rating":"","reviews":"","location":{"lat":"7.388452524674118","lng":"3.8783400994445927"},"category":"Contractors","link":"https://www.businesslist.com.ng/company/266589/city-wet-mechanical-service-ventures","imageUrl":"https://www.businesslist.com.ng/img/ng/z/1580969651-76-city-wet-mechanical-service-ventures.jpg","phone":"08067742374","website":""},{"name":"FUWA NIG. LTD","address":"27, Trans Amadi Industrial Layout, Port Harcourt, Rivers","state":"Rivers","description":"Construction Equipment, Construction Services, Construction business activities, Heavy construction equipment are used for various purposes in large projects. Selection of different types of heavy equ...","rating":"","reviews":"","location":{"lat":"4.8136043690048576","lng":"7.0286685393857296"},"category":"Contractors","link":"https://www.businesslist.com.ng/company/124634/fuwa-nig-ltd","imageUrl":"https://www.businesslist.com.ng/img/ng/c/1589792427_29796.jpg","phone":"084-483355","website":""},{"name":"DataLife Environmental Services","address":"Alhaji Asiriabo street, off Holy Saviour College Road, Isolo, Lagos, Lagos","state":"Lagos","description":"We are a 21st century organization with a passion for excellence and high quality service delivery in the area of Engineering, Construction and Environmental management services. With vast experience ...","rating":"","reviews":"","location":{"lat":"6.509085836497557","lng":"3.3099746704101562"},"category":"Contractors","link":"https://www.businesslist.com.ng/company/254032/datalife-environmental-services","imageUrl":"https://www.businesslist.com.ng/img/ng/h/1432207524-44-datalife-environmental-services.jpg","phone":"+2348067024960","website":"www.datalifereserve.com"},{"name":"FEEJ GEOSCOPES","address":" 68 Adeniran Ogunsanya, Surulere, Lagos, Lagos, Nigeria, Lagos, Lagos","state":"Lagos","description":"FEEJ GEOSCOPES specializes in Borehole drilling, Water treatment, Geological/Geophysical/Geotechnical , Mining consultant, and Environmental services. It has been in these business for past ten year f...","rating":"","reviews":"","location":{"lat":"6.49657489850898","lng":"3.3495424745773335"},"category":"Contractors","link":"https://www.businesslist.com.ng/company/265111/feej-geoscopes","imageUrl":"https://www.businesslist.com.ng/img/ng/d/1568388821-94-feej-geoscopes.jpg","phone":"+2347030101333","website":"geoscopes.ng/"},{"name":"BloomTech Infrastructural Limited","address":"Suit 10 Lagos City Mall, Onikan, Lagos Island, Lagos, Lagos Island, Lagos","state":"Lagos","description":"BLOOMTECH INFRASTRUCTURAL LIMITED is an infrastructural and maintenance company, supporting the Telecommunications, facility management, Real Estate, Consultancy, with products and services of the hig...","rating":"","reviews":"","location":{"lat":"6.444601962687523","lng":"3.402604286077917"},"category":"Contractors","link":"https://www.businesslist.com.ng/company/262044/bloomtech-infrastructural-limited","imageUrl":"https://www.businesslist.com.ng/img/ng/c/1536926107-49-bloomtech-infrastructural-limited.jpg","phone":"+234 803 537 6493","website":"bloomtechinfra.com"}]