[{"name":"Innovate Concepts Limited","address":"33A JAYJAY OLADIMEJI CLOSE , LEKKI PHASE1, Lagos Island, Lagos","state":"Lagos","description":"","rating":"","reviews":"","location":{"lat":"6.44917","lng":"3.40439"},"category":"Contractors","link":"https://www.businesslist.com.ng/company/203252/innovate-concepts-limited","phone":"08023051692","website":"innovateconceptsltd.com/"},{"name":"2D Civil Engineers, Nigeria Limited","address":"No 3, GRA Road, Behind water Corporation, Gombe, Gombe, Gombe","state":"Gombe","description":"General civil engineering contracts including design, construction and project management. We are competent in service delivery to our esteemed clients across Nigerian states. In the past four years, ...","rating":"","reviews":"","location":{"lat":"6.532522934276232","lng":"3.299898285156246"},"category":"Contractors","link":"https://www.businesslist.com.ng/company/253479/2d-civil-engineers-nigeria-limited","phone":"0803959017008074175001","website":""},{"name":"RAINDOVE RISATECH SERVICES","address":"30 MBARI STREET IKENEGBU LAYOUT OWERRI, Owerri, Imo","state":"Imo","description":"Civil/building engineering, mass housing construction, erosion control, property management, housing contracts, project financing","rating":"","reviews":"","location":{"lat":"5.4833333","lng":"7.033333299999981"},"category":"Contractors","link":"https://www.businesslist.com.ng/company/197097/raindove-risatech-services","phone":"234 8057860127","website":""},{"name":"KamnBob Nigeria Limited","address":"Plot 10 Yemi Adetayo street behind Romay Garden Opposite Nicon Town Lekki Epe Expressway, Lagos, Lagos","state":"Lagos","description":"This is a Construction Company solely in the Exterior and interior works for high rise buildings, private residential buildings, renovations works and turnkey projects.","rating":"","reviews":"","location":{"lat":"15.603564280296538","lng":"7.581199645996094"},"category":"Contractors","link":"https://www.businesslist.com.ng/company/257775/kamnbob-nigeria-limited","imageUrl":"https://www.businesslist.com.ng/img/ng/r/1491911401-95-kamnbob-nigeria-limited.jpg","phone":"08133050670","website":""},{"name":"iXL Platform","address":"Km 22 Lekki Epe Expressway , Lagos, Lagos","state":"Lagos","description":"We are a purpose driven construction company that specialize in civil engineering works and building construction. We are highly armed with professional and dedicated workforce. We are highly equipped...","rating":"","reviews":"","location":{},"category":"Contractors","link":"https://www.businesslist.com.ng/company/260325/ixl-platform","imageUrl":"https://www.businesslist.com.ng/img/ng/k/1521143301-62-ixl-platform.jpg","phone":"08038778499","website":"www.ixlplatform.com"},{"name":"DE_MACTOZ KRYSTAL CLEAN CO.","address":"N0, 7 MERRIAM SREET, ROAD A, ARAB ROAD KUBWA,, Abuja, Abuja","state":"Abuja","description":"WE ARE A FULL SERVICE PROFESSIONAL CLEANING COMPANY YOU CAN EVER THINK OFF.OUR SERVICES INCLUDE POST CONSTRUCTION CLEANING AND FUMIGATION.","rating":"","reviews":"","location":{"lat":"9.124385269920193","lng":"7.391942918256973"},"category":"Contractors","link":"https://www.businesslist.com.ng/company/258772/demactoz-krystal-clean-co","imageUrl":"https://www.businesslist.com.ng/img/ng/h/1502966547-36-de_mactoz-krystal-clean-co.jpg","phone":"08023250817","website":""},{"name":"Abiskaym International worldwide company","address":"canaanland,sango ota idiroko road, Ota, Ogun","state":"Ogun","description":"A company with so much satisfactory to offer to consumers/customers,a company with integrity,loyalty,diligence,discipline,Godliness We are a construction company that builds,construct,arrange any sort...","rating":"","reviews":"","location":{"lat":"6.669239827433321","lng":"3.1608421280884613"},"category":"Contractors","link":"https://www.businesslist.com.ng/company/254248/abiskaym-international-worldwide-company","phone":"0818463858207064433743","website":""},{"name":"Diamond Swimming Pools & Spa","address":"Kaura District, Abuja FCT, Abuja, Abuja","state":"Abuja","description":"A swimming pool service provider covering construction and maintenance of swimming pools, aquatic and spa facilities with expert level professionalism. ENVISION IT, WE CRAFT IT.","rating":"","reviews":"","location":{"lat":"9.179620919643494","lng":"7.584566253906246"},"category":"Contractors","link":"https://www.businesslist.com.ng/company/264762/diamond-swimming-poolsspa","imageUrl":"https://www.businesslist.com.ng/img/ng/e/1565703602-84-diamond-swimming-pools-spa.jpg","phone":"08095687555","website":""},{"name":"Encivil Engineering Limited","address":" 17/19 Allen Avenue, Ikeja, Lagos. (Oshopey Plaza) Back Wing, 3rd Floor., Ikeja, Lagos","state":"Lagos","description":"THE COMPANY THAT CARES ABOUT YOU Working with dishonest and incompetent contractors can be exhausting, draining and counter-productive for you and your project. Most building project owners find the b...","rating":"","reviews":"","location":{},"category":"Contractors","link":"https://www.businesslist.com.ng/company/265898/encivil-engineering-limited","imageUrl":"https://www.businesslist.com.ng/img/ng/x/1574812250-49-encivil-engineering-limited.gif","phone":"+234 706 107 2045","website":"encivilengltd.com"},{"name":"Rated Technologies Limited","address":"Km 4, Dangote Refinery Road opposite Makog Annex Hospital, Redemption Bus Stop, Magbon Alade, Ibeju Lekki , Lagos, Lagos","state":"Lagos","description":"Rated Technologies Nigeria Limited is a 100 % Nigerian Content Company incorporated in 2008 with a clear focus to deliver Excellent Technical services to the Nigerian Industries. With our facility at ...","rating":"","reviews":"","location":{},"category":"Contractors","link":"https://www.businesslist.com.ng/company/262640/rated-technologies-limited","imageUrl":"https://www.businesslist.com.ng/img/ng/c/1542733105-55-rated-technologies-limited.jpg","phone":"08081525049","website":"ratedtechnologies.com.ng/"},{"name":"Sycamore builder","address":"21 Egin street,Ojodu, Ibadan, Lagos","state":"Lagos","description":"Sycamore Builder Inc is a full-service Construction Company In Nigeria, whose mission is to act as one-stop-shop for Home Services, our specialties cut across every area of Building, Designs, and serv...","rating":"","reviews":"","location":{},"category":"Contractors","link":"https://www.businesslist.com.ng/company/265431/sycamore-builder","imageUrl":"https://www.businesslist.com.ng/img/ng/g/1571045471-70-sycamore-builder.jpg","phone":"07082613178","website":"www.sycamorebuilderinc.com"},{"name":"Archikliff Consultants","address":"34,Balogun street,Moshalashi alhaji,Ogba road,Pencinema bus stop,Agege,Lagos., Lagos, Lagos","state":"Lagos","description":"our target is to provide effective architectural designs and implementation of bulding constructions, supervisions and project management,to suite your personal and economical needs. Since inception, ...","rating":"","reviews":"","location":{},"category":"Contractors","link":"https://www.businesslist.com.ng/company/267680/archikliff-consultants","imageUrl":"https://www.businesslist.com.ng/img/ng/r/1589469411-23-archikliff-consultants.jpg","phone":"+2348034326038","website":"archikliff.wordpress.com"},{"name":"Sir Femans Multi-Purpose Venture","address":"Opposite prison quarter lamingo Jos, Jos, Plateau","state":"Plateau","description":"Building construction","rating":"","reviews":"","location":{"lat":"4.9574622","lng":"8.3470487"},"category":"Contractors","link":"https://www.businesslist.com.ng/company/203342/sir-femans-multi-purpose-venture","phone":"0803084309108025354548","website":""},{"name":"SGSL Roofing Systems","address":"Manaah Plaza, No 36 Douala Crescent, Off Herbert Macauley Way, Opp Wuse Market Bus Stop, Abuja, Abuja","state":"Abuja","description":"SGSL Roofing Systems is a leading Roofing, Aluminum Windows and Stairway Railings Provider in Abuja and environs. We provide our clients a wide range of services in the Aluminum, Steel and Glass Indus...","rating":"","reviews":"","location":{"lat":"9.066993017867581","lng":"7.465231418609619"},"category":"Contractors","link":"https://www.businesslist.com.ng/company/259065/sgsl-roofing-systems","imageUrl":"https://www.businesslist.com.ng/img/ng/f/1506332948-62-sgsl-roofing-systems.png","phone":"00000000000","website":"www.sgslgroup.com.ng"},{"name":"SMATTAD PROJECTS","address":"4 Church Str, Ijako, Sango Ota., Ota, Ogun","state":"Ogun","description":"We Design Building Plan ranging from Architectural Drawing, Structural,Mechanical & Electrical Drawing, We handle Building Construction Project from Sub-structural Stage to Completion. We provide Buil...","rating":"","reviews":"","location":{"lat":"6.69099003286532","lng":"3.2387868349609334"},"category":"Contractors","link":"https://www.businesslist.com.ng/company/261032/smattad-projects","imageUrl":"https://www.businesslist.com.ng/img/ng/x/1527780091-63-smattad-projects.jpg","phone":"08058307787","website":""},{"name":"Shelter Roots","address":"Ikeja Shopping Complex, Mobolaji banks Anthony, Alimosho, Ikeja, Lagos","state":"Lagos","description":"","rating":"","reviews":"","location":{"lat":"6.589112286809239","lng":"3.3635544776916504"},"category":"Contractors","link":"https://www.businesslist.com.ng/company/206574/shelter-roots","phone":"08036046633","website":""},{"name":"Tectonics Hybrid Limited","address":"Lagos , Lagos, Lagos","state":"Lagos","description":"Architecture| Space Planning| Real Estate| Interior Design| Construction| Facility Management| 3D Visualization| Virtual Staging| Graphics Design","rating":"","reviews":"","location":{},"category":"Contractors","link":"https://www.businesslist.com.ng/company/266466/tectonics-hybrid-limited","imageUrl":"https://www.businesslist.com.ng/img/ng/f/1579983424-39-tectonics-hybrid-limited.jpg","phone":"09072989533","website":"www.tectonicshybrid.com/"},{"name":"RIDAAB GEOCONSULTANT","address":"PLOT 80, BABALOLA ESTATE, ORITA-CHALLENHGE, IBADAN, Ibadan, Oyo","state":"Oyo","description":"RIDAAB is a Geoscience Company located within the heart of Ibadan. RIDAAB Company offers services in Geophysical Survey/Investigations, Borehole drilling, Borehole maintenance and completions, Mineral...","rating":"","reviews":"","location":{},"category":"Contractors","link":"https://www.businesslist.com.ng/company/256923/ridaab-geoconsultant","imageUrl":"https://www.businesslist.com.ng/img/ng/x/1479053365-36-ridaab-geoconsultant.jpg","phone":"+234(0)807 439 4300+234(0)816 947 7556","website":""},{"name":"Timeless steel ltd","address":"No 34 Isaac John Street, Igbobi-Fadeyi- Lagos., Lagos, Lagos","state":"Lagos","description":"Timeless steel is a well-established, specialist supplier of stainless steel & glass balustrading systems, we offer a high level of full service and support to main contractors, from initial design de...","rating":"","reviews":"","location":{},"category":"Contractors","link":"https://www.businesslist.com.ng/company/259132/timeless-steel-ltd","imageUrl":"https://www.businesslist.com.ng/img/ng/a/1507065992-37-timeless-steel-ltd.jpg","phone":"+2348180848714","website":"www.timelesssteel.com"},{"name":"Lexabos Integrated services","address":"No. 32 Redemption drive off nneka,off ugbor Road.Benin city, Benin City, Edo","state":"Edo","description":"Lexabos Integrated services,is a certified registered Business Name,we specialize in Electrical installations, Plumbings, and Tiles installation..we integrated professionalism in three aspect of Const...","rating":"","reviews":"","location":{},"category":"Contractors","link":"https://www.businesslist.com.ng/company/263863/lexabos-integrated-services","imageUrl":"https://www.businesslist.com.ng/img/ng/a/1557020292-85-lexabos-integrated-services.jpg","phone":"08070874414","website":""},{"name":"PET-LIGHT DESIGN","address":"1 UMUONU STREET OPPOSITE MTD POLICE STATION GARRIKI, AWKUNANAW ENUGU, Enugu, Enugu","state":"Enugu","description":"Best leading NAME in ARCHITECTURAL DESIGN AND MASTER MODEL BUILDING. CONSTRUCTION OF MODERN BUILDING WITH BEST ECONOMICAL INPUT FOR CLIENT BEST SATISFACTION.","rating":"","reviews":"","location":{},"category":"Contractors","link":"https://www.businesslist.com.ng/company/262828/pet-light-design","imageUrl":"https://www.businesslist.com.ng/img/ng/s/1545002835-33-pet-light-design.jpg","phone":"08034477581","website":""},{"name":"AREMITE Nigeria Limited","address":"Hse 36, A1 (3) Road, Phase II, Federal Housing Estate, Lugbe, FCT Abuja, Abuja, Abuja","state":"Abuja","description":"AREMITE NIGERIA LIMITED (ANL) is an indigenous construction firm, which has been consistently delivering Quality and innovative Building/Road Construction, Civil Engineering Infrastructures and Struct...","rating":"","reviews":"","location":{"lat":"8.976529633952527","lng":"7.354695552688895"},"category":"Contractors","link":"https://www.businesslist.com.ng/company/262180/aremite-nigeria-limited","phone":"08037269290","website":""}]