[{"name":"TigerHouse Consults","address":"53 Funsho Kinoshi Street, Ago Palace Way Lagos, Lagos, Lagos","state":"Lagos","description":"TigerHouse Consults is a leading architectural and construction engineering firm based in Lagos. We provide world class architectural and construction services all over Nigeria. Our architects are hig...","rating":"","reviews":"","location":{"lat":"6.506322032927685","lng":"3.3120002709229084"},"category":"Contractors","link":"https://www.businesslist.com.ng/company/256945/tigerhouse-consults","imageUrl":"https://www.businesslist.com.ng/img/ng/d/1479354047-12-tigerhouse-consults.jpg","phone":"234 909 855 8851","website":"tigerhouseconsult.com.ng/"},{"name":"Tileright Ng","address":"No 12 ezestreet, uwani Enugu state, Enugu, Enugu","state":"Enugu","description":"Tileright Ng is a leading Tile fixing service providers currently in Enugu state of Nigeria. At Tileright, customer satisfaction is always our priority. We have enough professional tilers that will gi...","rating":"","reviews":"","location":{"lat":"6.39333748229585","lng":"7.565340179687499"},"category":"Contractors","link":"https://www.businesslist.com.ng/company/267075/tileright-ng","imageUrl":"https://www.businesslist.com.ng/img/ng/l/1584372367-44-tileright-ng.jpg","phone":"08163147908","website":""},{"name":"ADANDU LIMITED","address":"CLOSE 11 PLOT 1 RUMUEVOLU ROAD, OFF ADA GEORGE ROAD, Port Harcourt, Rivers","state":"Rivers","description":"ADANDU LIMITED is a brand newly incorporated company in 2018 as a 100% indigenous company to provide quality services to as many clienteles that will find our services attractive, especially the Oil a...","rating":"","reviews":"","location":{"lat":"5.143693587984635","lng":"7.475973987144826"},"category":"Contractors","link":"https://www.businesslist.com.ng/company/264071/adandu-limited","imageUrl":"https://www.businesslist.com.ng/img/ng/h/1559035172-17-adandu-limited.jpg","phone":"08067146727","website":""},{"name":"DOMISUN NIGERIA LIMITED","address":"25 Adebiyi street,Ifako Ijaiye ogba,Ogba Ikeja., Ikeja, Lagos","state":"Lagos","description":"Aluminium Composite Panel Cladding Services- We have extensive Experience and expertise to deliver on any volume or size of Aluminium Composite Cladding Orders. Our service is backed up with a 3D visu...","rating":"","reviews":"","location":{"lat":"6.599301462334238","lng":"3.3429676041687344"},"category":"Contractors","link":"https://www.businesslist.com.ng/company/254377/domisun-nigeria-limited","imageUrl":"https://www.businesslist.com.ng/img/ng/m/1438214549-31-domisun-nigeria-limited.jpg","phone":"09094842249","website":""},{"name":"SCOPA PAINTERS","address":"Area 7 shopping complex, central business district, garki, Abuja, Abuja","state":"Abuja","description":"We are experienced majestic painters with capabilities to produce locally. Scopa Painters to work across various projects in the department. we are expertise working knowledge of residential and comme...","rating":"","reviews":"","location":{"lat":"9.072856825759134","lng":"7.404828071594238"},"category":"Contractors","link":"https://www.businesslist.com.ng/company/261154/scopa-painters","imageUrl":"https://www.businesslist.com.ng/img/ng/e/1528817204-87-scopa-painters.jpg","phone":"08057702667","website":"www.scopapainters.com.ng"},{"name":"Liberty Services International","address":"7, George Street, Onipan Shomolu, Lagos, Lagos, Lagos","state":"Lagos","description":"Liberty Services International is an indigenous Engineering technology company. It was incorporated in 2008 in Nigeria by the Corporate Affairs Commission. Our Services are Electrical, Mechanical, Plu...","rating":"","reviews":"","location":{"lat":"6.332530837987693","lng":"3.3782100677490234"},"category":"Contractors","link":"https://www.businesslist.com.ng/company/258164/liberty-services-international","imageUrl":"https://www.businesslist.com.ng/img/ng/d/1516114401-20-liberty-services-international.jpg","phone":"08023864246","website":""},{"name":"Rufus Thomas & company Ltd","address":"PC. 10, Engineering Close, Victoria Island, Lagos, Nigeria, Lagos, Lagos","state":"Lagos","description":"OUR COMPANY RUFUS THOMAS & COMPANY LTD. with headquarters in Lagos was established under the Company's Act of the Federal Republic of Nigeria, built from a vast array of experience and have executed v...","rating":"","reviews":"","location":{},"category":"Contractors","link":"https://www.businesslist.com.ng/company/196544/rufus-thomascompany-ltd","imageUrl":"https://www.businesslist.com.ng/img/ng/h/1417922876-rufus-thomas-company-ltd.jpg","phone":"2348037046367","website":"www.rtc.com.ng"},{"name":"Hilma aquadesigns","address":"3 wilmot point, Victoria Island, Lagos","state":"Lagos","description":"Hilma aquadesigns is a leading brand specialised in design, constructions and installations of bespoke aquariums,terrariums, fountains, waterfall, pools, garden ponds and aquatic aesthetic features, c...","rating":"","reviews":"","location":{"lat":"6.422205874366948","lng":"3.4098100864166554"},"category":"Contractors","link":"https://www.businesslist.com.ng/company/262537/hilma-aquadesigns","imageUrl":"https://www.businesslist.com.ng/img/ng/f/1541622557-54-hilma-aquadesigns.jpg","phone":"07069549869","website":"www.aquarium.com.ng"},{"name":"Nedstar Construction Ltd","address":"Plot 6c/8 No. 7 second Avenue, off Dhamija, Trans Ekulu, Enugu, Enugu","state":"Enugu","description":"Welcome to Nedstar Construction Ltd.! We are a design & building Contracting firm. We are into building design and construction, Property development, and Maintenance of buildings. Our key business st...","rating":"","reviews":"","location":{"lat":"6.47957898550674","lng":"7.494317293167114"},"category":"Contractors","link":"https://www.businesslist.com.ng/company/254535/nedstar-construction-ltd","imageUrl":"https://www.businesslist.com.ng/img/ng/j/1542354966-61-nedstar-construction-ltd.jpg","phone":"+2348023765050","website":""},{"name":"Lincoln construction services","address":"14 Yimi road Zuba Abuja, Abuja, Abuja","state":"Abuja","description":"We are sport consultant based in Ibadan oyo state. We build and maintain different types of court, tartan athletic track and different types of field ","rating":"","reviews":"","location":{"lat":"9.144630125353514","lng":"7.325035175878116"},"category":"Contractors","link":"https://www.businesslist.com.ng/company/262351/lincoln-construction-services","imageUrl":"https://www.businesslist.com.ng/img/ng/j/1539847968-65-lincoln-construction-services.jpg","phone":"+2348137505756","website":"www.primepythagoras.com.ng"},{"name":"Archpiece Nigeria","address":"Suit 88, Road 1, Ikota complex VGC Ajah Lekki Lagos, Lagos, Lagos","state":"Lagos","description":"We are Archpiece Nigeria with over 10 years experience in swimming pool and water fountain construction in Nigeria. Our expertise span through pool, fountain construction and maintenance with supplies...","rating":"","reviews":"","location":{},"category":"Contractors","link":"https://www.businesslist.com.ng/company/267191/archpiece-nigeria","imageUrl":"https://www.businesslist.com.ng/img/ng/r/1585037232-50-archpiece-nigeria.jpg","phone":"08088835200","website":"www.poolaffairs.com"},{"name":"FUSEND CAPITAL LIMITED","address":"34/36, Ikorodu Road, Fadeyi, Lagos, Lagos, Lagos","state":"Lagos","description":"Fusend Capital Limited is a fast growing building construction management company in Nigeria. We assembled a team of Building Technicians, Architects, Civil Engineers, Land and Quantity Surveyors and ...","rating":"","reviews":"","location":{"lat":"6.522292169517057","lng":"3.3678010327275842"},"category":"Contractors","link":"https://www.businesslist.com.ng/company/263838/fusend-capital-limited","phone":"+2348124476901","website":"www.fusend.com.ng"},{"name":"Wasopey Engineering Concept","address":"2, Balufon Crescent,Sagamu. , Abeokuta, Ogun","state":"Ogun","description":"Wasopey Engineering Concept is a service company incorporated in 2015 that specialize into Building Maintenance (Plumbing,Sewage Clearing, Water Treatment Plant, Borehole & Tiling); and Finishing work...","rating":"","reviews":"","location":{"lat":"6.597702534345889","lng":"3.632376194000244"},"category":"Contractors","link":"https://www.businesslist.com.ng/company/259001/wasopey-engineering-technology","imageUrl":"https://www.businesslist.com.ng/img/ng/f/1518024997-41-wasopey-engineering-concept.jpg","phone":"08051114995","website":""},{"name":"Terranest FJ Services Ltd","address":"14a oshodi apapa express way, Lagos, Lagos","state":"Lagos","description":"Terranest FJ Services is building construction company specialising in epoxy installation in manufacturing plants, warehouses, hospital, hotels, schools and private residences. The company also carry ...","rating":"","reviews":"","location":{"lat":"6.5763515962587356","lng":"3.389913078387508"},"category":"Contractors","link":"https://www.businesslist.com.ng/company/262439/terranest-fj-services-ltd","imageUrl":"https://www.businesslist.com.ng/img/ng/z/1540642242-14-terranest-fj-services-ltd.jpg","phone":"08033940439","website":""},{"name":"NAVIGATOR CONCEPT LIMITED","address":"7, Olamilekan Street, Off Funsho Owoyemi, Olaniyi, Ifako-Ijaiye, Lagos State, Ikeja, Lagos","state":"Lagos","description":"Navigator Concept Limited is an ECP (Engineering, Construction and Procurement) company. The company has basically three (3) functions or areas of specialization ; Engineering, Project Management and ...","rating":"","reviews":"","location":{"lat":"6.626734766062441","lng":"3.3374596099121163"},"category":"Contractors","link":"https://www.businesslist.com.ng/company/259275/navigator-concept-limited","imageUrl":"https://www.businesslist.com.ng/img/ng/r/1508849091-24-navigator-concept-limited.jpg","phone":"+2348106166032","website":""},{"name":"CORNER GATE CONSTRUCTIONS LIMITED","address":"319, Borno Way, Alagomeji, Yaba, Lagos., Lagos, Lagos","state":"Lagos","description":"Corner Gate Limited is a duly incorporated company licensed to provide construction, real estate and building property services in Nigeria. Our commitment is to build great relationships with our clie...","rating":"","reviews":"","location":{},"category":"Contractors","link":"https://www.businesslist.com.ng/company/253998/corner-gate-constructions-limited","imageUrl":"https://www.businesslist.com.ng/img/ng/j/1447217798-51-corner-gate-constructions-limited.jpg","phone":"07062507334","website":"www.corner-gate.com"},{"name":"Zeepad Group","address":"5, olowu st, off Awolowo Way, Ikeja, Lagos","state":"Lagos","description":"Zeepad craft’s most innovative, highly unique and top – of – the range production has kept companies, banks, business signage, with these strong production and innovation strategy showing positi...","rating":"","reviews":"","location":{},"category":"Contractors","link":"https://www.businesslist.com.ng/company/253632/zeepad-group","imageUrl":"https://www.businesslist.com.ng/img/ng/m/1546144334-53-zeepad-signage-maker-nigeria.jpg","phone":"07039155668","website":"wwww.zeepadcraft.com"},{"name":"CSA AFRICA / CSA INTERIORS COMPANY","address":"9, WAREHOUSE ROAD APAPA, LAGOS, Apapa, Lagos","state":"Lagos","description":"CSA AFRICA / CSA INTERIORS COMPANY is a company established in Nigeria in 2000. The company focuses on marketing and installation of top-quality and special building materials such as, Danpalon (Danpa...","rating":"","reviews":"","location":{"lat":"6.452549421278699","lng":"3.3621597290039062"},"category":"Contractors","link":"https://www.businesslist.com.ng/company/259403/csa-africacsa-interiors-company","imageUrl":"https://www.businesslist.com.ng/img/ng/x/1510577770-51-csa-africa-csa-interiors-company.jpg","phone":"08030895077","website":""},{"name":"Zeepad Craft Limited","address":"5, Olowu Street Off Awolowo Way, Ikeja, Lagos","state":"Lagos","description":"Zeepad Group is a leading privately owned company which specializes in Building/Civil Engineering Construction, Steel Fabrication and Award plaque manufacturing. We have developed a multi-disciplinary...","rating":"","reviews":"","location":{},"category":"Contractors","link":"https://www.businesslist.com.ng/company/260695/zeepad-craft-limited","imageUrl":"https://www.businesslist.com.ng/img/ng/r/1524666492-17-zeepad-group.jpg","phone":"012932206","website":"wwww.zeepadgroup.com"},{"name":"Akintoye tekniks","address":"2, Abeokuta expressway, Temidire, Sango, Ifo, Ogun","state":"Ogun","description":"Specifically, our area of specialization include; * Lighting & Inverters- Fiber Optic and Conduit Cabling, * Solar & Batteries, Electric Fencing * Aluminum & Steel Works- Roofing(Stone Coat & Step Til...","rating":"","reviews":"","location":{"lat":"6.704076060456506","lng":"3.249145133257457"},"category":"Contractors","link":"https://www.businesslist.com.ng/company/261215/akintoye-tekniks","phone":"08028386831","website":"www.achynmedialimited.com"},{"name":"Delizo Construction Services Limited","address":"7 Oremerin Street Ladi Lak Bariga, Lagos, Lagos","state":"Lagos","description":"Delizo Construction Services Limited is a full service firm providing Design & Build, Construction Management, Project Development and General Contracting Services in all area of Construction. We have...","rating":"","reviews":"","location":{"lat":"6.55692418174716","lng":"3.3808279037475586"},"category":"Contractors","link":"https://www.businesslist.com.ng/company/254313/delizo-construction-services-limited","imageUrl":"https://www.businesslist.com.ng/img/ng/m/1444686954-42-delizo-construction-services-limited.png","phone":"07088287650","website":""},{"name":"Quadbolt Limited","address":"5, Oba Yekini Elegushi Steet, Ikate, Lekki. , Lagos, Lagos","state":"Lagos","description":"Quadbolt Limited is the best facility maintenance company in Nigeria. We handle all aspects of facility maintenance. Electrical, Mechanical, CCTV, access control, plumbing, HVAC, civil works and lots ...","rating":"","reviews":"","location":{"lat":"6.435613989730248","lng":"3.486506938934326"},"category":"Contractors","link":"https://www.businesslist.com.ng/company/259878/quadbolt-limited","imageUrl":"https://www.businesslist.com.ng/img/ng/j/1516426909-82-quadbolt-limited.jpg","phone":"+2347035669080","website":"www.quadbolt.com"},{"name":"DuKAN George Limited","address":"Plot 110, Ogombo Road Ajah Lagos , Lagos, Lagos","state":"Lagos","description":"DuKAN George Limited is a servicing company with operations ranging from Real Estate, IT Solutions, Oil and Gas, Unconventioanl Resources, Hydro Resources and Specialised/Consultancy service. We opera...","rating":"","reviews":"","location":{"lat":"6.451649700000001","lng":"3.608359899999982"},"category":"Contractors","link":"https://www.businesslist.com.ng/company/260599/dukan-george-limited","imageUrl":"https://www.businesslist.com.ng/img/ng/h/1523867578-74-dukan-george-limited.png","phone":"08050579321","website":"www.dukangroup.com"},{"name":"Blueline Urban Projects","address":"57, Femi Ayantuga Crescent, off Adelabu Road, Surulere, Lagos., Lagos, Lagos","state":"Lagos","description":"Blueline Urban Projects Limited is a mid - size,indigenous construction company that delivers work quality at par to that of our international contemporaries operating in Nigeria.Our Services include:...","rating":"","reviews":"","location":{"lat":"6.495417005248879","lng":"3.3518042527039142"},"category":"Contractors","link":"https://www.businesslist.com.ng/company/260746/blueline-urban-projects","imageUrl":"https://www.businesslist.com.ng/img/ng/z/1525102887-45-blueline-urban-projects.png","phone":"08181562930","website":"www.bluelineprojects.com"},{"name":"FOS TOWERS GLOBAL CONSULT","address":"18, ABEL FASIPE Avenue, ALIMOSHO, Lagos, Lagos","state":"Lagos","description":"As professionals since 2011, We are always on the lookout for the next great project, and we're dedicated to providing sustainable and creative structural solutions. \"We are a burgeoning company, offe...","rating":"","reviews":"","location":{"lat":"6.57975180871196","lng":"3.2169352128223636"},"category":"Contractors","link":"https://www.businesslist.com.ng/company/266035/fos-towers-global-consult","imageUrl":"https://www.businesslist.com.ng/img/ng/g/1576238546-92-fos-towers-global-consult.png","phone":"08063761264","website":"www.fosdecor.com.ng"},{"name":"Sharpman Nig. Ltd","address":"60 Old Market road, Onitsha, Onitsha, Anambra","state":"Anambra","description":"THE NAME OF MY COMPANY IS SHARPMAN NIG. LTD, ONITSHA, ANAMBRA STATE, NIGERIA. IT IS LOCATED AT NO 60 OLD MARKET ROAD, ONITSHA, ANAMBRA STATE. WE ARE INTO BUILDING/ROOFING CONSTRUCTION, BOREHOLE DRILLI...","rating":"","reviews":"","location":{"lat":"6.154367074373902","lng":"6.777310148514971"},"category":"Contractors","link":"https://www.businesslist.com.ng/company/258685/sharpman-nig-ltd","imageUrl":"https://www.businesslist.com.ng/img/ng/a/1501865652-94-sharpman-nig-ltd.jpg","phone":"08038025442","website":""},{"name":"Splendour Services Incorporated","address":"Akede crescent basorun ibadan, Ibadan, Oyo","state":"Oyo","description":"Interior Decorations and construction company with the sole aim of giving your home a splendour touch of classy designs. At splendour services incorporated, we give you an interior decorations that is...","rating":"3.0","reviews":"2 Reviews","location":{"lat":"7.4130458845912","lng":"3.930298821298038"},"category":"Contractors","link":"https://www.businesslist.com.ng/company/265373/splendour-services-incorporated","imageUrl":"https://www.businesslist.com.ng/img/ng/z/1570657573-52-splendour-services-incorporated.jpg","phone":"+2347010231765","website":"splendour-services-nigeria.business.site/"},{"name":"Brail Construction","address":"16 Afolabi Aina Street, Off Allen Avenue, Behind Ecobank Ikeja Lagos, Nigeria., Ikeja, Lagos","state":"Lagos","description":"Brail Construction is a multidisciplinary and multidimensional construction company in Nigeria delivering good quality construction services in roads and buildings using the best engineering creativit...","rating":"","reviews":"","location":{"lat":"6.6058879071450765","lng":"3.35082111216434"},"category":"Contractors","link":"https://www.businesslist.com.ng/company/255086/brail-construction","imageUrl":"https://www.businesslist.com.ng/img/ng/z/1450581686-63-brail-construction.png","phone":"0803475073208183561410","website":"www.brailconstruction.com"},{"name":"Contrati Designs Ltd","address":"24, Adeyinka street, Ilupeju estate, Ilupeju, Lagos, Lagos, Lagos","state":"Lagos","description":"We introduce our company; Contrati Designs Ltd, a firm of experienced Architectural Design & Project management consultants that have executed several projects throughout the country. Our firm also co...","rating":"5.0","reviews":"1 Review","location":{},"category":"Contractors","link":"https://www.businesslist.com.ng/company/196546/contrati-designs-ltd","imageUrl":"https://www.businesslist.com.ng/img/ng/f/1411808948-contrati-designs-ltd.jpg","phone":"","website":"www.contratidesigns.com"},{"name":"Airos Synergy Nigeria Ltd","address":"No. 4b, Aghayubini Cresent, Off Adesuwa Grammar School Road, GRA., Benin City, Edo","state":"Edo","description":"Airos Synergy Nigeria Limited (RC 1054839), is an 100% indegenous Nigerian company with offices in Lagos and Edo State. We specialize in EPCM |ENGINEERING DESIGN | PROJECT MANAGEMENT | CONSULTING DESI...","rating":"","reviews":"","location":{"lat":"6.303700781164383","lng":"5.619307600774932"},"category":"Contractors","link":"https://www.businesslist.com.ng/company/267164/airos-synergy-nigeria-ltd","imageUrl":"https://www.businesslist.com.ng/img/ng/k/1584807134-70-airos-synergy-nigeria-ltd.jpg","phone":"+2347010282720","website":"airossynergy.com.ng/"}]