[{"name":"NEXVEN NIGERIA LIMITED","address":"2 NDUKA WALI STREET, WALI ESTATE, RUMUODARA, Port Harcourt, Rivers","state":"Rivers","description":"NEXVEN NIG. LTD is an engineering contracting company involved in the provision of engineering procurement , civil construction, oil &gas services.We specialize in the construction of residential and ...","rating":"","reviews":"","location":{"lat":"4.850070180491861","lng":"7.036973676736352"},"category":"Contractors","link":"https://www.businesslist.com.ng/company/261322/nexven-nigeria-limited","imageUrl":"https://www.businesslist.com.ng/img/ng/z/1530548706-28-nexven-nigeria-limited.jpg","phone":"+2347033014580","website":"nexvengroup.com"},{"name":"Equifable Mega Resources Nigeria Limited","address":"No 22, Molade Street, Olodi Apapa, Lagos, Nigeria, Apapa, Lagos","state":"Lagos","description":"Equifable Mega Resources Nigeria Limited is purely, an indigenous company. Consisting of dynamic, determined, experienced and self-motivated ‘men’ willing to carve a niche for themselves in the hy...","rating":"","reviews":"","location":{"lat":"6.449744137726324","lng":"3.332506385986335"},"category":"Contractors","link":"https://www.businesslist.com.ng/company/253055/equifable-mega-resources-nigeria-limited","imageUrl":"https://www.businesslist.com.ng/img/ng/g/1410423955_67519.jpg","phone":"+2347056698924+2349097529384","website":"equifable.com.ng"},{"name":"Elite Logistics and Development Services","address":"11B Fatai Idowu Arobieke Street Lekki Phase 1, , Lagos Island, Lagos","state":"Lagos","description":"Elite Logistics & Development Services Limited is an indigenous company with its operating office in Lagos and duly registered under the companies and allied matters ACT 1990 with RC1195367. ELADS Lim...","rating":"","reviews":"","location":{"lat":"6.45604","lng":"3.47773"},"category":"Contractors","link":"https://www.businesslist.com.ng/company/262970/elite-logistics-and-development-services","imageUrl":"https://www.businesslist.com.ng/img/ng/d/1546858084-76-elite-logistics-and-development-services.jpg","phone":"+234 (1) 2934234","website":"elitelogisticsdevelopment.com/"},{"name":"Marquee tent Nigeria manufacturing companies","address":"I bayo akhimen street ijegun road ikotun Lagos , Lagos Island, Lagos","state":"Lagos","description":"Kce Ventures Tent is Lagos, Nigeria’s no 1 clear span tent manufacturer exporting to the African countries. We carry a wide range of clear span tents including A-Frame Structures, Arch Structures, C...","rating":"","reviews":"","location":{"lat":"6.666213683298147","lng":"3.209604400878902"},"category":"Contractors","link":"https://www.businesslist.com.ng/company/264551/marquee-tent-nigeria-manufacturing-companies","imageUrl":"https://www.businesslist.com.ng/img/ng/c/1563694017-55-marquee-tent-nigeria-manufacturing-companies.jpg","phone":"09011304570","website":"www.kceventurestent.com"},{"name":"Corustar Technological Services","address":"6B Majekodunmi Street, off Allen Avenue, Ikeja, Lagos","state":"Lagos","description":"We work with both Residential, Commercial and Industrial sector on the forefront of innovation and technology, whatever your project we can offer turnkey solutions. Our sectors of services means that ...","rating":"","reviews":"","location":{"lat":"6.605874","lng":"3.349149"},"category":"Contractors","link":"https://www.businesslist.com.ng/company/264158/corustar-technological-services","imageUrl":"https://www.businesslist.com.ng/img/ng/g/1560006792-61-corustar-technological-services.jpg","phone":"09083170104","website":"www.corustartechnology.com"},{"name":"Oasistownhouse Pools","address":"No 2 Akerele Street, Maryland Ikeja Lagos, Ikeja, Lagos","state":"Lagos","description":"We specialise in the supply and installation of in-ground pre-moulded fibreglass swimming pools, Spa pools (Hot tub or Jacuzzi), swimming pool equipment and general swimming pool supplies including sw...","rating":"","reviews":"","location":{"lat":"6.571355795113493","lng":"3.3661937713623047"},"category":"Contractors","link":"https://www.businesslist.com.ng/company/255559/oasistownhouse-pools","imageUrl":"https://www.businesslist.com.ng/img/ng/m/1459243345-73-oasistownhouse-pools.jpg","phone":"+234 705 615 9874","website":"www.oasistownhousepools.com"},{"name":"QUOINIX ASSOCIATES ","address":"321 ROAD, OPPOSITE D CLOSE, FESTAC TOWN, LAGOS, Lagos, Lagos","state":"Lagos","description":"Quoinix Associates is an architectural design-build firm specializing in residential and commercial developments. We provide unique design-build solutions to home owners and property developers using ...","rating":"","reviews":"","location":{"lat":"6.466515682782666","lng":"3.2860422135490808"},"category":"Contractors","link":"https://www.businesslist.com.ng/company/256711/quoinix-associates","imageUrl":"https://www.businesslist.com.ng/img/ng/j/1475766230-77-quoinix-associates.jpg","phone":"+2348036755298","website":"quoinix.com.ng"},{"name":"RyteGate","address":"52 Ogudu Rd, Ojota, Ojota, Lagos","state":"Lagos","description":"RyteGate provides consulting and information technology advisory services to a wide range of local and international clients. We are specialists in Building and Construction and Real Estate Developmen...","rating":"","reviews":"","location":{"lat":"6.58694481865849","lng":"3.3830675045073804"},"category":"Contractors","link":"https://www.businesslist.com.ng/company/261073/rytegate","imageUrl":"https://www.businesslist.com.ng/img/ng/c/1528125825-43-rytegate.jpg","phone":"08149906811","website":"www.rytegate.com"},{"name":"IRAD INVESTMENT LTD (IRAD GROUP)","address":"36B Sani Abacha Road, GRA Phase 2, Port-Harcourt, Port Harcourt, Rivers","state":"Rivers","description":"Founded in 1994, IRAD INVESTMENT LTD (IRAD GROUP) is a wholly indigenously owned Nigerian Company registered with the Corporate Affairs Commission. IRAD INVESTMENT LTD (IRAD GROUP) has interests in Oi...","rating":"","reviews":"","location":{"lat":"4.81477313452119","lng":"6.989985312980025"},"category":"Contractors","link":"https://www.businesslist.com.ng/company/264090/irad-investment-ltd-irad-group","imageUrl":"https://www.businesslist.com.ng/img/ng/h/1559207222-47-irad-investment-ltd-irad-group.png","phone":"0807 600 6080","website":"https:www.iradinvestment.com"},{"name":"The Surveyors World","address":"#1, HeroizuTech Complex, by Trinity Junc. Nekede Poly Road, Nekede, Owerri , Owerri, Imo","state":"Imo","description":"The Surveyors World www.surveyworld.com.ng,is an organisation that is into Consulting and Training and Online shop. We are known for quality services. We are known for land survey, GIS data processing...","rating":"","reviews":"","location":{"lat":"5.4135571132687135","lng":"7.083634342195251"},"category":"Contractors","link":"https://www.businesslist.com.ng/company/266126/the-surveyors-world","imageUrl":"https://www.businesslist.com.ng/img/ng/e/1590095047-85-the-surveyors-world.jpg","phone":"+2348181554446","website":"www.surveyworld.com.ng"},{"name":"Heavens Contractors Ltd","address":"Plot 2A Afuwape Street, Majidun, Ikorodu, Lagos, Nigeria., Ikorodu, Lagos","state":"Lagos","description":"Heavens is a household name for best designs and construction at currently acceptable standards across Nigeria and beyond. Because we do not jeopardize quality for unscrupulous gains, we continue to e...","rating":"","reviews":"","location":{"lat":"6.618392869312652","lng":"3.4967950789426823"},"category":"Contractors","link":"https://www.businesslist.com.ng/company/252852/heavens-contractors-ltd","imageUrl":"https://www.businesslist.com.ng/img/ng/r/1562223770-44-heavens-design-build-contractors-ltd.png","phone":"+2348167394799","website":"www.heavenscontractors.com"},{"name":"RapidCabin","address":"Km16 Flat 21, Aba Port Harcourt Road, Port Harcourt, Port Harcourt, Port Harcourt, Rivers","state":"Rivers","description":"Rapid Cabin is located in Port Harcourt, Rivers. Our company is mainly into Construction, Building Materials and offering Container Construction, Mobile Bathroom Rentals, Port Management. If you have ...","rating":"","reviews":"","location":{"lat":"4.87257","lng":"7.13261"},"category":"Contractors","link":"https://www.businesslist.com.ng/company/265409/rapidcabin","imageUrl":"https://www.businesslist.com.ng/img/ng/r/1570879931-49-rapidcabin.jpg","phone":"+2348066454544+234 802 725 4505","website":"www.rapidcabin.com"},{"name":"PlumberNextDoor","address":"surulere lagos, Lagos, Lagos","state":"Lagos","description":"We know about Plumbing problems, they flood our houses, smell bad and destroy properties as well as endanger lives. For Businesses, homes and real estate firms that require responsive maintenance plum...","rating":"","reviews":"","location":{"lat":"6.500462791817164","lng":"3.3555078506469727"},"category":"Contractors","link":"https://www.businesslist.com.ng/company/255713/plumbernextdoor","imageUrl":"https://www.businesslist.com.ng/img/ng/g/1499856866-12-plumbernextdoor.jpg","phone":"08094677904","website":"www.plumbernextdoor.com.ng"},{"name":"ArckDes","address":"Community road Junction, Ago palace way, Okota. , Lagos, Lagos","state":"Lagos","description":"ARCHDES is an Architectural firm that deals on production of architectural, structural, mechanical and electrical working drawings for building construction. We design to your desire. ARCHDES also pro...","rating":"","reviews":"","location":{"lat":"6.500913630815719","lng":"3.3020920584652913"},"category":"Contractors","link":"https://www.businesslist.com.ng/company/257794/arckdes","imageUrl":"https://www.businesslist.com.ng/img/ng/d/1562444851-34-arckdes.jpg","phone":"08068866549","website":"archdes.creatorlink.net"},{"name":"Resource Team Company","address":"16 Akobi Crescent, Off Lawanson road, Surulere, Lagos, Nigeria , Lagos, Lagos","state":"Lagos","description":"Resource Team Company major in the provision of Quality Designs, Planning, Roofing, Tiling, Concrete, Masonry, Flooring, Ceiling, Carpentry, Painting, Partitioning, Renovation, Furniture Rehabilitatio...","rating":"","reviews":"","location":{"lat":"6.5161412493198245","lng":"3.36031973361969"},"category":"Contractors","link":"https://www.businesslist.com.ng/company/253875/resource-team-company","imageUrl":"https://www.businesslist.com.ng/img/ng/g/1539252059-23-resource-team-company.jpg","phone":"09097626768","website":"www.resourceteamng.com"},{"name":"Alucobond Cladding At Halbond","address":"Lekki, Lagos, Lagos","state":"Lagos","description":"Halbond Services exceeds expectations in the areas of: Alucoboard Cladding Curtain wall Windows Sun breakers 07055575224 We have a great team of professionals that work promptly and in synergy to desi...","rating":"","reviews":"","location":{"lat":"6.452287875879293","lng":"3.6272048950195312"},"category":"Contractors","link":"https://www.businesslist.com.ng/company/258109/alucobond-cladding-at-halbond","imageUrl":"https://www.businesslist.com.ng/img/ng/c/1571306308-32-alucobond-cladding-at-halbond.jpg","phone":"07055575224","website":"www.halbond.webs.com"},{"name":"Vailers Concept","address":"29 Obudu street igoli ogoja, Ogoja, Cross River","state":"Cross River","description":"Industrial cleaning services, Production and Marketing of Home cleaning products, Training and consultation services and General Merchandise ","rating":"5.0","reviews":"1 Review","location":{"lat":"4.578875685893143","lng":"8.305435280927993"},"category":"Contractors","link":"https://www.businesslist.com.ng/company/267419/vailers-concept","imageUrl":"https://www.businesslist.com.ng/img/ng/b/1587294742-72-vailers-concept.jpg","phone":"07087119474","website":""},{"name":"Catena Roofing","address":"19B Bush Street, Anthony Village, Maryland Lagos State, Ikeja, Lagos","state":"Lagos","description":"We are an indigenous Nigerian Company that specializes in the importation, supply, and distribution of premium quality roofing products and building materials.","rating":"","reviews":"","location":{"lat":"6.566499024947302","lng":"3.3689313874328946"},"category":"Contractors","link":"https://www.businesslist.com.ng/company/263360/catena-roofing","imageUrl":"https://www.businesslist.com.ng/img/ng/r/1550759518-91-catena-roofing.jpg","phone":"+234 (0) 8033018217+234 (0) 8176691526+234 (0) 8032036436+234 (0) 8035367070","website":"www.catenaroofing.com.ng"},{"name":"BUILT MAGNATE LIMITED","address":"95 Ago palace Okota, Oshodi, Lagos","state":"Lagos","description":"Built Magnate (RC 1570844) is an Architectural firm with a team of Architects, Engineers, Surveyors and Builders established in March 2019 and led by Arc. Eziuche Emmanuel. Specializes in Architectura...","rating":"","reviews":"","location":{"lat":"6.514322734500968","lng":"3.316761772119765"},"category":"Contractors","link":"https://www.businesslist.com.ng/company/266682/built-magnate-limited","imageUrl":"https://www.businesslist.com.ng/img/ng/e/1581757061-49-built-magnate-limited.jpg","phone":"08038601428","website":"www.builtmagnate.com"},{"name":"Eyesight Fabricators","address":"Km 37 Lekki Epe Expressway, Lagos, Lagos","state":"Lagos","description":"We are Eyesight Fabricators a subsidiary of Eyesight Construction LTD which was incorporated in 2011 but has been into the business of general fabrications since 2004 with a team of highly qualified a...","rating":"","reviews":"","location":{"lat":"9.056477195060095","lng":"7.513382434844971"},"category":"Contractors","link":"https://www.businesslist.com.ng/company/190933/eyesight-construction","imageUrl":"https://www.businesslist.com.ng/img/ng/s/1440004993-61-eyesight-fabricators.jpg","phone":"08068966121","website":"www.eyesightfabricator.com"},{"name":"Avantiline Design Limited","address":"Block B, Suit 157, Sura Shopping Complex, Simpson Street Lagos State , Lagos, Lagos","state":"Lagos","description":"Avantiline design limited is a young fast growing Nigeria based Architectural practice established in 2014, owned and run by two architect directors and numbering around 20 staffs. We aim to provide a...","rating":"","reviews":"","location":{"lat":"6.454415999682414","lng":"3.404155419276549"},"category":"Contractors","link":"https://www.businesslist.com.ng/company/258672/avantiline-design-limited","imageUrl":"https://www.businesslist.com.ng/img/ng/h/1501771849-81-avantiline-design-limited.jpg","phone":"08037197292","website":"www.avantiline.com"},{"name":"TRIPPLE C UTILITIES NIG LTD","address":"13 Hassan Close Olusosun, Ikeja, Lagos","state":"Lagos","description":"We are an engineering firm registered to carryout, Design, and general construction management for all types of buildings and hydraulic structures. Our expertise encompasses every aspect of a project....","rating":"","reviews":"","location":{"lat":"6.587087268815856","lng":"3.372749090194702"},"category":"Contractors","link":"https://www.businesslist.com.ng/company/255530/tripple-c-utilities-nig-ltd","imageUrl":"https://www.businesslist.com.ng/img/ng/b/1462869061-69-tripple-c-utilities-nig-ltd.jpg","phone":"07034653122","website":"Www.shelterhubnigeria.com"},{"name":"BETTERSEED LOGISTICS LIMITED ","address":"Association Plaza Block C Abeokuta/Expressway cement bus stop dopemu, Lagos, Lagos","state":"Lagos","description":"Welcome, Our company is involved in the Imports,Distribution and Installation of American Aluminum Rain Gutters otherwise known as Water Collector. We are always available to solve all your problems i...","rating":"","reviews":"","location":{"lat":"6.592147147898961","lng":"3.3626297895965536"},"category":"Contractors","link":"https://www.businesslist.com.ng/company/264466/betterseed-logistics-limited","imageUrl":"https://www.businesslist.com.ng/img/ng/h/1562996405-20-betterseed-logistics-ltd.jpg","phone":"08033359280","website":"www.betterseedlimited.blogspot.com"},{"name":"Ninija Electric Limited ","address":"Gostu Plaza First Avenue Gwarinpa , Abuja, Abuja","state":"Abuja","description":"Ninija Electric Limited, formerly coppersynee electrical engineering, is a provider of engineering, procurement and construction (EPC) services to core sector industries in Nigeria. The Company's segm...","rating":"","reviews":"","location":{"lat":"6.1244817","lng":"6.8154667"},"category":"Contractors","link":"https://www.businesslist.com.ng/company/262596/ninija-electric-limited","imageUrl":"https://www.businesslist.com.ng/img/ng/n/1542260371-72-coppersynee-electrical-power-engineering.jpg","phone":"+2349074748789","website":"ninijaelectric.com"},{"name":"Fincrete Global","address":"Plot 20, Tokunbo Adenuga Street, Rover Estate, Ogombo, Ajah, Lagos, Lagos Island, Lagos","state":"Lagos","description":"Fincrete came about due to a need to create a safe haven on construction chemical and concrete solutions. The mission is to create a niche strictly providing the best quality products and application ...","rating":"5.0","reviews":"1 Review","location":{},"category":"Contractors","link":"https://www.businesslist.com.ng/company/267716/fincrete-global","imageUrl":"https://www.businesslist.com.ng/img/ng/c/1589650284-67-fincrete-global.png","phone":"+2348091409014","website":"fincreteglobal.com/"},{"name":"Chartered Design Consulting Limited","address":"22B, Femi Okunnu Estate, Lekki, Lagos, Lagos, Lagos","state":"Lagos","description":"Chartered Design Consulting Limited is a Building Services Engineering Company with dealings in Architectural Design, Plumbing Design, Ventilation and Air-conditioning Design, Electrical Design and St...","rating":"","reviews":"","location":{"lat":"6.436620500862315","lng":"3.5059934481562323"},"category":"Contractors","link":"https://www.businesslist.com.ng/company/260921/chartered-design-consulting-limited","imageUrl":"https://www.businesslist.com.ng/img/ng/m/1533642014-55-chartered-design-consulting-limited.jpg","phone":"+2348032481308","website":"chartereddesign.com"},{"name":"DGR Consult","address":"14, Allen Avenue Street, Ikeja, Lagos","state":"Lagos","description":"DGR is a FIRM that provides Quality Engineering Services, Professional Trainings and Technical support services to a broad range of markets, including Oil & Gas, Real Estate, Construction, Environment...","rating":"","reviews":"","location":{"lat":"6.601559304547324","lng":"3.3519572764635086"},"category":"Contractors","link":"https://www.businesslist.com.ng/company/260049/dgr-consult","imageUrl":"https://www.businesslist.com.ng/img/ng/e/1518173620-53-dgr-consult.jpg","phone":"08037916993","website":"www.dgrconsult.com"},{"name":"Axial Roof Gutters","address":"28/30 Marcarthy Street, Onikan, Lagos Island, Lagos","state":"Lagos","description":"Axial Roof Gutters is a roof guttering company that provides world class gutter installation and maintenance in Nigeria and beyond. Our roof gutters install fit for purpose use which not only protects...","rating":"","reviews":"","location":{"lat":"8.407168163601074","lng":"6.328125"},"category":"Contractors","link":"https://www.businesslist.com.ng/company/252516/axial-roof-gutters","imageUrl":"https://www.businesslist.com.ng/img/ng/h/1397339783_11993.jpg","phone":"08127789677","website":"www.axialroofgutters.com"},{"name":"J.C.L Concept and Resources Ltd","address":"232, Borno way, Ebutte Metta Lagos, Ikeja, Lagos","state":"Lagos","description":"J.C.L Concept and Resources is a nascent company with it's focus on fabrication, installation, conversion, maintenance of Portacabins, Mobile steel structures, Aluminum structures and buildings. Our C...","rating":"","reviews":"","location":{"lat":"6.601859299775657","lng":"3.3508867346899933"},"category":"Contractors","link":"https://www.businesslist.com.ng/company/262956/jcl-concept-and-resources-ltd","imageUrl":"https://www.businesslist.com.ng/img/ng/j/1546705211-38-j-c-l-concept-and-resources-ltd.jpg","phone":"08171104805","website":"www.jclconcepts.com"},{"name":"Pine Group Nigeria","address":"Plot J100A, Close 13, VGC, Lekki Peninsula, Ajah, Lagos Island, Lagos","state":"Lagos","description":"Establishes in 2005, Pine Group Nigeria is a group of Utility Service Provider Companies dedicated to offering value and value adding services, enhanced with technology application with a focus of enh...","rating":"","reviews":"","location":{"lat":"6.451923494274102","lng":"3.3902804932852177"},"category":"Contractors","link":"https://www.businesslist.com.ng/company/261765/pine-group-nigeria","imageUrl":"https://www.businesslist.com.ng/img/ng/k/1534323292-77-pine-group-nigeria.jpg","phone":"09030002194090300021950903000219609030002197","website":"www.pinegroup.com.ng"}]