[{"name":"Swimming Pool Construction Company Nigeria Enterprise","address":"182 Aba Road, By Water Lines Junction, Port Harcourt, Rivers","state":"Rivers","description":"\"SPCC is nationally recognized not only as the industry leader, but as a best-in-class swimming pool construction company that offer the best and highest quality swimming pool installations at the bes...","rating":"","reviews":"","location":{},"category":"Contractors","link":"https://www.businesslist.com.ng/company/255903/swimming-pool-construction-company-nigeria-enterprise","phone":"2348039422997","website":"swimmingpool.com.ng/"},{"name":"Sw","address":"182 aba road, waterlines, Port Harcourt, Rivers","state":"Rivers","description":"SPCC is nationally recognized not only as the industry leader, but as a best-in-class swimming pool construction company that offer the best and highest quality swimming pool installations at the best...","rating":"","reviews":"","location":{},"category":"Contractors","link":"https://www.businesslist.com.ng/company/255865/sw","phone":"08039422997","website":"swimmingpool.com.ng"},{"name":"Architrave","address":"2C, Idowu Olaitan Street, Gbagada Phase II. P.O.Box 36, Unilag Post Office, Lagos, Lagos","state":"Lagos","description":"Architrave is a Design and Construction firm providing Bespoke and Innovative Building Solutions. ","rating":"","reviews":"","location":{},"category":"Contractors","link":"https://www.businesslist.com.ng/company/98629/architrave","phone":"+234-1-4750616","website":"www.architraveng.com"},{"name":"TilcorTech Roof Company ","address":"Suit B5 Topaz Plaza, New Road, Lekki Epe Expressway, Lagos - Nigeria., Epe, Lagos","state":"Lagos","description":"Tilcortechroof Company is a multi-purpose company the company specializes in roofing, Estate Agency and other construction in building pop work wall tiles Aluminium profiles. Marble security doors sta...","rating":"","reviews":"","location":{},"category":"Contractors","link":"https://www.businesslist.com.ng/company/196983/tilcortech-roof-company","phone":"0806 500 1712","website":"tilcotechroof.com"},{"name":"Aneemah Group","address":"Plot 79, Ralph Shodeinde Street, Front Wing, Plateau House, Central Business District, Abuja., Abuja, Abuja","state":"Abuja","description":"We are a tripod organization with interest in Crop Production, Food Technology, Engineering, Finance, Management and Technical Expertise characterized by; Teamwork, Honesty, Sustainability, Innovation...","rating":"","reviews":"","location":{},"category":"Contractors","link":"https://www.businesslist.com.ng/company/259732/aneemah-group","phone":"+2348020906991","website":"www.aneemahgroup.com"},{"name":"AM Contractor(subsidary of yemtech construction ltd).","address":"31 marryland along lagos ibadan express way., Ikeja, Lagos","state":"Lagos","description":"AM contractor is a reputable company that is into civil construction & metal constructions works generally, base in lagos Nigeria here are the under listed company area of specialization 1. civil cons...","rating":"","reviews":"","location":{},"category":"Contractors","link":"https://www.businesslist.com.ng/company/190219/am-contractorsubsidary-of-yemtech-construction-ltd","phone":"0806 9747 710","website":"www.amcontractor.com"},{"name":"ACE'COHORT ATELIER LIMITED","address":"110 ADEKUNLE FAJUYI ROAD ADAMASINGBA IBADAN, Ibadan, Oyo","state":"Oyo","description":"Ace’Cohort Atelier is a multidisciplinary design studio established by group of professionals and incorporated in 2014. The studio have worked and partner at multiple scales with various organizatio...","rating":"","reviews":"","location":{},"category":"Contractors","link":"https://www.businesslist.com.ng/company/258277/acecohort-atelier-limited","phone":"08064560417","website":"acecohort.com"},{"name":"GEOTEXTILE & GABIONS LTD","address":"9, Challawa Crescent, Near Danbo International College, Challawa - Barnawa. Kaduna. Nigeria, Kaduna, Kaduna","state":"Kaduna","description":"We import European and American made geotextile, gabions, renos, geobags, geomembranes, water proof membranes and other geosynthetics for resale in Nigeria at competitive prices. We offer free technic...","rating":"","reviews":"","location":{},"category":"Contractors","link":"https://www.businesslist.com.ng/company/257115/geotextilegabions-ltd","imageUrl":"https://www.businesslist.com.ng/img/ng/j/1483008668-97-geotextile-gabions-ltd.jpg","phone":"+234-8036602444+234-8020657472+234-8051713720","website":"gabionsgeotextile.com"},{"name":"Zentol Ventures","address":"1 Abasido Street, Off Okoye Street, Bucknor, JAkande Estate, Ejigbo, Lagos state, Ejigbo, Lagos","state":"Lagos","description":"We are an indigenous Nigerian firm that specializes in the under listed services, with excellent track record and over 12 years experience in the field Design and construction of Buildings Facility ma...","rating":"","reviews":"","location":{"lat":"6.489916884129523","lng":"3.32985520362854"},"category":"Contractors","link":"https://www.businesslist.com.ng/company/256685/zentol-ventures","phone":"08025019421","website":""},{"name":"CSA Interiors Company.","address":"9, Warehouse Road, Apapa, Lagos","state":"Lagos","description":"DANPALON KITCHENS WARDROBES STAINLESS STEEL HANDRAILS ACOUSTIC CEILINGS THERMAL INSULATION COLD ROOMS AUDIO & VISUAL ACOUSTIC SOLUTIONS","rating":"","reviews":"","location":{},"category":"Contractors","link":"https://www.businesslist.com.ng/company/116414/csa-interiors-company","phone":"08030895077","website":"www.csa-africa.com"},{"name":"Dredger Dredging Nigeria Company","address":"182 Aba Road, by Dulux Paint. Water Lines Bus Stop, Port Harcourt, Rivers","state":"Rivers","description":"Dredger Dredging Nigeria Company is Nigeria’s foremost dredge company with years of experience in Fabrication, Repairs and maintenance, Dredging, dredge sales, and Land reclamation. Since 2011, We h...","rating":"","reviews":"","location":{},"category":"Contractors","link":"https://www.businesslist.com.ng/company/256197/dredger-dredging-nigeria-company","phone":"2348039422997","website":"dredger.com.ng/"},{"name":"Halcyon Cavic Nigeria Limited","address":"46, Dumez Estate, Off Airport Road, Effurun, Delta State., Warri, Delta","state":"Delta","description":"Halcyon Cavic Nigeria Limited is a general contracting firm whose business includes:- Construction, Engineering, Procurement and Logistic Services etc. We are equally into leasing and hiring of Barges...","rating":"","reviews":"","location":{},"category":"Contractors","link":"https://www.businesslist.com.ng/company/256561/halcyon-cavic-nigeria-limited","phone":"+234-9093020415","website":"www.halcyoncavic.com"},{"name":"Saltafrik Engineering Limited","address":"Toyin Street, Lagos, Ikeja, Lagos","state":"Lagos","description":"Saltafrik is a Nigeria autonomous services company. The Company was established in 2005 out of the desire to render engineering design, drafting, installation, maintenance, support services and genera...","rating":"","reviews":"","location":{},"category":"Contractors","link":"https://www.businesslist.com.ng/company/260267/saltafrik-engineering-limited","imageUrl":"https://www.businesslist.com.ng/img/ng/j/1520521395-93-saltafrik-engineering-limited.png","phone":"08023769401","website":"saltafrik.com/"},{"name":"METRO PLUS PROPERTY AND CONSTRUCTION","address":"496 Ikorodu road ketu, Lagos, Lagos, Lagos","state":"Lagos","description":"we are trusted and tested professionals into Architectural work,structure construction for both private and public purposes and into real estate.","rating":"","reviews":"","location":{},"category":"Contractors","link":"https://www.businesslist.com.ng/company/266736/metro-plus-property-and-construction","imageUrl":"https://www.businesslist.com.ng/img/ng/f/1582194195-29-metro-plus-property-and-construction.png","phone":"+2348169635735","website":""},{"name":"Bolajoko Lawal Ent. Nig. Ltd","address":"3B, Prison Street, Off Akarigbo Road, Isale Oko, Sagamu., Shagamu, Ogun","state":"Ogun","description":"If you do need a plumber, how do you go about finding a professional? How do you determine who is most qualified to perform the work? What can you expect as far as costs, and what if your plumbing cri...","rating":"","reviews":"","location":{},"category":"Contractors","link":"https://www.businesslist.com.ng/company/259061/bolajoko-lawal-ent-nig-ltd","imageUrl":"https://www.businesslist.com.ng/img/ng/b/1506272034-97-bolajoko-lawal-ent-nig-ltd.jpg","phone":"08051114995","website":""},{"name":"Made Energy Services Limited","address":"Former Topcon Yard, Enerhen Road, Warri, Delta State, Warri, Delta","state":"Delta","description":" Provides scaffolding services and equipment leasing for construction, commissioning, fabrication and total business solutions, structured to meet customers requirement with affordable quality product...","rating":"","reviews":"","location":{},"category":"Contractors","link":"https://www.businesslist.com.ng/company/253788/made-energy-services-limited","phone":"+2348126969330","website":"madeenergyserltd.com"},{"name":"Pro-Touch","address":"19a Oseni Close Off Modupe Johnson Crescent Surulere Lagos , Oshodi, Lagos","state":"Lagos","description":"Pro-Touch is building construction support service company. We provide excellent consultancy and contractual support services for the construction industry. We are specialists in the areas of sales an...","rating":"","reviews":"","location":{},"category":"Contractors","link":"https://www.businesslist.com.ng/company/261471/pro-touch","imageUrl":"https://www.businesslist.com.ng/img/ng/c/1531819355-43-pro-touch.png","phone":"0909 383 3789","website":""},{"name":"Global Research & Information Merchants","address":"Oremeji street, Ikeja, Lagos, Ikeja, Lagos","state":"Lagos","description":"Provide a range of technical solutions and services: - Engineering Services - Consulting - Training and Development - Information Technology Solutions See our website for more information ... http://w...","rating":"","reviews":"","location":{},"category":"Contractors","link":"https://www.businesslist.com.ng/company/149841/global-researchinformation-merchants-ltd","imageUrl":"https://www.businesslist.com.ng/img/ng/d/1374768954_36642.jpg","phone":"","website":"www.grim.com.ng"}]