[{"name":"Expert Paint Advice","address":"Ada George road, Port Harcourt, Port Harcourt, Rivers","state":"Rivers","description":"Contact us for your Paint Production Training. We offer training manuals, offline classes, online classes and factory set-up. Whatever your budget is, just talk to us today to know what suits you. Vis...","rating":"5.0","reviews":"1 Review","location":{"lat":"4.832542461327567","lng":"6.975160983104274"},"category":"Contractors","link":"https://www.businesslist.com.ng/company/261372/expert-paint-advice","imageUrl":"https://www.businesslist.com.ng/img/ng/h/1551940143-72-expert-paint-advice.jpg","phone":"+2347014593743","website":"www.expertpaintadvice.com"},{"name":"LIGHTHOUSE SURVEYS AND MAPPING CONSULTANTS","address":"317/319 ABA OWERRI ROAD ABA ABIA STATE., Aba, Abia","state":"Abia","description":"Lighthouse Surveys and Mapping Consultants is a professional legal survey firm located in the ancient city of Aba, Abia State, Nigeria. We engage in the following wide fields of duties: • Property s...","rating":"5.0","reviews":"3 Reviews","location":{"lat":"5.148191933272738","lng":"7.3310405015945435"},"category":"Contractors","link":"https://www.businesslist.com.ng/company/254290/lighthouse-surveys-and-mapping-consultants","imageUrl":"https://www.businesslist.com.ng/img/ng/h/1515745628-37-lighthouse-surveys-and-mapping-consultants.jpg","phone":"08037493777","website":"www.lighthousesurvey.com.ng"},{"name":"Gracias Global Property Ltd","address":"KM46,Lekki Epe Expressway, Corner Bus-stop Sangotedo, Lagos Island, Lagos","state":"Lagos","description":"Gracias Global Property Limited, is a real estate firm which specialises in Property management, Construction and sales. Gracias Global Property Estates are located at renowned areas and they are know...","rating":"4.0","reviews":"1 Review","location":{"lat":"6.470667","lng":"3.638532"},"category":"Contractors","link":"https://www.businesslist.com.ng/company/263637/gracias-global-property-ltd","imageUrl":"https://www.businesslist.com.ng/img/ng/m/1553969782-35-gracias-global-property-ltd.jpg","phone":"09062547002","website":"graciasglobalproperty.com/"},{"name":"KRYPTON WATER/ WASTEWATER MANAGEMENT LIMITED","address":"2B, LILY DRIVE MKO ABIOLA GARDEN ALAUSA IKEJA, Ikeja, Lagos","state":"Lagos","description":"The kryptonCOM range of modular compact treatment plants provides a scalable extended aeration solution for your wastewater needs. Combining a proven, robust yet economical process for the full biolog...","rating":"5.0","reviews":"1 Review","location":{"lat":"6.622747690418798","lng":"3.364734649658203"},"category":"Contractors","link":"https://www.businesslist.com.ng/company/252976/krypton-water-wastewater-management-limited","imageUrl":"https://www.businesslist.com.ng/img/ng/g/1501972972-29-krypton-water-wastewater-management-limited.jpg","phone":"09057276485","website":"www.krypton-ng.com"},{"name":"Constructserve Integrated Services Limited","address":"Top Notch Plaza, KM 23, Lekki Epe Expressway, Ajiwe, Ajah, Lagos., Lagos Island, Lagos","state":"Lagos","description":"Constructserve Integrated Services Limited is an integrated construction services contracting company that provides general and bespoke solution services to architects, engineers, construction compani...","rating":"","reviews":"","location":{"lat":"6.469131781671442","lng":"3.5829806327819824"},"category":"Contractors","link":"https://www.businesslist.com.ng/company/254982/constructserve-integrated-services-limited","imageUrl":"https://www.businesslist.com.ng/img/ng/l/1454715840-99-constructserve-integrated-services-limited.png","phone":"07038487843","website":"www.constructserve.com"},{"name":"GLOBALCLIQUE RESOURCES","address":"17, Jibowu Street, Yaba, Lagos, Lagos, Lagos","state":"Lagos","description":"We came around in 2012 based on the need to bring innovation to service delivery in Nigerian business environment - We started as a web based solution organization. In recent times, we expanded our op...","rating":"5.0","reviews":"1 Review","location":{"lat":"6.5192099400668555","lng":"3.369187116622925"},"category":"Contractors","link":"https://www.businesslist.com.ng/company/190592/globalclique-resources","imageUrl":"https://www.businesslist.com.ng/img/ng/b/1504517601-52-globalclique-resources.jpg","phone":"08052159437","website":"www.globalclique.net"},{"name":"CORAL EXECUTIVE AGENCY","address":"PLOT 2490 AGUIYI IRONSI STREET MAITAMA, Abuja, Abuja","state":"Abuja","description":"Coral Executive Agency is the foremost online Domestic / Office Support staffing Agency that is skilled in the professional placement of staff in the Homes/ Offices of our esteemed clients. We strongl...","rating":"5.0","reviews":"1 Review","location":{"lat":"9.084531888814222","lng":"7.483019828796387"},"category":"Contractors","link":"https://www.businesslist.com.ng/company/255951/coral-executive-agency","imageUrl":"https://www.businesslist.com.ng/img/ng/c/1496410439-36-coral-executive-agency.jpg","phone":"09092989894","website":"www.coralexecutiveagency.com"},{"name":"MRGL Rockwool Products Nigeria Limited","address":"Suite D19, International Building Materials by Guard Polo Club Maitama , Abuja, Abuja","state":"Abuja","description":"MY Rechush Acoustic is recognized as one of the leading manufacturing and installers of acoustic insulation and sound absorption materials for use within both domestic and commercial buildings and our...","rating":"5.0","reviews":"1 Review","location":{"lat":"9.073322988011617","lng":"7.396248904260574"},"category":"Contractors","link":"https://www.businesslist.com.ng/company/257793/mrgl-rockwool-products-nigeria-limited","imageUrl":"https://www.businesslist.com.ng/img/ng/f/1578693606-50-mrgl-rockwool-products-nigeria-limited.jpg","phone":"08060265041","website":"www.mrglacoustic.com"},{"name":"SKYNET BUILDING SYSTEMS LTD","address":"162 ONIRU ESTATE,VICTORIA ISLAND LAGOS, Victoria Island, Lagos","state":"Lagos","description":"SKYNET BUILDING SYSTEMS LTD IS ONE OF THE LEADING DESIGN-BUILDING GENERAL CONTRACTING FIRM,SPECIALIZING IN NEW CONSTRUCTION,REBUILDING AND MODERNIZATION OF INDUSTRIAL AND COMMERCIAL BUILDINGS. OUR COM...","rating":"5.0","reviews":"1 Review","location":{"lat":"6.436712732590729","lng":"3.450669471624792"},"category":"Contractors","link":"https://www.businesslist.com.ng/company/261895/skynet-building-systems-ltd","imageUrl":"https://www.businesslist.com.ng/img/ng/j/1535605386-91-skynet-building-systems-ltd.jpg","phone":"07053714526","website":"www.skynetbuildings.com"},{"name":"Hilma aquadesigns","address":"15b ikogosi drive Osborne forshore estate Ikoyi Lagos , Victoria Island, Lagos","state":"Lagos","description":"Hilma aquadesigns is a leading brand specialized in design of decorative indoor and outdoor water fountains, koi ponds, swimming pools and Fibre glass solutions for home and public usage, we provide s...","rating":"","reviews":"","location":{"lat":"6.436973200820563","lng":"3.4747816926310406"},"category":"Contractors","link":"https://www.businesslist.com.ng/company/265175/hilma-aquadesigns","imageUrl":"https://www.businesslist.com.ng/img/ng/l/1568894716-25-hilma-aquadesigns.jpg","phone":"07069549869","website":"www.aquarium.com.ng"},{"name":"PRIME PYTHAGORAS CONSTRUCTION & CO LIMITED","address":"14 Yimi road Zuba Abuja, Abuja, Abuja","state":"Abuja","description":"We are sport consultant based in ibadan, oyo state. We maintain, and construct ultra modern sport facilities such as TARTAN ATHLETIC TRACK, FOOTBALL PITCH, BASKETBALL COURT,TENNIS COURT, TENNIS COURT,...","rating":"5.0","reviews":"1 Review","location":{"lat":"9.11120133861046","lng":"7.359238373919492"},"category":"Contractors","link":"https://www.businesslist.com.ng/company/262477/prime-pythagoras-constructionco-limited","imageUrl":"https://www.businesslist.com.ng/img/ng/b/1540968363-94-prime-pythagoras-construction-co-limited.jpg","phone":"09024156162","website":"www.primepythagoras.com.ng"},{"name":"Akin Asphalt Paving LLC","address":"Ojodu-Berger, Lagos, Nigeria, Lagos, Lagos","state":"Lagos","description":"At AKIN ASPHALT® We do Driveway/Runway/Car Park renovations. We repair and rehabilitate bad sections of an asphalt concrete road using Hot Mix Asphalt (HMA). We Supply Various Construction Aggregates...","rating":"5.0","reviews":"1 Review","location":{"lat":"6.5840177520999426","lng":"3.3583831787109375"},"category":"Contractors","link":"https://www.businesslist.com.ng/company/259795/akin-asphalt-paving-llc","imageUrl":"https://www.businesslist.com.ng/img/ng/x/1515543415-74-akin-asphalt-paving.jpg","phone":"‭0903 249 3901‬","website":"www.fb.com/akin.asphalt"},{"name":"PEZE PRODUCTS LIMITED","address":"Plot 1 Lake Marlinda Drive Achi Mbieri, Mbaitoli LGA, Owerri, Imo","state":"Imo","description":"PEZE PRODUCTS LIMITED is an Engineering, Manufacturing and Construction company that has been in operations since 2002 when it was incorporated as a limited liability entity under the laws of the Fede...","rating":"5.0","reviews":"1 Review","location":{},"category":"Contractors","link":"https://www.businesslist.com.ng/company/267494/peze-products-limited","imageUrl":"https://www.businesslist.com.ng/img/ng/a/1588013153-16-peze-products-limited.jpg","phone":"07066349090","website":"www.pezeproductsltd.com"},{"name":"J-NEAK GLOBAL SERVICES","address":"St Silas Street port harcourt, Port Harcourt, Rivers","state":"Rivers","description":"Thank you for contacting us the J.G.S !???????? J-NEAK GLOBAL SERVICES is a registered company RC:2884280. which offers General construction services and Contracts. Project management and Development....","rating":"5.0","reviews":"1 Review","location":{"lat":"4.653561902587565","lng":"7.272215825983153"},"category":"Contractors","link":"https://www.businesslist.com.ng/company/265949/j-neak-global-services","imageUrl":"https://www.businesslist.com.ng/img/ng/d/1575322442-29-j-neak-global-services.jpg","phone":"+2348163924304","website":"www.jneakglobalservives.com"},{"name":"PAO PLANT HIRING SERVICES","address":"Area 3, Garki Abuja , Abuja, Abuja","state":"Abuja","description":"We specialize on heavy duty machineries and civil works such as crane, forklift, grader, bulldozer, payloader, excavators and tower-vans for your construction work, maintenance and logistics of genera...","rating":"5.0","reviews":"1 Review","location":{"lat":"6.5105781890347005","lng":"3.345980644226074"},"category":"Contractors","link":"https://www.businesslist.com.ng/company/257821/pao-plant-hiring-services","imageUrl":"https://www.businesslist.com.ng/img/ng/h/1592293541-97-pao-plant-hiring-services.jpg","phone":"07034911085","website":"m.facebook.com/paoplanthireservice/"},{"name":"Conifer Konstruktion (Nig) Ltd","address":"3 Conifer Konstruktion Avenue off Isu Aniocha Rd, Isu Aniocha, Awka, Anambra","state":"Anambra","description":"We are an engineering and project management company dedicated to helping our highly valued clients achieve their building and other construction objectives. Our main objectives focus on our clients' ...","rating":"","reviews":"","location":{"lat":"6.258330201426327","lng":"7.046389175921604"},"category":"Contractors","link":"https://www.businesslist.com.ng/company/255476/conifer-konstruktion-nig-ltd","imageUrl":"https://www.businesslist.com.ng/img/ng/d/1563163875-62-conifer-konstruktion-nig-ltd.jpg","phone":"+2348034040894","website":"www.coniferkonstruktion.com.ng"},{"name":"Asom Architects","address":"Afuze - Auchi Road Opposite Michael Imoudu College Of Physical Education Owan East Local Government Area , Benin City, Edo","state":"Edo","description":"Asom Architects comprises of a group of well experienced,and trained architects who are professionals in the field of architectural designs and construction. Over the years we have excuted quiet a num...","rating":"","reviews":"","location":{"lat":"6.334955322117927","lng":"5.603698949725185"},"category":"Contractors","link":"https://www.businesslist.com.ng/company/263638/asom-architects","imageUrl":"https://www.businesslist.com.ng/img/ng/s/1553990417-84-asom-architects.jpg","phone":"08144181499","website":"asomarchitects.business.site/"},{"name":"EM’OMAS GLOBAL SERVICES LTD","address":"Plot 1, Flat 6, 3rd Avenue, Close 3, Elekahia, Port Harcourt, Rivers State., Port Harcourt, Rivers","state":"Rivers","description":"Is an equipment, procurement & engineering company based in Port Harcourt that is registered with the Corporate Affairs Commission (CAC) of Nigeria. Em’Omas Global Services Limited was established d...","rating":"5.0","reviews":"1 Review","location":{"lat":"4.8203191","lng":"7.0246586"},"category":"Contractors","link":"https://www.businesslist.com.ng/company/260065/emomas-global-services-ltd","imageUrl":"https://www.businesslist.com.ng/img/ng/z/1518341472-33-em-omas-global-services-ltd.png","phone":"08152363817","website":"emomas.com"},{"name":"Umbrella Designs Limited","address":"321 Road G close Shopping complex, Bungalow 1, Lagos Island, Lagos","state":"Lagos","description":"Umbrella Designs is a firm with a group of architects, designers, builders, and thinkers operating within the fields of architecture, Real estate, urbanism, interior design, landscape design, product ...","rating":"","reviews":"","location":{"lat":"6.465778932702014","lng":"3.28803370912226"},"category":"Contractors","link":"https://www.businesslist.com.ng/company/258886/umbrella-designs-limited","imageUrl":"https://www.businesslist.com.ng/img/ng/x/1567094928-55-umbrella-designs-limited.jpg","phone":"08027183554","website":"www.umbrelladesignsltd.com"},{"name":"Chazze Building Nigeria Limited","address":"12 E Admiralty way lekki lagos, Lagos Island, Lagos","state":"Lagos","description":"Chazze is a renowned name in real estate circles, was established in 2010 offering you comprehensive real estate solutions in Nigeria","rating":"5.0","reviews":"1 Review","location":{"lat":"6.4451953585941455","lng":"3.4626332705078084"},"category":"Contractors","link":"https://www.businesslist.com.ng/company/258009/chazzebuilding-nigeria-limited","imageUrl":"https://www.businesslist.com.ng/img/ng/c/1494624625-83-chazzebuilding-nigeria-limited.jpg","phone":"+2347061647638","website":"www.chazzeproperty.com"},{"name":"Raincache Ltd","address":"Shoderu Junction, Odo-ona Elewe Road, Oluyole, Ibadan, Ibadan, Oyo","state":"Oyo","description":"Raincache Ltd, cover all rainwater systems- Rain Gutters, Rainwater Harvesting and Drainage. We are dedicated to outstanding quality services and customer satisfaction and we are proud to say that our...","rating":"5.0","reviews":"2 Reviews","location":{"lat":"7.3377815237627075","lng":"3.862054974662783"},"category":"Contractors","link":"https://www.businesslist.com.ng/company/259602/raincache-ltd","imageUrl":"https://www.businesslist.com.ng/img/ng/x/1512905210-39-raincache-ltd.jpg","phone":"08158942188","website":"www.raincache.ng"},{"name":"Dpros Global Resources Ltd","address":"Suite B6b, 24Road Plaza, 24 Road, Festac Town, Lagos, Lagos, Lagos","state":"Lagos","description":"ENGINEERING & TECHNICAL SUPPORT SERVICES, PROJECT MANAGEMENT AND TRAINING FACILITATORS","rating":"5.0","reviews":"1 Review","location":{"lat":"6.4703865235604106","lng":"3.2730594277381897"},"category":"Contractors","link":"https://www.businesslist.com.ng/company/196480/dpros-global-resources-ltd","imageUrl":"https://www.businesslist.com.ng/img/ng/b/1380471172_44507.jpg","phone":"+2348037916993","website":"www.dgr.com.ng"},{"name":"BEFIT PROPERTIES COMPANY","address":"57, Old-Otta Road,Alagbado, Lagos, Lagos, Lagos","state":"Lagos","description":"we at BEFIT PROPERTIES are created for your convenience because your convenience is our concern. We specialized in the supply of logs, and production of boards, strips, wood planks for construction an...","rating":"","reviews":"","location":{"lat":"6.676692981188311","lng":"3.2642460326416085"},"category":"Contractors","link":"https://www.businesslist.com.ng/company/259882/befit-properties","imageUrl":"https://www.businesslist.com.ng/img/ng/g/1516452446-51-befit-properties.jpg","phone":"+23459374765","website":"www.befitproperties.com"},{"name":"HUNC-VEN LTD","address":"12 Yinka Bello Street, Ogombo road, lekki epe expressway, Lagos Island, Lagos","state":"Lagos","description":"We are a well established, Nigeria company. Our expertise lies in Building and Construction, infrastructure development & Property Consulting. Our services also extend to importation, fabrication and ...","rating":"5.0","reviews":"1 Review","location":{"lat":"6.452555035317827","lng":"3.4226457518371944"},"category":"Contractors","link":"https://www.businesslist.com.ng/company/190969/hunc-ven-ltd","imageUrl":"https://www.businesslist.com.ng/img/ng/g/1481031696-48-hunc-ven-ltd.jpg","phone":"08038778499","website":"www.huncven.com"},{"name":"BuildDirect Africa","address":"Warehouse 1, Frank Okafor Close, by Majek Bus Stop Abijo, Lekki Express Way, Lagos., Lagos Island, Lagos","state":"Lagos","description":"BuildDirect Africa is Africa's first and only manufacturer of Laser Cut and Cnc routed building additions for both residential and commercial building projects. At BuildDirect Africa, we design, laser...","rating":"4.5","reviews":"2 Reviews","location":{"lat":"6.469767863478332","lng":"3.6582731484168107"},"category":"Contractors","link":"https://www.businesslist.com.ng/company/260332/builddirect-africa","imageUrl":"https://www.businesslist.com.ng/img/ng/n/1521194536-38-builddirect-africa.png","phone":"0811-888-8897","website":"www.builddirectafrica.com"},{"name":"Qingdao Havit Steel Structure Co.,ltd-Steel Workshop,Steel Warehouse,Prefabricated Steel Buildings","address":"No.58 Huanghe road, Abeokuta, Lagos","state":"Lagos","description":"Qingdao Havit Steel Structure Co.,Ltd.has been specializing in designing and manufacturing Steel Structure Buildings, Steel Structure Workshop, Steel Structure Warehouse , Container houses, Prefabrica...","rating":"","reviews":"","location":{"lat":"35.9216329","lng":"120.01605960000006"},"category":"Contractors","link":"https://www.businesslist.com.ng/company/190484/qingdao-havit-steel-structure-coltd","imageUrl":"https://www.businesslist.com.ng/img/ng/m/1365774022_75301.jpg","phone":"8615205426602","website":"www.steelbuildingschina.com"},{"name":"BAM Design Consults","address":"15 Ekere Street, Rumuobiakani, off Aba Road by Bridge Bus-Stop , Port Harcourt, Rivers","state":"Rivers","description":"We are BAM Design Consults Limited, one of Africa’s fast rising architectural firms. We were founded in 2009, fully registered with the Corporate Affairs Commission of Nigeria with Registration Numb...","rating":"","reviews":"","location":{"lat":"4.83808448816798","lng":"7.03119769692421"},"category":"Contractors","link":"https://www.businesslist.com.ng/company/259313/bam-design-consults","imageUrl":"https://www.businesslist.com.ng/img/ng/b/1513345814-38-bam-design-consults.jpg","phone":"+2348129832179","website":"design.bamfirm.com/"},{"name":"Toptek Ideal Structures Ltd","address":"Suite 203E, City Hall, Lagos Island, Lagos, Lagos","state":"Lagos","description":"Toptek Ideal Structures Ltd is an indigenous firm that boasts of expertise in Architecture services, Construction and Project Management services. Our years of delivering robust services to clients ra...","rating":"5.0","reviews":"1 Review","location":{"lat":"6.596615439288476","lng":"3.3964920043945312"},"category":"Contractors","link":"https://www.businesslist.com.ng/company/257321/toptek-ideal-structures-ltd","imageUrl":"https://www.businesslist.com.ng/img/ng/r/1505071604-55-toptek-ideal-structures-ltd.png","phone":"0802899358208094722867","website":"www.toptekstructures.com"},{"name":"KLIRVIEW INTEGRATED SERVICES","address":"First floor Ance building ,Jericho area ibadan, Ibadan, Oyo","state":"Oyo","description":"Klirview integrated Nigeria Limited is an Architectural,Building Construction firm,Renovation of Existing Building ,specializing in residential and commercial developments. We provide unique design bu...","rating":"5.0","reviews":"1 Review","location":{"lat":"6.531928373004707","lng":"3.4505817536091854"},"category":"Contractors","link":"https://www.businesslist.com.ng/company/259637/klirview-integrated-services","imageUrl":"https://www.businesslist.com.ng/img/ng/j/1581840772-85-klirview-integrated-services.jpg","phone":"0813664401608164426383","website":"www.infratechcivil.com/ref/klirview"},{"name":"DONSONS CONSTRUCTIONS","address":"Plot 10 Jawe Layout, Agbeola Oro. Kwara State..................................No 5 kabiru Olorunfemi Street, igando bus stop. Igando. Lagos State. , Ilorin, Kwara","state":"Kwara","description":"DONSONS CONSTRUCTIONS is a registered Business name which is set to undertake both small and massive construction projects. We have delivered on a number of projects. Our clients are government, publi...","rating":"5.0","reviews":"5 Reviews","location":{},"category":"Contractors","link":"https://www.businesslist.com.ng/company/258703/donsons-constructiins","imageUrl":"https://www.businesslist.com.ng/img/ng/d/1502243383-47-donsons-constructiins.jpg","phone":"+2347032250196","website":"www.donsonsc.com"}]