[{"name":"Webeautifyhome","address":"No,13 lanre adeyemi street by progressive estate ojodu Abiodun lagos state, Ikeja, Lagos","state":"Lagos","description":"Webeautifyhome is a interior and exterior home design company we work hard to provide to nigeria best quality home design,with also high semi wall quality paint services we provide,wallpaper,wall scre...","rating":"","reviews":"","location":{},"category":"Contractors","link":"https://www.businesslist.com.ng/company/253885/webeautifyhome","imageUrl":"https://www.businesslist.com.ng/img/ng/m/1440346213-26-webeautifyhome.jpg","phone":"08058871534","website":"www.webeautifyhome.com"},{"name":"kae Electricity","address":"67 Salami Street, Mafoluku Oshodi Lagos, Oshodi, Lagos","state":"Lagos","description":"Kae Electricity is an indigenous company with over 40 years of services in Nigeria. It had evolved from basic repair and installation of electrical accessories to sales of electrical accessories and p...","rating":"","reviews":"","location":{"lat":"9.149112891673647","lng":"8.672847747802734"},"category":"Contractors","link":"https://www.businesslist.com.ng/company/252825/kae-electricity","imageUrl":"https://www.businesslist.com.ng/img/ng/m/1405270415_90679.jpg","phone":"","website":"www.kaeelectricity.com"},{"name":"Donlam Services","address":"Donlam close, New Layout Ugbolu Town, Along Ugbolu - Akwukwu igbo road, Oshimili North L.G.A.,, Asaba, Delta","state":"Delta","description":"Architecture, Building, Construction/Civil, Engineering, Quality Assurance/Quality Control and Supervision of Project works.","rating":"","reviews":"","location":{"lat":"6.310723778208194","lng":"6.688849925994873"},"category":"Contractors","link":"https://www.businesslist.com.ng/company/258487/donlam-services","imageUrl":"https://www.businesslist.com.ng/img/ng/z/1500025873-92-donlam-services.jpg","phone":"08053421642","website":""},{"name":"Erimama Investment Company Limited","address":"3 Marian Orisan close, Bashorun bus stop, Igbogbo, Ikorodu, Lagos Nigeria, Ikorodu, Lagos","state":"Lagos","description":"Nigeria portable cabins company. Offers quality low cost portacabins, mobile homes, and metal containers. Experts in affordable prefab and steel buildings.","rating":"","reviews":"","location":{"lat":"6.6","lng":"3.5"},"category":"Contractors","link":"https://www.businesslist.com.ng/company/215914/erimama-investment-company-limited","phone":"0708645936708033290430","website":"www.nigeriaportablecabins.com"},{"name":"Durabuild Industries Ltd","address":"Km1, Oba-Nnewi Old Road, Nnewi, Anambra","state":"Anambra","description":"Manufacture/Distributing of home finishing products like:decorative concrete products like 1.color hardeners,powder release & Acrylic sealants. 2.Stone/Brick cladding like bricks,castle stone,lime sto...","rating":"","reviews":"","location":{"lat":"6.0860101993996745","lng":"6.819682717323303"},"category":"Contractors","link":"https://www.businesslist.com.ng/company/256548/durabuild-industries-ltd","phone":"08030550283","website":"www.durabuild.com.ng"},{"name":"Sherman Gray Limited","address":"3rd Floor, Vicon House, No 80 Stadium Road, Port Harcourt, Port Harcourt, Rivers","state":"Rivers","description":"Sherman Gray Limited is an EPC (Engineering, Procurement and Construction) Company incorporated on January 4, 2007. The core objective of our organisation is to provide professional services in the fi...","rating":"","reviews":"","location":{"lat":"4.828526659653151","lng":"7.015261530177668"},"category":"Contractors","link":"https://www.businesslist.com.ng/company/256565/sherman-gray-limited","phone":"08164263251","website":"www.shermangray.org"},{"name":"Artizanni Business Services Limited","address":"No 30 Anthony Enahoro Street, Utako, Abuja, Abuja, Abuja","state":"Abuja","description":"Artizanni Business Services Limited is a company fully registered in Nigeria with the Corporate affairs Commission of Nigeria and indemnified by Mansard Insurance Plc. We have been in the construction...","rating":"","reviews":"","location":{"lat":"9.07366201472388","lng":"7.4422502517700195"},"category":"Contractors","link":"https://www.businesslist.com.ng/company/253918/artizanni-business-services-limited","phone":"08039204361","website":"www.artizanniltd.com"},{"name":"Wittone Nigeria Limited","address":"6 Alafara-Oje Crescent, Alamutu Estate, Iju, Ifako-Ijaye, , Ifako-Ijaye, Lagos, Lagos","state":"Lagos","description":"Wittone is a private limited liablity company offering clients and business partners; Software & Manpower Development, Hardware & Networking solutions for corporate and commercial use and to attract c...","rating":"","reviews":"","location":{"lat":"6.524358862490689","lng":"3.3787798757889504"},"category":"Contractors","link":"https://www.businesslist.com.ng/company/116219/wittone-nigeria-limited","phone":"07033389363","website":"www.wittone.com.ng"},{"name":"Femak Associates","address":"Femak House The Rock, Plot 75, Cascurina Close, Bayelsa Court, Gaduwa Estate Abuja., Abuja, Abuja","state":"Abuja","description":"","rating":"","reviews":"","location":{"lat":"8.999561896668165","lng":"7.466762959957123"},"category":"Contractors","link":"https://www.businesslist.com.ng/company/116181/femak-associates","phone":"08056874946","website":"www.femak-ng.com"},{"name":"Agbojo Building Contracting Company","address":"Lagos Express Way, Ibadan., Oluyole, Ibadan, Oyo","state":"Oyo","description":"Awiye venturez (formally known as agbojo building constructions is a company that have gone long lenght in building and general construction. We are situated in ibadan and works nationwide.","rating":"","reviews":"","location":{"lat":"7.38213","lng":"3.86966"},"category":"Contractors","link":"https://www.businesslist.com.ng/company/203381/agbojo-building-contracting-company","phone":"+2348117884828","website":"Awiye_venturez.realtorsng.com"},{"name":"Integral Landscaping Limited","address":"No 16 fatai Animasaun str, Magodo GRA phase II., Ikeja, Lagos","state":"Lagos","description":"Integral landscaping limited is a “Design & Build firm” and an indigenous landscaping Company incorporated in Nigeria with a clear vision and mandate to design, develop and Maintain Nigeria’s mo...","rating":"","reviews":"","location":{},"category":"Contractors","link":"https://www.businesslist.com.ng/company/254202/integral-landscaping-limited","imageUrl":"https://www.businesslist.com.ng/img/ng/l/1435482814-81-integral-landscaping-limited.jpg","phone":"0705515445808033294115","website":"www.integrallandscape.com"},{"name":"Brentford Services And Global Logistics Limited","address":"plot 1204 mamou close, off kolda street, off ademola adetokunbo crescent, wuse 2 Abuja, Abuja, Abuja","state":"Abuja","description":"Brentford Services And Global Logistics Limited is an innovative full service & logistics firm that delivers cutting edge solutions and support; that aligns with our client's strategic objectives, pro...","rating":"","reviews":"","location":{"lat":"9.070865034120832","lng":"7.413754463195801"},"category":"Contractors","link":"https://www.businesslist.com.ng/company/255368/brentford-services-and-global-logistics-limited","phone":"0806268839208026055749","website":"www.brentfordsl.com"},{"name":"AUDAX ASSOCIATES LIMITED","address":"Ketu, Lagos , Lagos, Lagos","state":"Lagos","description":"Audax Associates Limited (Rc. 1531747) is a company duly registered with the Corporate Affairs Commission on 15th October 2018 of the Federal Republic of Nigeria and primarily engaged in Cost Consulta...","rating":"","reviews":"","location":{"lat":"6.58932885846074","lng":"3.391960279520731"},"category":"Contractors","link":"https://www.businesslist.com.ng/company/265264/audax-associates-limited","phone":"08083755153","website":""},{"name":"MAZTEC ENGINEERING SERVICES","address":"85 Ada George Road, Rumueme (Opposite Royal Dynasty Filling Station), Port Harcourt, Rivers","state":"Rivers","description":"Since 2007, with many projects in Rivers, Enugu and Abuja, we have been strongly committed to providing our customers with the highest level of service in construction, hiring of skilled artisan worke...","rating":"","reviews":"","location":{"lat":"4.817029351488519","lng":"6.978368694171081"},"category":"Contractors","link":"https://www.businesslist.com.ng/company/267737/maztec-engineering-services","imageUrl":"https://www.businesslist.com.ng/img/ng/m/1590937063-29-maztec-engineering-services.jpg","phone":"08109737860","website":""},{"name":"D-LUX CONSTRUCTION SERVICES LTD","address":"D-LUX Building,plot 11,Odewabi Street off lagos ibadan express way, Alagbado, Lagos","state":"Lagos","description":"We are building and civil engineering contractor, our services are provided with excellent in giving the assurance of an impeccable job satisfaction. Our company has already built many modern and top ...","rating":"","reviews":"","location":{"lat":"6.704990923744057","lng":"3.369230031967163"},"category":"Contractors","link":"https://www.businesslist.com.ng/company/254114/d-lux-construction-services-ltd","phone":"08052139838","website":"www.deluxeconstructionservices.com"},{"name":"The lords sanctuary bible church international","address":"NO 136 ORODU STREET OFF ASAHAKPO ROAD APAPA AJEGUNLE, Lagos, Lagos","state":"Lagos","description":"Starways Galaxy International Updates Services Testimonials About us Gallery Contact Starways Galaxy International Property Home Repairs Construction& General contracts Services Open today until 3:30 ...","rating":"","reviews":"","location":{},"category":"Contractors","link":"https://www.businesslist.com.ng/company/265856/the-lords-sanctuary-bible-church-international","imageUrl":"https://www.businesslist.com.ng/img/ng/l/1574511621-33-the-lords-sanctuary-bible-church-international.png","phone":"08175544519","website":"www.starways-galaxy-international.business.site"},{"name":"Landmark Corporate Realty Limited","address":"47A, Abba Johnson crescent, Akora Villa estate. Off Adeniyi Jones, Ikeja, Lagos","state":"Lagos","description":"LANDMARK CORPORATE REALTY LIMITED Nigeria's No 1 Real Estate Company, based in Nigeria. The Largest Real Estate Investment Firm in Nigeria. One of top real estate companies in Nigeria. Real estate inv...","rating":"","reviews":"","location":{"lat":"6.610952908829169","lng":"3.347621236809573"},"category":"Contractors","link":"https://www.businesslist.com.ng/company/255044/landmark-corporate-realty-limited","phone":"08170082610","website":"www.lcrng.com"},{"name":"Leudrill Geoservices Limited","address":"135 Okporo Road Rumuodara, Port Harcourt, Rivers","state":"Rivers","description":"Leudrill Geoservices Limited provides Environmental Services, procurement and equipment supplies with specialist experienced in the provision of technical services in Water borehole services, Environm...","rating":"","reviews":"","location":{},"category":"Contractors","link":"https://www.businesslist.com.ng/company/252879/leudrill-geoservices-limited","imageUrl":"https://www.businesslist.com.ng/img/ng/n/1553002018-85-leudrill-geoservices-limited.jpg","phone":"07081244232","website":"www.leudrillgeoservices.com"},{"name":"kingkreative koncept","address":"5, alh. afoke street, off 31 rd, egbeda, lagos, Ikeja, Lagos","state":"Lagos","description":"Kingkreative koncept is one of the leading company committee to providing it client with top quality stainless steel, aluminum and wood design services. Our primary goal is to provide inexpensive and ...","rating":"","reviews":"","location":{"lat":"6.603117724014311","lng":"3.3564090728759766"},"category":"Contractors","link":"https://www.businesslist.com.ng/company/190391/kingkreative-koncept","imageUrl":"https://www.businesslist.com.ng/img/ng/g/1413903193-kingkreative-koncept.jpg","phone":"2348053051235","website":""},{"name":"Amitech Interglobal Engineering Limited","address":"2nd Floor, Ajani Plaza, Area 3, Abuja Municipal, Abuja","state":"","description":"","rating":"","reviews":"","location":{"lat":"9.026681170435154","lng":"7.4770331382751465"},"category":"Contractors","link":"https://www.businesslist.com.ng/company/208463/amitech-interglobal-engineering-limited","phone":"08034534513","website":"amitechengineering.com.ng"},{"name":"CDCL Innovations Limited","address":"Lagos, Oshodi, Lagos","state":"Lagos","description":"CDCL Innovations Limited is a Contracting Building Services Company which deals with Procurement, Installation and Maintenance of Plumbing Systems, Electrical Systems, Ventilation and Air-Conditioning...","rating":"","reviews":"","location":{"lat":"6.5124833222393335","lng":"3.243593212207088"},"category":"Contractors","link":"https://www.businesslist.com.ng/company/261995/cdcl-innovations-limited","phone":"08000000000","website":""},{"name":"Trinity Engineering Work","address":"Amuda Oojere area, Iwo road, Ibadan, Oyo","state":"Oyo","description":"At Trinity, we specialise in bulldozer, Tractor, excavator, Payloader, crane leasing/hiring/sales. We also provide consultancy services on agricultural machinery (mechanized farming). We are expert in...","rating":"","reviews":"","location":{"lat":"7.381518847422634","lng":"3.960577268334987"},"category":"Contractors","link":"https://www.businesslist.com.ng/company/265788/trinity-engineering-work","imageUrl":"https://www.businesslist.com.ng/img/ng/h/1573955006-54-trinity-engineering-work.jpg","phone":"08033274444","website":""},{"name":"IFYNICKY BUILDING CONTRACTORS","address":"3, Komolafe close, Jankata, Apata, Ibadan, Oyo","state":"Oyo","description":"We are a reputable building construction firm that is based in Ibadan and fully registered in Nigeria. However, we also execute building Projects anywhere in Nigeria. OUR SERVICES New Building Constru...","rating":"","reviews":"","location":{"lat":"7.303194573499974","lng":"3.972930908203125"},"category":"Contractors","link":"https://www.businesslist.com.ng/company/258166/ifynicky-building-contractors","imageUrl":"https://www.businesslist.com.ng/img/ng/a/1496386328-63-ifynicky-building-contractors.jpg","phone":"+2347060636885","website":""},{"name":"Faceng Services Limited","address":"8 Desalu street, off Olaleye Street, Apapa, Lagos","state":"Lagos","description":"At FACENG SERVICES LIMITED, we provide Geotechnical/Civil Construction, project management and Facilities Management. Our services support the highest standards of performance and reliability demanded...","rating":"","reviews":"","location":{"lat":"6.518878999999996","lng":"3.4986821596679647"},"category":"Contractors","link":"https://www.businesslist.com.ng/company/264563/faceng-services-limited","phone":"0809220076209087837758","website":"www.facengservices.com"},{"name":"Tent Marquee Nigeria","address":"KM 2, Badagry Express Way Opposite, Iganmu Secondary School Alafia, Lagos State Nigeria., Lagos, Lagos","state":"Lagos","description":"We are a well established, Nigeria wide company. Our expertise lies in the importation, fabrication, installation and maintenance of shade structures, relaxation structures and swimming pools. These s...","rating":"","reviews":"","location":{},"category":"Contractors","link":"https://www.businesslist.com.ng/company/261529/tent-marquee-nigeria","imageUrl":"https://www.businesslist.com.ng/img/ng/g/1532235850-40-tent-marquee-nigeria.png","phone":"08136366674","website":"tentmarqueeng.com/"},{"name":"Nice Work","address":"#34 Okporo Road, Eze Wali Plaza, Opp. Agip Estate, Port Harcourt, Rivers","state":"Rivers","description":"Nice Work is a directory of all genuine workmen in Nigeria featuring their various fields of expertise, experiences and past projects. Nice Work was born out of the necessity to connect trusted expert...","rating":"","reviews":"","location":{},"category":"Contractors","link":"https://www.businesslist.com.ng/company/263719/nice-work","imageUrl":"https://www.businesslist.com.ng/img/ng/e/1555305714-70-nice-work.jpg","phone":"0815 822 3795","website":"www.nicework.com.ng"}]