[{"name":"Unique Instruments & Science Co. Ltd","address":"2A Modupe Street, Fola-Agoro, Somolu Lagos, Lagos, Lagos","state":"Lagos","description":"A company since established and registration in 1992 provides services including construction of Laboratories, training and consultancy, procurement, maintenance and repair of Life Sciences and Lab Pr...","rating":"","reviews":"","location":{},"category":"Doctors","link":"https://www.businesslist.com.ng/company/162739/unique-instrumentsscience-co-ltd","imageUrl":"https://www.businesslist.com.ng/img/ng/f/1560534755_47762.png","phone":"01-8183395","website":"www.uniqueinstrumentsng.com"},{"name":"City Clinics Enugu ","address":"#10 Enweani street, (opp New Haven Junction/By Abakaliki Expressway) City layout, New Haven, Enugu. (formely @ 5, Byron Onyema Close, New Haven, Enugu, Enugu, Enugu","state":"Enugu","description":"Hospital... Majors in Surgical procedure and special interest in Orthopaedics.","rating":"","reviews":"","location":{"lat":"6.4623532045240895","lng":"7.535294883514553"},"category":"Doctors","link":"https://www.businesslist.com.ng/company/162847/city-hospital","imageUrl":"https://www.businesslist.com.ng/img/ng/h/1519391076_61726.jpg","phone":"08037737315","website":""},{"name":"CASTLEMILL PODIATRY SERVICES","address":"C/ O MEDILAM MEDICAL CENTRE BEHIND KHALF CIVIC PETROL STATION, ALONG BYAZHIN ROAD KUBWA , Abuja, Abuja","state":"Abuja","description":"CASTLEMILL PODIATRY SERVICES ABUJA NIGERIA PODIATRY/CHIROPODY SERVICES About Us Castlemill Podiatry Services (CPS) is proud to announce the opening of its new chiropody/podiatry clinic at Kubwa Abuja....","rating":"","reviews":"","location":{"lat":"6.591904666481677","lng":"3.3517956733703613"},"category":"Doctors","link":"https://www.businesslist.com.ng/company/258102/CASTLEMILL-PODIATRY-SERVICES","phone":"08103343729","website":""},{"name":"ONEVISION EYE CLINIC","address":"Opposite Kaslab building, Oladoyinbo Street, Felele, Ibadan, Oyo","state":"Oyo","description":"OneVision Eye Clinic facilitate patient access to care by subsidizing costs to reduce and eliminate the burden on the patients. At OneVision Eye Clinic, we're committed to deliver the highest quality ...","rating":"","reviews":"","location":{"lat":"7.339835812227178","lng":"3.8898430987016708"},"category":"Doctors","link":"https://www.businesslist.com.ng/company/266748/onevision-eye-clinic","imageUrl":"https://www.businesslist.com.ng/img/ng/f/1582270659-91-onevision-eye-clinic.jpg","phone":"07065184704","website":""},{"name":"Lamzy-B Dental Clinic","address":"Suite 17, Land force plaza, beside redeemed church, power line bus stop, Dutse BwarI expressway , Abuja, Abuja","state":"Abuja","description":"A modern Dental clinic that offers a wide range of affordable dental services. -Preventive, restorative and cosmetic dental surgeries -Flexible timing -Clean and serene environment -Experienced and fr...","rating":"","reviews":"","location":{"lat":"9.147421490204156","lng":"7.372320368885994"},"category":"Doctors","link":"https://www.businesslist.com.ng/company/257910/lamzy-b-dental-clinic","imageUrl":"https://www.businesslist.com.ng/img/ng/f/1493409682-70-lamzy-b-dental-clinic.png","phone":"08033203066","website":""},{"name":"HADEJIA CITY MEDICARE","address":"GAWUNA HOSPITAL ROAD, HADEJIA LGA, Hadejia, Jigawa","state":"Jigawa","description":"HADEJIA city medicare provide genuine products to satisfy the need of there customers, and also provide medical assistant to the underserved people in order to maintain their maximum Health status","rating":"","reviews":"","location":{},"category":"Doctors","link":"https://www.businesslist.com.ng/company/266862/hadejia-city-medicare","imageUrl":"https://www.businesslist.com.ng/img/ng/h/1582923349-65-hadejia-city-medicare.jpg","phone":"08032766580","website":"hadejiacitymedicare.business.site"},{"name":"Biosensors Medical Diagnostics Limited","address":"Flat 5, #42 (b) Adetokunbo Ademola Crescent, Wuse Ii, FCT, Abuja, Abuja","state":"Abuja","description":"","rating":"","reviews":"","location":{"lat":"9.070250543825862","lng":"7.481710910797119"},"category":"Doctors","link":"https://www.businesslist.com.ng/company/157051/biosensors-medical-diag","phone":"0803307771407058893766","website":"www.biosensorsng.com"},{"name":"Netwealth Consult Ltd","address":"Opposite Mining Quarters (Before Mining Gate), State Low Cost, Rantya, Jos Plateau, Jos, Plateau","state":"Plateau","description":"Netwealth Consult Ltd specializes in the provision of technical and expert advice and counsel, training, technical and creative services for individuals, families, professionals and organizations to e...","rating":"","reviews":"","location":{},"category":"Doctors","link":"https://www.businesslist.com.ng/company/155090/netwealth-consult-ltd","imageUrl":"https://www.businesslist.com.ng/img/ng/n/1451315807_76010.jpg","phone":"0803677009208107717419","website":"www.netwealthconsult.com"},{"name":"C-nigh Physiotherapy Services","address":"42 Ayegbami Street, Off Aiyepe Road, Sagamu, Ogun State., Shagamu, Ogun","state":"Ogun","description":"We offer the following services: Medical Rehabilitation in Orthopaedics, Cardiology, Neurology. Specialization; Spine (Muscle imbalance conditions, Pain, Degenerative conditions), Knee ( Deformities, ...","rating":"","reviews":"","location":{},"category":"Doctors","link":"https://www.businesslist.com.ng/company/264629/c-nigh-physiotherapy-services","phone":"08037740682","website":"www.empirephysioservices.com"},{"name":"Bliss Hospital","address":"127 Akarigbo Street, Ijoku, Shagamu, Ogun","state":"Ogun","description":"Bliss Hospital is a specialist hospital located in Sagamu, Nigeria. We provide expert surgical services in a friendly environment at a cost that is fair to both parties. We are especially dedicated to...","rating":"","reviews":"","location":{"lat":"6.84247","lng":"3.644959999999969"},"category":"Doctors","link":"https://www.businesslist.com.ng/company/149780/bliss-hospital","phone":"08034037973","website":""},{"name":"Back to Eden","address":"Awoyaya km 40 lekki/Epe Expressway ibeju-lekki, Lagos, Lagos","state":"Lagos","description":"Back to Eden is a company aimed at providing the most efficient herbal products to prevent and treat diseases such as diabetes and hypertension whilst creating business opportunities that help people ...","rating":"","reviews":"","location":{},"category":"Doctors","link":"https://www.businesslist.com.ng/company/264695/back-to-eden","imageUrl":"https://www.businesslist.com.ng/img/ng/r/1565043682-83-back-to-eden.jpg","phone":"08034017191","website":""},{"name":"EWomen Specialist Clinic","address":"Igboefon, Lekki, Lagos, Lagos, Lagos","state":"Lagos","description":"Ewomen Specialist Clinic is a web and mobile based platform aimed at affording all women with a quick and reliable access to wide and varying range of obstetrics and gynecological services on-line. Ou...","rating":"","reviews":"","location":{},"category":"Doctors","link":"https://www.businesslist.com.ng/company/262416/ewomen-specialist-clinic","imageUrl":"https://www.businesslist.com.ng/img/ng/k/1540395451-71-ewomen-specialist-clinic.png","phone":"2348035452712","website":"http:/www.ewomenclinic.com"},{"name":"Travel Companion","address":"17 Gwani Street, Wuse Zone 4, Abuja, Abuja, Abuja","state":"Abuja","description":"Travel Companion is a leading Medical tourism in Nigeria, Our experience in medical travels have made us the preferred choice for individuals seeking advance medical care outside Nigeria. Prompt respo...","rating":"","reviews":"","location":{"lat":"9.083470799555215","lng":"7.4031873995056685"},"category":"Doctors","link":"https://www.businesslist.com.ng/company/263486/travel-companion","imageUrl":"https://www.businesslist.com.ng/img/ng/g/1552316016-36-travel-companion.png","phone":"09077698442","website":""},{"name":"Indian Medguru Consultant Pvt. Ltd.","address":"Abia ,Nigeria, Apomu, Abia","state":"Abia","description":"Top surgeons in India provide best quality surgery in India to national and international patients - IndianMedGuru group a leading medical tourism provider India","rating":"","reviews":"","location":{},"category":"Doctors","link":"https://www.businesslist.com.ng/company/190609/indian-medguru-consultant-pvt-ltd","imageUrl":"https://www.businesslist.com.ng/img/ng/n/1359782163_91670.jpg","phone":"+234-17101094","website":"www.indianmedguru.com"},{"name":"THE NATURAL HERBAL HEALER JOSEPH BUBA","address":"3O FARADY SREET SUNNINGHILL ESTATE.SANDTON JHB, Abuja, Abuja","state":"Abuja","description":"As an International Herbalist and Astrologer in South Africa, Doctor Joseph Buba helps you for spell casting, black magic, lost love, voodoo spells and herbs in Africa.","rating":"","reviews":"","location":{"lat":"-26.03785","lng":"28.07472000000007"},"category":"Doctors","link":"https://www.businesslist.com.ng/company/196382/the-natural-herbal-healer-joseph-buba","imageUrl":"https://www.businesslist.com.ng/img/ng/a/1373130953_44391.png","phone":"+27789458598","website":"www.josephbubahealer.co.za"}]