[{"name":"University Of Calabar Teaching Hospital","address":"PMB 1278 Cross River State, Cross River, Calabar, Cross River","state":"Cross River","description":"University of Calabar grew out of the Calabar campus of University of Nigeria (UNN), Nigeria which began functioning during the 1973 academic session with 154 students and a small cadre of academic, a...","rating":"","reviews":"","location":{"lat":"4.9738033","lng":"8.3410031"},"category":"doctors","phone":"","website":"","email":""},{"name":"Valley Oak Hospital","address":"No 2 Kayode Anifowoshe St, Kosofe 100213, Ojodu Berger, Lagos, Lagos","state":"Lagos","description":"Valley Oak Hospital is a new healthcare destination in River Valley Estate, Ojodu, Lagos. At Valley Oak hospital, with state-of-the-art infrastructure and facilities, we deliver path breaking care for...","rating":"","reviews":"","location":{"lat":"6.434328","lng":"3.414976"},"category":"doctors","phone":"","website":"","email":""},{"name":"Ajayi Medical Centre","address":"50, Eluku Street, Ikorodu, Lagos","state":"Lagos","description":"","rating":"5.0","reviews":"1 Review","location":{"lat":"6.4530556","lng":"3.3958333"},"category":"doctors","phone":"","website":"","email":""},{"name":"","address":"","state":"","description":"","rating":"","reviews":"","location":{},"category":"doctors","phone":"","website":"","email":""},{"name":"Assurance Medical Center","address":"39, Akanimoh Street, Eket, Eket, Akwa Ibom","state":"Akwa Ibom","description":"","rating":"5.0","reviews":"1 Review","location":{"lat":"4.65","lng":"7.9333333"},"category":"doctors","phone":"","website":"","email":""},{"name":"Emti Medical Laboratory","address":"542 Ikorodu Rd, Opposite Access Bank, Iyana School B/Stop, Ketu, Lagos","state":"","description":"Emti Medicals is fully licensed and accredited by Medical Laboratory Council of Nigeria, Lagos State Blood Tranfusion Committee and Blood Bank Society of Nigeria. We offer a broad spectrum of routine ...","rating":"","reviews":"","location":{"lat":"6.5894825","lng":"3.3995793"},"category":"doctors","phone":"","website":"","email":""},{"name":"First City Diagnosis Limited (Hospital)","address":"Plot 3 Jerry Iriabe, Off Admiralty Way, Lekki Phase 1 Lagos.|, Lagos, Lagos","state":"Lagos","description":"We are please to introduce to you FIRST CITY DIAGNOSIS LIMITED {FCD Hospital} a registered medical centre since the year 1997. We have been providing qualitative, affordable and accessible health care...","rating":"","reviews":"","location":{"lat":"6.45037663524789","lng":"3.474928375323543"},"category":"doctors","phone":"","website":"","email":""},{"name":"First Look Images","address":"Block A4, Suite 92, Sura Shopping Complex, Simpson Street, Lagos Island, Lagos","state":"Lagos","description":"First Look Images is a 2D/3D/4D Ultrasound Scanning Center. We provide diagnostic and elective ultrasound scan services.","rating":"","reviews":"","location":{"lat":"6.454880612504531","lng":"3.4042035120996843"},"category":"doctors","phone":"","website":"","email":""},{"name":"","address":"","state":"","description":"","rating":"","reviews":"","location":{},"category":"doctors","phone":"","website":"","email":""},{"name":"Hope Eye Clinic","address":"No 7, Akobo Housing Estate, General Gas, Akobo, Inadan, Ibadan, Oyo","state":"Oyo","description":"Hope Eye Clinic is a specialist eye clinic treating eye diseases. Consultation is done in a homely environment. We specialize in the treatment of refractive errors, cataract, glaucoma, pterygium, reti...","rating":"","reviews":"","location":{"lat":"7.423135953451506","lng":"3.9378883377257807"},"category":"doctors","phone":"","website":"","email":""},{"name":"Metro Group of Hospital","address":"(Cardiology Wing): X - 1, Sector - 12,, Abuja, Abuja","state":"Abuja","description":"Metro Group of hospital is one of the best and leading hospitals for heart in Delhi/NCR. The institution is recognized name in patient care. A well known private hospital equipped with technologically...","rating":"","reviews":"","location":{},"category":"doctors","phone":"","website":"","email":""},{"name":"Mobonike Hospital And Maternity","address":"42, Sulurere Street, Dopemu, Agege, Lagos","state":"","description":"","rating":"4.0","reviews":"1 Review","location":{"lat":"6.4530556","lng":"3.3958333"},"category":"doctors","phone":"","website":"","email":""},{"name":"Ochiedike Dialysis & Diagnostic Centre","address":"Along Concorde Hotel Avenue,(by Eze Oluikpe Nelson Nwole Street) New Owerri,Imo State, Owerri, Imo","state":"Imo","description":"Ochiedike dialysis and diagnostic centre,is a specialized healthcare facility that caters for all kinds of laboratory diagnosis services.we have state of the art facilities including ten(10)dialysis b...","rating":"","reviews":"","location":{"lat":"5.482247599931688","lng":"7.018032073974609"},"category":"doctors","phone":"","website":"","email":""},{"name":"Optical Gallery","address":"No. 10, Ndidem Usang Iso Road by Okoro-agbor street, Calabar., Calabar, Cross River","state":"Cross River","description":"We stock the widest variety of stock and designer optical frames and eyewear accessories in Calabar. We also provide lens fitting, replacement and frame repair services. Our satisfaction is derived fr...","rating":"","reviews":"","location":{"lat":"4.96497503381698","lng":"8.33731748522871"},"category":"doctors","phone":"","website":"","email":""},{"name":"","address":"","state":"","description":"","rating":"","reviews":"","location":{},"category":"doctors","phone":"","website":"","email":""},{"name":"Pamaa Medicals And Scientific Company Limited","address":"17, Oregun road, Oregun, Ikeja, Lagos","state":"Lagos","description":" we sell and supply medical.scientific , and laboratory equipments and consumables;","rating":"","reviews":"","location":{"lat":"6.6080296","lng":"3.3620093"},"category":"doctors","phone":"","website":"","email":""},{"name":"Physiooncall","address":"21, Raji Oladimeji Crescent, Magodo, Lagos, Lagos, Lagos","state":"Lagos","description":"We are a health and wellness company that specialises in physiotherapy, massage, personal fitness and corporate wellness. We take the service to the comfort of our patients/clients homes/schools/offic...","rating":"","reviews":"","location":{},"category":"doctors","phone":"","website":"","email":""},{"name":"Redbridge Healthcare","address":"5 Christina Ajayi Okunuga Street 3rd Avenue, Gwarinpa , Abuja, Abuja","state":"Abuja","description":"We are a Healthcare consulting company focused on improving the healthcare experience in Nigeria and Sub Saharan Africa.","rating":"","reviews":"","location":{"lat":"9.090040860912833","lng":"7.409301996231079"},"category":"doctors","phone":"","website":"","email":""},{"name":"Royal Saints Hospital","address":"21 Kasumu Ekemode Street, off Saka Tinubu St, Victoria Island. Lagos., Lagos, Lagos","state":"Lagos","description":"Ear Nose and Throat Clinic","rating":"","reviews":"","location":{"lat":"6.433459350986367","lng":"3.429408073425293"},"category":"doctors","phone":"","website":"","email":""},{"name":"The Premier Specialist Medical Centre","address":"7, Ogalade Close, off Ologun Agbaje street, Victoria Island, Lagos","state":"Lagos","description":"The Premier Specialists' Medical Centre is the manifestation of a dream to promote the highest possible complete health care in Nigeria.","rating":"","reviews":"","location":{"lat":"6.425634982673304","lng":"3.417477607727051"},"category":"doctors","phone":"","website":"","email":""},{"name":"B.A. Clinic","address":"1, Ademolu Close, Maya Village, Ikorodu, Lagos","state":"Lagos","description":"A DESIREBLE CLINIC THAT SOLVES PATIENTS MEDICAL PROBLEMS AND MEET MEDICAL NEEDS","rating":"","reviews":"","location":{"lat":"6.45306","lng":"3.39583"},"category":"doctors","phone":"","website":"","email":""},{"name":"Careline City Hospital","address":"41, Agbedina Street, Olowo Isheri, Off Ojodu - Alagbole Road, (Between Omolara and Yakoyo Bus Stops), Ojodu-Berger, Lagos","state":"","description":"Careline City Hospital, located at 41 Agbedina Street, Olowo Isheri, Ojodu-Berger, is a private healthcare facility committed to promoting the health and well-being of the people by providing them wit...","rating":"","reviews":"","location":{"lat":"6.6528078730248685","lng":"3.357276100402828"},"category":"doctors","phone":"","website":"","email":""},{"name":"Elicent Physiotherapy And Healthcare Services","address":"3, Morenike Street, Ikeja, Lagos","state":"Lagos","description":"Committed to ensuring quality health and well-being.","rating":"","reviews":"","location":{"lat":"6.6357121","lng":"3.3041056"},"category":"doctors","phone":"","website":"","email":""},{"name":"","address":"","state":"","description":"","rating":"","reviews":"","location":{},"category":"doctors","phone":"","website":"","email":""},{"name":"First Foundation Place","address":"36, Opebi Road, Opebi, Ikeja, Lagos","state":"Lagos","description":"The First Foundation is a indigenous Nigerian Healthcare company committed to changing the landscape of healthcare in Africa by supplying and providing turnkey services on leading medical equipment br...","rating":"","reviews":"","location":{"lat":"6.5897189","lng":"3.3609504"},"category":"doctors","phone":"","website":"","email":""},{"name":"Guzye Investments Limited","address":"27, Amai Street, Lagos Badagry Way, Ajeromi Ifelodun, Lagos","state":"","description":"Guzye investments is offering you valuable consultancy service in the area of modern I.T technology When finding the answer to the question","rating":"","reviews":"","location":{"lat":"6.44021","lng":"3.35177"},"category":"doctors","phone":"","website":"","email":""},{"name":"Hhc Consulting","address":"7, Mabo Street, Surulere, Lagos","state":"","description":"Delivering value based healthcareBringing Optimum health to your doorstep","rating":"","reviews":"","location":{"lat":"6.5142898","lng":"3.359945"},"category":"doctors","phone":"","website":"","email":""},{"name":"Immuno Thearpy Nigeria Limited","address":"21, Dipo Awolesi Street, Magodo G.R.A, Kosofe, Lagos","state":"","description":"Immunotherapy, immunocal, cancer, immunity, glutathione, nigeria, alternative medicine, diabetes, immunomodulator","rating":"","reviews":"","location":{"lat":"6.45306","lng":"3.39583"},"category":"doctors","phone":"","website":"","email":""},{"name":"Physioville Health Services","address":"21, Agbor Close, Oshodi-Isolo, Lagos","state":"","description":"Online physiotherapy solutions. Bringing physiotherapy solutions to your doorstep and offices at your convenience","rating":"","reviews":"","location":{"lat":"6.546621","lng":"3.3332466"},"category":"doctors","phone":"","website":"","email":""},{"name":"PhysioConnect","address":"Victoria Island, Lagos, Lagos","state":"Lagos","description":"We are a team of physiotherapists on the forefront of providing quality physiotherapy services. We aim to deliver an uncompromising level of care and service to clients. ","rating":"","reviews":"","location":{},"category":"doctors","phone":"","website":"","email":""},{"name":"Raphe Pharmaceutiques","address":"House 12, 3rd Avenue J Close, Festac Town, Amuwo Odofin, Lagos","state":"","description":"Natural Skin Care Lab : - Bleaching Tonics & Toners Hormonal Creams Hyaluronic Acid Skin Care Private Label House Hold Product Whitening Peel Mask Anti ageing Sunprotection Distributorship Skin Whiten...","rating":"","reviews":"","location":{"lat":"6.46672","lng":"3.28968"},"category":"doctors","phone":"","website":"","email":""},{"name":"South Shore Womens Clinic","address":"12 Canton Concourse, Landbridge Avenue, Eti Osa, Victoria Island, Lagos","state":"Lagos","description":"The fibroid clinic at Lagos is the first dedicated clinic for women with fibroid in Sub-saharan Africa. It is developed to offer women modern techniques in the management of this condition. Unfortunat...","rating":"","reviews":"","location":{"lat":"6.4589849","lng":"3.6015207"},"category":"doctors","phone":"","website":"","email":""},{"name":"St Charles Borromeo Hospital","address":"Limca Road, Onitsha South, Anambra","state":"","description":"St. Charles Borromeo Hospital, Onitsha","rating":"","reviews":"","location":{"lat":"6.1460719","lng":"6.8130087"},"category":"doctors","phone":"","website":"","email":""},{"name":"Dr Ajaya Nand Jha Brain Tumor Specialist","address":"WEMA, Old Dugbe Layout, Dugbe Ibadan, Ibadan, Oyo","state":"Oyo","description":"Dr. Ajaya Nand Jha is the Chairman at Institute of Neurosciences Medanta Hospital, Gurgaon/Gurugram. The neurosurgeon is the pioneer in introducing the intra-operative MRI technology for brain tumor s...","rating":"","reviews":"","location":{},"category":"doctors","phone":"","website":"","email":""}]