[{"name":"Chiron Hospital","address":"10b Chief Albert Iyorah Street, Lekki Phase I, Lagos, Lagos, Lagos","state":"Lagos","description":"Chiron Hospital provides a depth of expertise in the spectrum of advanced medical and surgical interventions, travel medicine and a comprehensive mix of inpatients and outpatient services. It also pro...","rating":"","reviews":"","location":{},"category":"Doctors","link":"https://www.businesslist.com.ng/company/264719/chiron-hospital","imageUrl":"https://www.businesslist.com.ng/img/ng/n/1565198184-68-chiron-hospital.jpg","phone":"08173651737","website":"www.chironhospital.org"},{"name":"Eupraxia Physio","address":"1, Ajoke Saloko Street, Ifako-Gbagada, Lagos, Lagos","state":"Lagos","description":"A physiotherapy clinic and wellness centre, with emphasis on holistic health management. We manage our clients physically, nutritionally and emotionally. We have qualified and well trained personnel i...","rating":"","reviews":"","location":{"lat":"6.5595910155795885","lng":"3.38827886265517"},"category":"Doctors","link":"https://www.businesslist.com.ng/company/254327/eupraxia-physio","imageUrl":"https://www.businesslist.com.ng/img/ng/h/1437398360-61-eupraxia-physio.png","phone":"080242347950817960967408033227796","website":"www.eupraxiaphysio.com"},{"name":"Medvisit Nigeria","address":"1 Fawole Lane, Obanikoro, Lagos, Lagos","state":"Lagos","description":"Medvisit is NIGERIA’S FIRST FULL SERVICE “MEDICAL TOURISM” AGENCY. Medvisit is a Nigeria based medical tourism agency that connects Nigerian patients with quality and affordable medical faciliti...","rating":"","reviews":"","location":{"lat":"6.552252684151826","lng":"3.3676723425445516"},"category":"Doctors","link":"https://www.businesslist.com.ng/company/264750/medvisit-nigeria","imageUrl":"https://www.businesslist.com.ng/img/ng/h/1565540603-73-medvisit-nigeria.png","phone":"08182522015","website":"medvisit.com.ng/"},{"name":"KidneySolutions kidney disease and dialysis center","address":"3 Tunde Gafar Close, Ikeja, Lagos","state":"Lagos","description":"KidneySolutions was established by a group of US trained nephrologists, pharamacists and business professionals and is the partner of choice in the provision of high quality chronic kidney disease, di...","rating":"","reviews":"","location":{"lat":"6.610920300000001","lng":"3.3458504000000175"},"category":"Doctors","link":"https://www.businesslist.com.ng/company/252589/kidneysolutions-kidney-disease-and-dialysis-center","imageUrl":"https://www.businesslist.com.ng/img/ng/f/1398989994_27157.jpg","phone":"080348539350811570768408178660537","website":"www.kidney-solutions.com/"},{"name":"Smaart Health","address":"Plot 5 Yusuf Abiodun Street Oniru, Victoria Island Lagos, Lagos, Lagos","state":"Lagos","description":"A Doctor in your Pocket. Smaart Health is an Artificial Intelligence powered smartphone app, which allows you to carry out on demand Medical consultations on your smartphone. You receive accurate medi...","rating":"","reviews":"","location":{"lat":"6.439325366698868","lng":"3.5396981696350167"},"category":"Doctors","link":"https://www.businesslist.com.ng/company/259163/smaart-health","imageUrl":"https://www.businesslist.com.ng/img/ng/f/1507536577-74-smaart-health.png","phone":"07033467551","website":"www.smaarthealth.com"},{"name":"Greenlight Royal Paramedical Ltd","address":"Oshopy plaza allen avenue Ikeja, Ikeja, Lagos","state":"Lagos","description":"Greenlight Royal Paramedical Ltd is an indigenous Medical Emergency Response Assistance Company in Nigeria, our head office is in Lagos and branch offices in other state. We provide ambulance service ...","rating":"","reviews":"","location":{"lat":"6.59937282003391","lng":"3.3486501162109334"},"category":"Doctors","link":"https://www.businesslist.com.ng/company/266038/greenlight-royal-paramedical-ltd","imageUrl":"https://www.businesslist.com.ng/img/ng/c/1576253966-71-greenlight-royal-paramedical-ltd.jpg","phone":"+2347033022937","website":"greenlight"},{"name":"Pharmanews Limited","address":"8 Akinwunmi street, Mende, Maryland, Lagos., Lagos, Lagos","state":"Lagos","description":"Pharmanews Limited is a health care publishing, training and consultancy firm, positioned to ensure consistent improvements in the quality of pharmaceutical and health care services through publishing...","rating":"","reviews":"","location":{"lat":"6.572890594959165","lng":"3.368586301803589"},"category":"Doctors","link":"https://www.businesslist.com.ng/company/259405/pharmanews-limited","imageUrl":"https://www.businesslist.com.ng/img/ng/f/1510593921-22-pharmanews-limited.png","phone":"+2348057235128+2348026748215+2348033015991","website":"www.pharmanewsonline.com"},{"name":"OrthoEx Nigeria Limited","address":"10, Ikpakodo-Wharf Road, Ebute, Ikorodu, Lagos State, Nigeria, Ikorodu, Lagos","state":"Lagos","description":"OrthoEx Nigeria Limited is a registered and leading provider of Medical devices and equipment, serving all segments of healthcare market with a niche in Prosthetics, Orthopaedics, Physiotherapy and Re...","rating":"","reviews":"","location":{"lat":"6.618719236078484","lng":"3.5021495819091797"},"category":"Doctors","link":"https://www.businesslist.com.ng/company/254117/orthoex-nigeria-limited","imageUrl":"https://www.businesslist.com.ng/img/ng/g/1433886490-77-orthoex-nigeria-limited.png","phone":"07030324696","website":"www.orthoex.ng"},{"name":"TOFUNMI ACU MEDIC CONCEPTS","address":"30, Ijaba Osuke, Iyana-Iyesi, Ota, Ogun state, Ota, Ogun","state":"Ogun","description":"Tofunmi Natural Health Services offer the most complete natural health education that provides people with hope, solutions and support to transform their lives and improve the world in general. The cl...","rating":"","reviews":"","location":{"lat":"6.5568767999999995","lng":"3.325952"},"category":"Doctors","link":"https://www.businesslist.com.ng/company/267400/tofunmi-acu-medic-concepts","imageUrl":"https://www.businesslist.com.ng/img/ng/x/1587044110-81-tofunmi-acu-medic-concepts.jpg","phone":"08139237920","website":"tofunmihealthservices.com.ng"},{"name":"ARIC","address":"Garki 1, Abuja","state":"","description":"Abbess Resources International Company is dedicated to building and enhancing the community with the aim to provide primary needs regarding health, agriculture, manufacturing, fashion, beauty, educati...","rating":"","reviews":"","location":{"lat":"9.035611898269831","lng":"7.4785760824737535"},"category":"Doctors","link":"https://www.businesslist.com.ng/company/267661/aric","imageUrl":"https://www.businesslist.com.ng/img/ng/n/1589382497-59-aric.jpg","phone":"+2349021053924","website":""},{"name":"Whitelodge","address":"wusse, Nnewi, Abuja","state":"Abuja","description":"WHITE LODGE Membership Team We are blessed brothers from The Guardians of Age white lodge Brotherhood. The secret heart of this brotherhood offers all initiate members, growth, wealth, fame, power, pr...","rating":"","reviews":"","location":{},"category":"Doctors","link":"https://www.businesslist.com.ng/company/263378/whitelodge","imageUrl":"https://www.businesslist.com.ng/img/ng/j/1551052245-44-whitelodge.jpg","phone":"+2348025953593","website":"whitelodgewicca.wordpress.com"},{"name":"9th Digit Contracting Limited","address":"6 Ramos Street, Lagos, Lagos","state":"Lagos","description":"We are tech-based organization pioneering disruptive innovative solutions in the healthcare space in Africa. As part of our commitment to meet the healthcare needs of the under-served population in th...","rating":"","reviews":"","location":{"lat":"6.517289670783416","lng":"3.364485878234862"},"category":"Doctors","link":"https://www.businesslist.com.ng/company/266505/9th-digit-contracting-limited","imageUrl":"https://www.businesslist.com.ng/img/ng/f/1580299743-81-9th-digit-contracting-limited.png","phone":"0813-0279329","website":"9th-digit-contracting-limited.business.site"},{"name":"BODY MECHANICS PHYSIOTHERAPY & WELLNESS CENTRE","address":"4 Bawku Street, Off Monrovia Street, Aminu Kano Way, Wuse 2, Abuja, Abuja","state":"Abuja","description":"Body Mechanics Physiotherapy & Wellness Centre (BOMPHYSIO) - the Physiotherapy Service Provider 2017. BOMPHYSIO redefines the standards for the practice of physical therapy and wellness management. A ...","rating":"","reviews":"","location":{"lat":"9.082868610192264","lng":"7.472451880545009"},"category":"Doctors","link":"https://www.businesslist.com.ng/company/258244/body-mechanics-physiotherapywellness-centre","phone":"092907111","website":"www.bomphysio.org"},{"name":"Dad'spride Veterinary Services","address":"AGA Memorial complex, No 16 Nkwere street near GTB Area 11,Garki,Abuja, Abuja, Abuja","state":"Abuja","description":"We are an upcoming local business that concerned with taking care of your pets. We have a well-stocked petmart with a variety of pet foods, toys, accessories and drugs to help you spoil your pets rott...","rating":"","reviews":"","location":{"lat":"9.033354788831952","lng":"7.499012415424431"},"category":"Doctors","link":"https://www.businesslist.com.ng/company/264715/dadspride-veterinary-services","imageUrl":"https://www.businesslist.com.ng/img/ng/h/1565186160-44-dad-spride-veterinary-services.jpg","phone":"07025622562","website":""},{"name":"Maldor Eyecare Centre And Optical Service Limited","address":"No 38 Gana Street Maitama Abuja, Abuja, Abuja","state":"Abuja","description":"A well integrated eye care facilty dedicated to excellence , innovation and quality . A state of the art Eye Clinic An onsite Digital Optical Lens Lab Eyewear Gallery Contact lenses ","rating":"","reviews":"","location":{"lat":"9.06141447157409","lng":"7.516043186187744"},"category":"Doctors","link":"https://www.businesslist.com.ng/company/209284/maldor-eyecare-centre-and-optical-service-limited","imageUrl":"https://www.businesslist.com.ng/img/ng/c/1505290823_67829.jpg","phone":"0803872895308095979102","website":"www.maldor.com.ng"},{"name":"Brookside Medical Practice","address":"178B Corporation Dr, Dolphin Estate, Lagos, Lagos Island, Lagos","state":"Lagos","description":"We are your go-to place for DNA tests in Lagos. We offer a quick and easy service in a very comfortable environment.","rating":"","reviews":"","location":{"lat":"6.4612133419126865","lng":"3.416853185733089"},"category":"Doctors","link":"https://www.businesslist.com.ng/company/263457/brookside-medical-practice","imageUrl":"https://www.businesslist.com.ng/img/ng/j/1551986075-59-brookside-medical-practice.jpg","phone":"08179795565","website":"brooksidemedicalpractice.com"},{"name":"MediGence Network Pvt. Ltd.","address":"Ahmadu Bello Way, Area 11 Abuja, FCT. Nigeria, Abuja, Abuja","state":"Abuja","description":"Founded in 2016, MediGence is a technology driven global platform to find and leverage the best-in-class overseas medical treatment options for a memorable patient care experience. Following our brand...","rating":"","reviews":"","location":{"lat":"9.0765","lng":"7.3986"},"category":"Doctors","link":"https://www.businesslist.com.ng/company/266462/medigence-network-pvt-ltd","imageUrl":"https://www.businesslist.com.ng/img/ng/x/1579972962-88-medigence-network-pvt-ltd.jpg","phone":"+234 (0) 817 4290 703","website":"medigence.com"},{"name":"BODY AFFAIRS DIAGNOSTICS","address":" Plot 1349 Ahmadu Bello Way (By UBA), Garki 2, Abuja or Plot C6 Behind SSS Quarters, Karu Site, Abuja., Abuja, Abuja","state":"Abuja","description":"A top class, quality medical diagnostic company. We conduct Fast, accurate and reliable medical diagnosis according to international standards. We carry out over 5000 medical tests ranging from high s...","rating":"","reviews":"","location":{"lat":"9.086375285063014","lng":"7.411496043205261"},"category":"Doctors","link":"https://www.businesslist.com.ng/company/256191/body-affairs-diagnostics","imageUrl":"https://www.businesslist.com.ng/img/ng/f/1468845359-16-body-affairs-diagnostics.jpg","phone":"+234 814 309 8100+234 909 025 9747+234 905 050 0793+234 811 111 3113 +234 807 952 5555+234 807 951 5555","website":"www.bodyaffairs.com.ng"},{"name":"Medvisit","address":"1, Fawole Lane, Off Ikorodu Road, Obanikoro, Lagos, Lagos","state":"","description":"MedVisit is a Nigeria based company that connects Nigerian patients with quality and affordable medical facilities in India . We ensure rewarding and positive outcome to our clients through our person...","rating":"","reviews":"","location":{"lat":"6.552191892902636","lng":"3.3675583451986313"},"category":"Doctors","link":"https://www.businesslist.com.ng/company/256772/medvisit","imageUrl":"https://www.businesslist.com.ng/img/ng/n/1476709281-13-medvisit.png","phone":"0818252201508152325434","website":"www.medvisit.com.ng"},{"name":"Fairview Dental Clinic","address":"115 Ikot Ekpene Road, Uyo, Uyo, Akwa Ibom","state":"Akwa Ibom","description":"@fairview dental clinic we care for the health of your mouth in a friendly,comfortable,ethical and professional manner. We do it better.","rating":"","reviews":"","location":{},"category":"Doctors","link":"https://www.businesslist.com.ng/company/259538/fairview-dental-clinic","imageUrl":"https://www.businesslist.com.ng/img/ng/e/1543943477-35-fairview-dental-clinic.jpg","phone":"07033991762","website":"fairview-dental-clinic-uyo.business.site"},{"name":"Nisa Premier Hospital","address":"No 15-17 Alex Ekwueme Street, Jabi,Abuja, Nigeria., Abuja, Abuja","state":"Abuja","description":"EXPERT HEALTHCARE ‘Nigeria can, Africa can’ These are the words of Dr Ibrahim Wada, a renowned Gynaecologist who founded Nisa Premier Hospital with a vision to be a centre of excellence for women�...","rating":"","reviews":"","location":{"lat":"9.07478547813501","lng":"7.416203463926649"},"category":"Doctors","link":"https://www.businesslist.com.ng/company/255053/nisa-premier-hospital","imageUrl":"https://www.businesslist.com.ng/img/ng/c/1496476205-87-nisa-premier-hospital.png","phone":"+234 817 420 9999+234 817 420 9990","website":"www.nisa.com.ng/"},{"name":"THE SKIN101 CENTER","address":"2665C ORANGE CLOSE, OFF VOLTA STREET, OFF THAMES STREET, MAITAMA, Abuja, Abuja","state":"Abuja","description":"A unique healthcare center, providing a wide range of medical services aimed at improving skin, physical appearance and well-being.","rating":"","reviews":"","location":{"lat":"9.099329113769407","lng":"7.477785497903824"},"category":"Doctors","link":"https://www.businesslist.com.ng/company/255034/the-skin101-center","imageUrl":"https://www.businesslist.com.ng/img/ng/s/1454594890-34-skin101.jpg","phone":"09086000001","website":"www.skin101ng.com"},{"name":"Oasis Diagnostics","address":"Plot 27 Okporo Layout opposite Akwaka Junction by SARS road Rukpokwu, Portharcourt, Port Harcourt, Rivers","state":"Rivers","description":"Oasis Diagnostics is a registered outpatient medical diagnostics and clinical support center with state of the art equipments to offer services such as digital X-ray, ultrasound, medical laboratory, E...","rating":"","reviews":"","location":{"lat":"4.888650790667683","lng":"7.003887891122304"},"category":"Doctors","link":"https://www.businesslist.com.ng/company/261222/oasis-diagnostics","imageUrl":"https://www.businesslist.com.ng/img/ng/l/1529461910-18-oasis-diagnostics.jpg","phone":"08138859806","website":""},{"name":"Lucid View Eye Clinic","address":"451 Nnebisi Road, West End by St Patrick College, Asaba, Delta","state":"Delta","description":"Lucid view eye clinic is the best eye clinic in asaba delta state. We specialize in diagnosing and managing vision disorders. We pride ourselves as the best eye care center in Asaba, delta state, Nige...","rating":"","reviews":"","location":{"lat":"6.212348","lng":"6.708344"},"category":"Doctors","link":"https://www.businesslist.com.ng/company/264368/lucid-view-eye-clinic","phone":"08035957196","website":"www.lucidvieweyeclinic.com"},{"name":"Kabworld Physiotherapy & Co","address":"Lekki Phase 1, Lagos Island, Lagos","state":"Lagos","description":"We provide quality and excellent Physiotherapy Services for individuals (Treatment brought to your homes I.e domiciliary services) and hospital services based on consultations. Varieties of medical co...","rating":"","reviews":"","location":{"lat":"6.448141415244768","lng":"3.410050098303259"},"category":"Doctors","link":"https://www.businesslist.com.ng/company/260133/kabworld-physiotherapyco","phone":"07033309554","website":"www.kabworldphysiotherapy.com"},{"name":"Community Hospital and Diagnostic Centre","address":"Plot 342 Kubwa Extension 111, Abuja, Abuja","state":"Abuja","description":"At Community Hospital Centers we offer the latest in state-of-the-art medical technology in a beautiful, hotel-like environment. From our primary care center to emergency room, outpatient dialysis dep...","rating":"","reviews":"","location":{},"category":"Doctors","link":"https://www.businesslist.com.ng/company/253457/community-hospital-and-diagnostic-centre","imageUrl":"https://www.businesslist.com.ng/img/ng/g/1450920740-43-community-hospital-and-diagnostic-centre.jpg","phone":"07038656501","website":"communityhospitalcenter.org"},{"name":"FORERUNNERS HEALTHCARE CONSULTANTS","address":" FORERUNNERS HEALTHCARE CONSULTANTS PVT. LTD. , Abakaliki, Abia","state":"Abia","description":"Best Medical Tourism India facilities at high quality super speciality international hospitals, surgery centers & clinics by expert team of doctors & surgeons at low cost","rating":"","reviews":"","location":{},"category":"Doctors","link":"https://www.businesslist.com.ng/company/196764/forerunners-healthcare-consultants","imageUrl":"https://www.businesslist.com.ng/img/ng/s/1416807228-forerunners-healthcare-consultants.png","phone":"23417101094","website":"www.forerunnershealthcare.com"},{"name":"Association For Reproductives And Family Health","address":"Plot 815A, Arfh House, Army Officers Mess Road, Ibadan North, Ibadan, Oyo","state":"Oyo","description":"OLIKOYE RANSOME-KUTI MEDICAL CENTER (ORMC) is owned by Association for Reproductive and Family Health (ARFH) with the vision to ensure all our clients experience \"HOSPITALITY IN A HOSPITAL\". It is a m...","rating":"","reviews":"","location":{"lat":"7.40178","lng":"3.92316"},"category":"Doctors","link":"https://www.businesslist.com.ng/company/209351/association-for-reproductives-and-family-health","imageUrl":"https://www.businesslist.com.ng/img/ng/l/1579678641-33-association-for-reproductives-and-family-health.jpg","phone":"08023542889028100164","website":"www.arfh-ng.org"},{"name":"My-medicines.com","address":"12b, Stella Solanke street, Internatonal Airport Road, Ajao Estate, Ikeja, Lagos","state":"Lagos","description":"my-medicines.com is an on-line medicines ordering platform in Nigeria that fulfills medicines and device request of users/patients through crowd sourcing from over 837 registered community pharmacies ...","rating":"","reviews":"","location":{},"category":"Doctors","link":"https://www.businesslist.com.ng/company/262274/my-medicinescom","imageUrl":"https://www.businesslist.com.ng/img/ng/b/1539167843-14-my-medicines-com.jpg","phone":"+234808 275 1466 (SMScall &WhatsApp)","website":"my-medicines.com"}]