[{"name":"University Of Calabar Teaching Hospital","address":"PMB 1278 Cross River State, Cross River, Calabar, Cross River","state":"Cross River","description":"University of Calabar grew out of the Calabar campus of University of Nigeria (UNN), Nigeria which began functioning during the 1973 academic session with 154 students and a small cadre of academic, a...","rating":"","reviews":"","location":{"lat":"4.9738033","lng":"8.3410031"},"category":"Doctors","link":"https://www.businesslist.com.ng/company/162754/university-of-calabar-teaching-hospital","imageUrl":"https://www.businesslist.com.ng/img/ng/k/1537791453-83-university-of-calabar-teaching-hospital.jpg","phone":"087-232055238513232053","website":"www.unical.edu.ng"},{"name":"Emti Medical Laboratory","address":"542 Ikorodu Rd, Opposite Access Bank, Iyana School B/Stop, Ketu, Lagos","state":"","description":"Emti Medicals is fully licensed and accredited by Medical Laboratory Council of Nigeria, Lagos State Blood Tranfusion Committee and Blood Bank Society of Nigeria. We offer a broad spectrum of routine ...","rating":"","reviews":"","location":{"lat":"6.5894825","lng":"3.3995793"},"category":"Doctors","link":"https://www.businesslist.com.ng/company/202524/emti-medical-laboratory","phone":"08038006962018936941","website":"www.emtimedicals.com"},{"name":"Ochiedike Dialysis & Diagnostic Centre","address":"Along Concorde Hotel Avenue,(by Eze Oluikpe Nelson Nwole Street) New Owerri,Imo State, Owerri, Imo","state":"Imo","description":"Ochiedike dialysis and diagnostic centre,is a specialized healthcare facility that caters for all kinds of laboratory diagnosis services.we have state of the art facilities including ten(10)dialysis b...","rating":"","reviews":"","location":{"lat":"5.482247599931688","lng":"7.018032073974609"},"category":"Doctors","link":"https://www.businesslist.com.ng/company/253870/ochiedike-dialysisdiagnostic-centre","phone":"09094320701","website":"ww.ochiedike.org"},{"name":"First City Diagnosis Limited (Hospital)","address":"Plot 3 Jerry Iriabe, Off Admiralty Way, Lekki Phase 1 Lagos.|, Lagos, Lagos","state":"Lagos","description":"We are please to introduce to you FIRST CITY DIAGNOSIS LIMITED {FCD Hospital} a registered medical centre since the year 1997. We have been providing qualitative, affordable and accessible health care...","rating":"","reviews":"","location":{"lat":"6.45037663524789","lng":"3.474928375323543"},"category":"Doctors","link":"https://www.businesslist.com.ng/company/121758/first-city-diagnosis-limited-hospital","phone":"+2348093378638+2348024024530+2348033378638","website":"www.firstcitydiagnosis.com"},{"name":"Optical Gallery","address":"No. 10, Ndidem Usang Iso Road by Okoro-agbor street, Calabar., Calabar, Cross River","state":"Cross River","description":"We stock the widest variety of stock and designer optical frames and eyewear accessories in Calabar. We also provide lens fitting, replacement and frame repair services. Our satisfaction is derived fr...","rating":"","reviews":"","location":{"lat":"4.96497503381698","lng":"8.33731748522871"},"category":"Doctors","link":"https://www.businesslist.com.ng/company/263875/optical-gallery","imageUrl":"https://www.businesslist.com.ng/img/ng/k/1557239281-37-optical-gallery.jpg","phone":"08036669927","website":""},{"name":"Dr Ajaya Nand Jha Brain Tumor Specialist","address":"WEMA, Old Dugbe Layout, Dugbe Ibadan, Ibadan, Oyo","state":"Oyo","description":"Dr. Ajaya Nand Jha is the Chairman at Institute of Neurosciences Medanta Hospital, Gurgaon/Gurugram. The neurosurgeon is the pioneer in introducing the intra-operative MRI technology for brain tumor s...","rating":"","reviews":"","location":{},"category":"Doctors","link":"https://www.businesslist.com.ng/company/263829/dr-ajaya-nand-jha-brain-tumor-specialist","imageUrl":"https://www.businesslist.com.ng/img/ng/r/1556628269-89-dr-ajaya-nand-jha-brain-tumor-specialist.jpg","phone":"024610187028740917","website":"www.spineandneurosurgeryhospitalindia.com/consult-dr-ajaya-nand-jha-best-neurosurgeon-medanta-gurgaon-delhi.html"},{"name":"Valley Oak Hospital","address":"No 2 Kayode Anifowoshe St, Kosofe 100213, Ojodu Berger, Lagos, Lagos","state":"Lagos","description":"Valley Oak Hospital is a new healthcare destination in River Valley Estate, Ojodu, Lagos. At Valley Oak hospital, with state-of-the-art infrastructure and facilities, we deliver path breaking care for...","rating":"","reviews":"","location":{"lat":"6.434328","lng":"3.414976"},"category":"Doctors","link":"https://www.businesslist.com.ng/company/265273/valley-oak-hospital","imageUrl":"https://www.businesslist.com.ng/img/ng/n/1569657394-67-valley-oak-hospital.png","phone":"0814 922 5458","website":"www.thevalleyoakhospital.com"},{"name":"Metro Group of Hospital","address":"(Cardiology Wing): X - 1, Sector - 12,, Abuja, Abuja","state":"Abuja","description":"Metro Group of hospital is one of the best and leading hospitals for heart in Delhi/NCR. The institution is recognized name in patient care. A well known private hospital equipped with technologically...","rating":"","reviews":"","location":{},"category":"Doctors","link":"https://www.businesslist.com.ng/company/259742/metro-group-of-hospital","imageUrl":"https://www.businesslist.com.ng/img/ng/j/1514893933-27-metro-group-of-hospital.jpg","phone":"+234 688-6965","website":"www.metrohospitals.com/"},{"name":"First Look Images","address":"Block A4, Suite 92, Sura Shopping Complex, Simpson Street, Lagos Island, Lagos","state":"Lagos","description":"First Look Images is a 2D/3D/4D Ultrasound Scanning Center. We provide diagnostic and elective ultrasound scan services.","rating":"","reviews":"","location":{"lat":"6.454880612504531","lng":"3.4042035120996843"},"category":"Doctors","link":"https://www.businesslist.com.ng/company/217691/first-look-images","phone":"0809521663508123487873","website":"www.firstlookimages.com.ng"},{"name":"Hope Eye Clinic","address":"No 7, Akobo Housing Estate, General Gas, Akobo, Inadan, Ibadan, Oyo","state":"Oyo","description":"Hope Eye Clinic is a specialist eye clinic treating eye diseases. Consultation is done in a homely environment. We specialize in the treatment of refractive errors, cataract, glaucoma, pterygium, reti...","rating":"","reviews":"","location":{"lat":"7.423135953451506","lng":"3.9378883377257807"},"category":"Doctors","link":"https://www.businesslist.com.ng/company/219148/hope-specialist-eye-clinic","phone":"+2348023265594","website":"www.hopeeyeclinic.com"},{"name":"Royal Saints Hospital","address":"21 Kasumu Ekemode Street, off Saka Tinubu St, Victoria Island. Lagos., Lagos, Lagos","state":"Lagos","description":"Ear Nose and Throat Clinic","rating":"","reviews":"","location":{"lat":"6.433459350986367","lng":"3.429408073425293"},"category":"Doctors","link":"https://www.businesslist.com.ng/company/101729/royal-saints-hospital","phone":"08175313838","website":"www.ent-royalsaintshospital.com/"},{"name":"Redbridge Healthcare","address":"5 Christina Ajayi Okunuga Street 3rd Avenue, Gwarinpa , Abuja, Abuja","state":"Abuja","description":"We are a Healthcare consulting company focused on improving the healthcare experience in Nigeria and Sub Saharan Africa.","rating":"","reviews":"","location":{"lat":"9.090040860912833","lng":"7.409301996231079"},"category":"Doctors","link":"https://www.businesslist.com.ng/company/254626/redbridge-healthcare","phone":"08088888306","website":"www.redbridgehealthcare.org"},{"name":"PhysioConnect","address":"Victoria Island, Lagos, Lagos","state":"Lagos","description":"We are a team of physiotherapists on the forefront of providing quality physiotherapy services. We aim to deliver an uncompromising level of care and service to clients. ","rating":"","reviews":"","location":{},"category":"Doctors","link":"https://www.businesslist.com.ng/company/259898/physioconnect","imageUrl":"https://www.businesslist.com.ng/img/ng/x/1516649382-87-physioconnect.png","phone":"+2348122723018","website":"www.physioconnectng.com"},{"name":"Careline City Hospital","address":"41, Agbedina Street, Olowo Isheri, Off Ojodu - Alagbole Road, (Between Omolara and Yakoyo Bus Stops), Ojodu-Berger, Lagos","state":"","description":"Careline City Hospital, located at 41 Agbedina Street, Olowo Isheri, Ojodu-Berger, is a private healthcare facility committed to promoting the health and well-being of the people by providing them wit...","rating":"","reviews":"","location":{"lat":"6.6528078730248685","lng":"3.357276100402828"},"category":"Doctors","link":"https://www.businesslist.com.ng/company/262451/careline-city-hospital","imageUrl":"https://www.businesslist.com.ng/img/ng/n/1541711052-79-careline-city-hospital.jpg","phone":"090347727270802313414807083662341","website":""},{"name":"The Premier Specialist Medical Centre","address":"7, Ogalade Close, off Ologun Agbaje street, Victoria Island, Lagos","state":"Lagos","description":"The Premier Specialists' Medical Centre is the manifestation of a dream to promote the highest possible complete health care in Nigeria.","rating":"","reviews":"","location":{"lat":"6.425634982673304","lng":"3.417477607727051"},"category":"Doctors","link":"https://www.businesslist.com.ng/company/219115/the-premier-specialist-medical-centre","phone":"09085688965","website":"www.thepremiermedical.com"},{"name":"Physiooncall","address":"21, Raji Oladimeji Crescent, Magodo, Lagos, Lagos, Lagos","state":"Lagos","description":"We are a health and wellness company that specialises in physiotherapy, massage, personal fitness and corporate wellness. We take the service to the comfort of our patients/clients homes/schools/offic...","rating":"","reviews":"","location":{},"category":"Doctors","link":"https://www.businesslist.com.ng/company/256807/physiooncall","imageUrl":"https://www.businesslist.com.ng/img/ng/l/1477331581-50-physiooncall.jpg","phone":"2348099997799","website":"www.Physiooncall.net"}]