[{"name":"DNA BioScience Center Ltd. / DDC","address":"1679 Karimu Kotun Street, Lagos, Lagos","state":"Lagos","description":"We provide large portfolio of DNA test including paternity, paternity during pregnancy, siblingship, grandparentage, legal and immigration testing. We offer customer and technical support by team of A...","rating":"","reviews":"","location":{"lat":"6.427031628995372","lng":"3.4254437685012817"},"category":"Doctors","link":"https://www.businesslist.com.ng/company/257833/ddc-nigeria","imageUrl":"https://www.businesslist.com.ng/img/ng/s/1492674810-64-ddc-nigeria.jpg","phone":"014407904","website":"www.dnacenter.ng"},{"name":"FLUID","address":"Lekki-Epe, Lagos, Lagos","state":"Lagos","description":"We specialize in the distribution of a wide range non-invasive world standard products and components across Prosthetics, Orthotics, orthopaedics and assistive technology. ","rating":"5.0","reviews":"1 Review","location":{"lat":"6.4576835202344025","lng":"3.419798965887706"},"category":"Doctors","link":"https://www.businesslist.com.ng/company/267467/fluid","imageUrl":"https://www.businesslist.com.ng/img/ng/j/1590699247-45-fluid.png","phone":"09016510795","website":""},{"name":"Patriot Dental Clinic","address":"98A Okigwe road, Owerri, Imo State, Nigeria, Owerri, Imo","state":"Imo","description":"Patriot Dental Clinic is your guide to a better smile and healthy living. We are committed to providing quality family and cosmetic dental care to every patient. Patriot Dental Clinic located in Owerr...","rating":"","reviews":"","location":{"lat":"5","lng":"7"},"category":"Doctors","link":"https://www.businesslist.com.ng/company/256778/patriot-dental-clinic","imageUrl":"https://www.businesslist.com.ng/img/ng/c/1476879144-15-patriot-dental-clinic.gif","phone":"+2348036067260+2348153918177","website":"www.patriotdentalclinic.com/"},{"name":"Care point solutions","address":"a8 tj1406 plaza behind ap plaza,adetokunbo ademola crescent wuse 2, Abuja, Abuja","state":"Abuja","description":"We are the pioneer of medical tourism in Nigeria with proven track record of testimonies from our ever increasing clients whom have enjoyed our services over the years.We have handled more than ten th...","rating":"5.0","reviews":"1 Review","location":{"lat":"9.072750879708186","lng":"7.476850748062134"},"category":"Doctors","link":"https://www.businesslist.com.ng/company/254628/care-point-solutions","imageUrl":"https://www.businesslist.com.ng/img/ng/s/1465989668-17-care-point-solutions.jpg","phone":"08077041011","website":""},{"name":"Agho Clinic Benin City","address":"22 Ihama Road, Benin City, Edo","state":"Edo","description":"Agho Clinic provides seamless care 24 hours a day. Services include: 1. General medical care 2. Maternity 3. Ultrasound scanning 4. Dental care 5. Home health care services 6. Hypertension 7. Diabetes...","rating":"5.0","reviews":"1 Review","location":{"lat":"6.3210006170610535","lng":"5.619386810546871"},"category":"Doctors","link":"https://www.businesslist.com.ng/company/257402/agho-clinic-benin-city","phone":"011-234-905-653-5538","website":"www.aghoclinic.com"},{"name":"DNA Centre","address":"73 Allen Avenue, Ikeja Lagos, Ikeja, Lagos","state":"Lagos","description":"For over a decade, DNA Center (DC) has been the largest provider of DNA paternity tests in Nigeria. DC currently provides comprehensive DNA testing services in three main areas: paternity and other fa...","rating":"","reviews":"","location":{"lat":"6.601838","lng":"3.3517223343933438"},"category":"Doctors","link":"https://www.businesslist.com.ng/company/253180/dna-centre","imageUrl":"https://www.businesslist.com.ng/img/ng/h/1473031981-40-dna-centre.jpg","phone":"0705999933307059999444","website":"www.dnanigeria.com"},{"name":"OC Medical Centre & X-ray services","address":"3 Works Road, Works Layout, Owerri, Owerri, Imo","state":"Imo","description":"MEDICAL DIAGNOSTIC CENTRE SERVICES: - Ultrasound scan - Echocardiography - Plain X-ray examination - Special investigations - Medical diagnostic laboratory - ECG ABOUT US: Established 1985 For over 3 ...","rating":"","reviews":"","location":{"lat":"5.505059132391751","lng":"7.036212086677551"},"category":"Doctors","link":"https://www.businesslist.com.ng/company/258741/oc-medical-centrex-ray-services","imageUrl":"https://www.businesslist.com.ng/img/ng/f/1502610172-47-oc-medical-centre-x-ray-services.jpg","phone":"07035244190","website":"ocmedicalcentre.business.site"},{"name":"PlacidWay","address":"8008 East Arapahoe Court, Suite 100 Centennial, CO","state":"","description":"PlacidWay, a leader in the medical tourism industry, offers extensive information related to medical travel, international medical providers, foreign treatment packages, as well as global destinations...","rating":"5.0","reviews":"1 Review","location":{"lat":"9.086745229953186","lng":"8.678023582031301"},"category":"Doctors","link":"https://www.businesslist.com.ng/company/190358/placidway","imageUrl":"https://www.businesslist.com.ng/img/ng/h/1350544984_54393.jpg","phone":"+1.303.500.3821","website":"www.placidway.com"},{"name":"GRANDVIEW EYE CLINIC","address":"12 Gen Adeyinka Adebayo Road (Works Road) GRA Ikeja, Ikeja, Lagos","state":"Lagos","description":"Grandview Eye Clinic is an out-patient clinic located at GRA Ikeja: the heart of the City of Lagos – Nigeria. Our Clinic offers a wide range of eye care services to the general public and local busi...","rating":"","reviews":"","location":{"lat":"6.58147385793527","lng":"3.3446124399893273"},"category":"Doctors","link":"https://www.businesslist.com.ng/company/261371/grandview-eye-clinic","imageUrl":"https://www.businesslist.com.ng/img/ng/g/1590302894-12-grandview-eye-clinic.png","phone":"08055656931","website":"grandview-eyeclinic.com"},{"name":"The Pain Clinic And Wellness Center","address":"21b Chesachi Hani Okoroafor Street, Off Ayinde Akinmade Street, Off Admiralty Way, Lekki Phase 1, Victoria Island, Lagos","state":"Lagos","description":"The Pain Clinic & Wellness Center is an Acupuncture & Alternative Medicine Clinic. The company utilizes various Acupuncture techniques to help improve the wellbeing of an individual. We treatment nume...","rating":"","reviews":"","location":{"lat":"6.44432115367535","lng":"3.480121273284908"},"category":"Doctors","link":"https://www.businesslist.com.ng/company/264190/the-pain-clinic-and-wellness-center","imageUrl":"https://www.businesslist.com.ng/img/ng/x/1560277172-18-the-pain-clinic-and-wellness-center.jpg","phone":"+2348097254642","website":"www.thepainclinic.com.ng"},{"name":"HAVEN OPTICALS LTD","address":"D Cherub Mall, suite A9/10, opposite alpha beach junction.Lekki, Lagos, Lagos","state":"Lagos","description":"Haven Opticals Ltd is located in Lekki,Lagos.It is a comprehensively equipped Family Eye clinic and low vision and blindness rehabilitation center.","rating":"","reviews":"","location":{"lat":"6.4589849","lng":"3.6015207000000373"},"category":"Doctors","link":"https://www.businesslist.com.ng/company/128507/haven-opticals-ltd","imageUrl":"https://www.businesslist.com.ng/img/ng/a/1538990691_75743.jpg","phone":"0704521225008059546846","website":"www.havenopticals.com"},{"name":"Ifeanhealth Nigeria LTD Prosthetics and Orthotics","address":"2nd Floor Ore Ofe Building, 35 Osolo way, Ajao Estate Lagos., Lagos, Lagos","state":"Lagos","description":"We are here to ensure that the mobility needs of people with diabilities are taken care of. Working with Ottobock Prosthetics and Orthotics Germany. We provide prosthetics limbs for amputees and peopl...","rating":"","reviews":"","location":{"lat":"6.543920449938254","lng":"3.3332133293151855"},"category":"Doctors","link":"https://www.businesslist.com.ng/company/254903/ifeanhealth-nigeria-ltd","imageUrl":"https://www.businesslist.com.ng/img/ng/s/1447237989-24-ifeanhealth-nigeria-ltd.jpg","phone":"08085833799","website":"www.ifeanhealth.com"},{"name":"SHAWSAND MEDICAL CENTRE","address":"KM 14 PORT HARCOURT-ABA EXPRESSWAY PORT HARCOURT, Port Harcourt, Rivers","state":"Rivers","description":"We provide outpatient consultation and inpatient services for adults, children, and pregnant women. These services will be provided to private as well as company patients by Consultant grade physician...","rating":"4.0","reviews":"1 Review","location":{"lat":"4.862738721339206","lng":"7.13388204574585"},"category":"Doctors","link":"https://www.businesslist.com.ng/company/190901/shawsand-medical-centre","phone":"07041973910","website":"www.shawsandmedical.com"},{"name":"Akam nature care","address":"80, Okunola street, off Egbeda/idimu Road Egbeda Lagos, Lagos, Lagos","state":"Lagos","description":"AKAM Nature Care NIG. LTD is embarking on series of programs and activities which including public enlightenment, Natural health blogging, online and offline Consultation, Herbal Clinic service and so...","rating":"","reviews":"","location":{"lat":"6.594512863540801","lng":"3.283762115722652"},"category":"Doctors","link":"https://www.businesslist.com.ng/company/265255/akam-nature-care","imageUrl":"https://www.businesslist.com.ng/img/ng/l/1569511217-82-akam-nature-care.jpg","phone":"08145033314","website":"akamnaturecare.com"},{"name":"DNA Paternity Test Nigeria","address":"79 Bamgbose Street, Lagos Island. Lagos, Lagos Island, Lagos","state":"Lagos","description":"Paternity Test Nigeria is the first home DNA Paternity test service in Nigeria that allows individuals to attain peace of mind about their alleged child or children without the need to go to expensive...","rating":"","reviews":"","location":{"lat":"6.452778275995188","lng":"3.393501341342926"},"category":"Doctors","link":"https://www.businesslist.com.ng/company/254341/dna-paternity-test-nigeria","imageUrl":"https://www.businesslist.com.ng/img/ng/n/1440099118-12-dna-paternity-test-nigeria.jpg","phone":"08073008967","website":"www.paternitytestnigeria.com"},{"name":"8k medical solutions limited","address":"3, Ijaye road, Ogba, Ikeja, Lagos, Lagos, Lagos","state":"Lagos","description":"We have established 8K Medical Solutions with a global vision to fulfil requirements of health care providers professionally. We suppliers medical equipment, Furniture and Consumables all across Niger...","rating":"","reviews":"","location":{"lat":"6.595298719583034","lng":"3.379052092327006"},"category":"Doctors","link":"https://www.businesslist.com.ng/company/264388/8k-medical-solutions-limited","imageUrl":"https://www.businesslist.com.ng/img/ng/l/1593108904-48-8k-medical-solutions-limited.jpg","phone":"07057878291","website":"www.8kmedicalsolutions.com"},{"name":"Bite Dental clinic","address":"Suite 9, Saymore Plaza , Ojoo, Ibadan, Ibadan, Oyo","state":"Oyo","description":"We are a group of young dental professionals, dedicated to providing quality and affordable dental services to our esteemed clients. We offer various services including teeth whitening procedures, tee...","rating":"5.0","reviews":"1 Review","location":{"lat":"7.466421950186629","lng":"3.9120480368027843"},"category":"Doctors","link":"https://www.businesslist.com.ng/company/266517/bite-dental-clinic","imageUrl":"https://www.businesslist.com.ng/img/ng/l/1580361704-33-bite-dental-clinic.jpg","phone":"09070221922","website":""},{"name":"VISION PLANET EYE CLINIC","address":"2A MATTHEW STREET, OFF OJUELEGBA-YABA ROAD BESIDE FCMB BANK SURULERE LAGOS., Lagos, Lagos","state":"Lagos","description":"Vision Planet Eye Clinic is an Eye Clinic in Ojuelegba-Yaba Lagos. We provide professional and comprehensive Eye Care services at affordable prices. We are equipped with computer-assisted eye exams an...","rating":"","reviews":"","location":{"lat":"6.5103316722962985","lng":"3.3644518674901214"},"category":"Doctors","link":"https://www.businesslist.com.ng/company/267260/vision-planet-eye-clinic","imageUrl":"https://www.businesslist.com.ng/img/ng/s/1585675316-32-vision-planet-eye-clinic.jpg","phone":"0803477789908053414142","website":"vision-planet-eye-clinic.business.site/"},{"name":"The Dental Clinic","address":"C3 Claret Academy St, New Owerri, Owerri (Near Ideal Suites), Imo State, Nigeria., Owerri, Imo","state":"Imo","description":"The Dental Clinic is your guide to a better smile and healthy living. We are committed to providing quality family and cosmetic dental care to every patient. The Dental Clinic located in Owerri, Niger...","rating":"","reviews":"","location":{"lat":"5","lng":"7"},"category":"Doctors","link":"https://www.businesslist.com.ng/company/261946/the-dental-clinic","imageUrl":"https://www.businesslist.com.ng/img/ng/c/1536170019-72-the-dental-clinic.jpg","phone":"+2348036067260+2349055644881+2348153862500","website":"www.thedentalclinics.org/"},{"name":"Nutrition and Health Managers","address":"6 Gemade Estate Egbeda, Lagos, Lagos","state":"Lagos","description":"We are the first of a new breed of alternative-medicine Company, with major research interest in the therapeutic role of nutrition and herbs to change the course of health management for our prospecti...","rating":"","reviews":"","location":{"lat":"6.599878278856986","lng":"3.2856093365105608"},"category":"Doctors","link":"https://www.businesslist.com.ng/company/263018/nutrition-and-health-managers","imageUrl":"https://www.businesslist.com.ng/img/ng/f/1547164278-59-nutrition-and-health-managers.png","phone":"2348033018181","website":"www.nutritionandhealthmanagers.com"},{"name":"Ricado Sunnies Nigeria Limited","address":"Hycient Richard Okoriche Close, Arepo Town, Obafemi Owode, Lagos, Ogun","state":"Ogun","description":"Ricado Sunnies (Nig.) Ltd is a wholly indigenous company set up to deliver to Nigeria and indeed Africa the best quality scientific, laboratory, and hospital equipment. We also supply quality laborato...","rating":"5.0","reviews":"1 Review","location":{"lat":"7.1202521","lng":"3.5654535"},"category":"Doctors","link":"https://www.businesslist.com.ng/company/242950/ricardo-sunnies-nigeria-limited","imageUrl":"https://www.businesslist.com.ng/img/ng/e/1496390885_29418.jpg","phone":"0803312906508172000249","website":"www.ricadosunnies.com"},{"name":"Renal Dialysis Centre","address":"19B Adeboye Solanke Street off Allen Avenue, Ikeja, Lagos","state":"Lagos","description":"Renal Dialysis Centre (RDC) provides world-class dialysis services to patients suffering from kidney disease. Renal Dialysis Centre operates as a chain-affiliated dialysis company, providing in-centre...","rating":"","reviews":"","location":{"lat":"6.603394020876164","lng":"3.3528810486877774"},"category":"Doctors","link":"https://www.businesslist.com.ng/company/255429/renal-dialysis-centre","imageUrl":"https://www.businesslist.com.ng/img/ng/g/1456912086-34-renal-dialysis-centre.jpg","phone":"081000017801-29325360700DIALYSIS","website":"www.renaldialysis-ng.com"},{"name":"Chief Ajitefa Native Doctor","address":"22 Oko baba,ijebu igbo, Ijebu-Igbo, Ogun","state":"Ogun","description":"[+2348056146550] [+2348056146550] CHIEF AJITEFA OLOGUN OLA NATIVE DOCTOR I consult oracle and I specialize in any kind of spiritual like :-{Diseases,Spiritu­al Attacks and Financial Breakthrough}{Lot...","rating":"","reviews":"","location":{"lat":"6.978222994536922","lng":"3.994050182483875"},"category":"Doctors","link":"https://www.businesslist.com.ng/company/264348/chief-ajitefa-native-doctor","imageUrl":"https://www.businesslist.com.ng/img/ng/z/1562004830-37-chief-ajitefa-native-doctor.jpg","phone":"+2348056146550","website":"www:ifadayo222.com"},{"name":"Triosed Nigeria Limited","address":"5, Owodunni Street off Toyin Street, beside. Motayo Hospital, Ikeja, Lagos, Ikeja, Lagos","state":"Lagos","description":"Triosed Nigeria Limited was incorporated in Nigeria under the Companies and Allied Matters Act of 1990, as a Limited Liability Company in the year 2006. The Company was established to provide, amongst...","rating":"","reviews":"","location":{"lat":"6.5997639143097295","lng":"3.3504000436512342"},"category":"Doctors","link":"https://www.businesslist.com.ng/company/258598/triosed-medical","imageUrl":"https://www.businesslist.com.ng/img/ng/l/1516572189-23-triosed-nigeria-limited.jpg","phone":"08028258330","website":"www.triosedmedical.com.ng"},{"name":"Havilah Eye Hospital","address":"No 35, Iya Abubakar Crescent, Off Alex Ekwueme Street, Jabi, Abuja, Abuja","state":"Abuja","description":"Havilah Eye Hospital is the leading provider of eye health services in Nigeria. We have a reputation, developed over years, for providing the highest quality of ophthalmic care. Our staff are committe...","rating":"","reviews":"","location":{"lat":"9.071927324629085","lng":"7.411168813705444"},"category":"Doctors","link":"https://www.businesslist.com.ng/company/256608/havilah-eye-hospital","imageUrl":"https://www.businesslist.com.ng/img/ng/m/1474114589-78-havilah-eye-hospital.jpg","phone":"08060297605","website":"havilaheyehospital.com"},{"name":"GNLD: A better way of life for Nigerians","address":"70 udu road, Warri, Delta","state":"Delta","description":"We are authorized gnld distributor in Nigeria. You can get your vitamins in Nigeria from us. We represent gnld international in Nigeria and outside Nigeria. To get the current gnld price list, just vi...","rating":"","reviews":"","location":{"lat":"6.518879","lng":"3.374056"},"category":"Doctors","link":"https://www.businesslist.com.ng/company/253257/gnld-a-better-way-of-life-for-nigerians","imageUrl":"https://www.businesslist.com.ng/img/ng/f/1415300329-gnld-a-better-way-of-life-for-nigerians.jpg","phone":"08035394569","website":"www.gnldnigeria.com"},{"name":"Voice of African Women for Human Dignity","address":"NO 26, CONTTON CRESCENT, WUSE 2 FCT ABUJA NIGERIA,, Abuja","state":"","description":"Ours is a charitable and advocacy NGO caring for the poor, the needy and the marginalized Prov. 31:8-98 speak up for those who cannot speak for themselves. One of the most widely spread and dangerous ...","rating":"","reviews":"","location":{"lat":"9.077772476077207","lng":"7.47103538364172"},"category":"Doctors","link":"https://www.businesslist.com.ng/company/254932/voice-of-african-women-for-human-dignity","imageUrl":"https://www.businesslist.com.ng/img/ng/x/1447756591-41-voice-of-african-women-for-human-dignity.jpg","phone":"08036817475","website":"www.vawhd.org"},{"name":"Zitadel Medicals and Diagnostics Limited","address":"Plot 417, 1st Avenue, Gwarimpa Estate 900108 Abuja, Abuja, Abuja","state":"Abuja","description":"Zitadel Medicals and Diagnostics Limited is a certified multi diagnostic centre, with fully automated, cutting edge medical equipment that guarantees fast results for your medical and diagnostic healt...","rating":"","reviews":"","location":{"lat":"9.1099","lng":"7.4042"},"category":"Doctors","link":"https://www.businesslist.com.ng/company/264064/zitadel-medicals-and-diagnostics-limited","imageUrl":"https://www.businesslist.com.ng/img/ng/e/1558965134-74-zitadel-medicals-and-diagnostics-limited.png","phone":"09069550855","website":"www.zitadelmedics.com"},{"name":"PIPO Global Caregivers","address":"Plot 4, Block 15, Aho, Ajibode, Ibadan, Oyo","state":"Oyo","description":"We take proper care of your older persons at the comfort of their home. We are registered with the Cooperate Affairs Commission and with other medical bodies in Nigeria. We render quality and affordab...","rating":"5.0","reviews":"1 Review","location":{},"category":"Doctors","link":"https://www.businesslist.com.ng/company/264080/pipo-global-caregivers","imageUrl":"https://www.businesslist.com.ng/img/ng/g/1559109559-34-pipo-global-caregivers.jpg","phone":"08120021116","website":"pipoglobal.com"}]