[{"name":"NIZAMIYE HOSPITAL","address":"NIZAMIYE HOSPITAL, PLOT 113 SECTOR S CADASTRAL ZONE,LIFECAMP,ABUJA, Abuja, Abuja","state":"Abuja","description":"Nizamiye Hospital is a Specialist Hospital into Open Heart Surgeries, Orthopaedics, Obstetrics and Gynaecology, Dental Clinic, Ophthalmology, Algology, Nuerosurgery, Anesthesiology, Internal Medicine,...","rating":"5.0","reviews":"1 Review","location":{"lat":"9.059380237107032","lng":"7.391266822814941"},"category":"Doctors","link":"https://www.businesslist.com.ng/company/257545/nizamiye-hospital","imageUrl":"https://www.businesslist.com.ng/img/ng/l/1489488067-50-nizamiye-hospital.png","phone":"09097734350","website":"www.nizamiyehospital.com"},{"name":"Urdentalplace","address":"Jubilee Hospital, behind Expoyo, Samonda, Ibadan, Ibadan, Oyo","state":"Oyo","description":"A registered social Enterprise ensuring that quality Dental treatments and materials are affordable and accessible, by installing dental Clinics in already existing private Hospitals and through creat...","rating":"5.0","reviews":"1 Review","location":{"lat":"7.4248363755668905","lng":"3.9006829261779785"},"category":"Doctors","link":"https://www.businesslist.com.ng/company/256892/urdentalplace","imageUrl":"https://www.businesslist.com.ng/img/ng/e/1528287830-57-urdentalplace.jpg","phone":"07017280229","website":"urdentalplace-ltd.business.site"},{"name":"MYVISION OPHTHALMIC EYE CLINIC","address":"Welfare Hospital Complex, New Gbagi Area, Old Ife Road, Ibadan, Ibadan, Oyo","state":"Oyo","description":"Your friendly and professional modern Eye Clinic. We offer comprehensive eye care including proper diagnostic examinations, treatment/ managementof Eye Condition s and diseases, determination of refra...","rating":"5.0","reviews":"1 Review","location":{"lat":"7.391959968308547","lng":"3.9644151581100795"},"category":"Doctors","link":"https://www.businesslist.com.ng/company/256374/myvision-ophthalmic-eye-clinic","imageUrl":"https://www.businesslist.com.ng/img/ng/b/1565335216-47-myvision-ophthalmic-eye-clinic.jpg","phone":"0803938195908089106411","website":"myvisioneyeclinic.com.ng"},{"name":"Lagos Executive Cardiovascular Clinic","address":"10b Chief Albert Iyorah Street, off Babatunde Anjous Street, Admiralty Way, Lekki Phase 1, Lagos, Nigeria, Lagos, Lagos","state":"Lagos","description":"LECC is a multidisciplinary cardiovascular and cardiac rehabilitation 24/7 facility focused on the treatment and management of cardiovascular diseases and trigger diseases using both invasive and non-...","rating":"5.0","reviews":"1 Review","location":{"lat":"6.452330519386483","lng":"3.4757566452026367"},"category":"Doctors","link":"https://www.businesslist.com.ng/company/258230/lagos-executive-cardiovascular-clinic","imageUrl":"https://www.businesslist.com.ng/img/ng/d/1498493047-38-lagos-executive-cardiovascular-clinic.jpg","phone":"08173651737","website":"www.thelecc.com"},{"name":"Critters Veterinary Centre","address":"2B Ojulari Road, Ikate Elegushi, Lekki, Lagos, Nigeria, Lagos Island, Lagos","state":"Lagos","description":"Critter is a leading Vet care centre in Lagos with a team of certified veterinary doctors ready to attend to the needs of your animals","rating":"5.0","reviews":"1 Review","location":{"lat":"6.437734026582837","lng":"3.4912213867844457"},"category":"Doctors","link":"https://www.businesslist.com.ng/company/263345/critters-veterinary-centre","imageUrl":"https://www.businesslist.com.ng/img/ng/b/1566211424-47-critters.jpg","phone":"+2348123999099","website":"critters.ng"},{"name":"Eazyhire","address":"296 Herbert Macaulay Way Yaba Lagos, Lagos, Lagos","state":"Lagos","description":"Eazyhire is Nigeria's first and only platform where people can request to hire, lease or rent anything; from items, equipment, audiovisuals, wedding gowns, to staff, services, real estate and anything...","rating":"5.0","reviews":"1 Review","location":{"lat":"6.504083483491132","lng":"3.3778967820007892"},"category":"Doctors","link":"https://www.businesslist.com.ng/company/254860/eazyhire","imageUrl":"https://www.businesslist.com.ng/img/ng/h/1446577893-53-eazyhire.jpg","phone":"08139658045","website":"www.eazyhire.com.ng"},{"name":"Ocuville Eye Center","address":"95 ogudu rd. ogudu/ ojota, Ojota, Lagos","state":"Lagos","description":"Ocuville Eye Center is a full-scope eye clinic dedicated to providing our patients with the most comprehensive, friendly, and technologically up-to-date care for their eyes and vision. We are dedicate...","rating":"5.0","reviews":"1 Review","location":{"lat":"6.5759281","lng":"3.3902332000000115"},"category":"Doctors","link":"https://www.businesslist.com.ng/company/196747/ocuville-eye-center","imageUrl":"https://www.businesslist.com.ng/img/ng/a/1385312326_25593.jpg","phone":"2348037339477","website":"www.ocuville.com"},{"name":"Beaconhill Smile clinics","address":"4 Adeola Odeku Street, Behind the Place restaurant, Victoria Island, Lagos","state":"Lagos","description":"Our practice provides a full range of dental services for all ages using state-of-the-art technology for your comfort and confidence. Come experience the difference that the highly-trained professiona...","rating":"","reviews":"","location":{"lat":"6.429467754813218","lng":"3.4099218249320984"},"category":"Doctors","link":"https://www.businesslist.com.ng/company/258098/beaconhill-smile-clinics","imageUrl":"https://www.businesslist.com.ng/img/ng/c/1540377146-90-beaconhill-smile-clinics.jpg","phone":"08125215208","website":"www.beaconhillsmile.com"},{"name":"Beatitudes Mediplex, Dialysis and Kidney centre","address":"26 Ezeogbulafor street by Finbarrs road, Umuahia, Abia","state":"Abia","description":"we are an indigenous medical, dialysis and kidney care centre with a vision of providing a comprehensive private health care in a one-stop conducive environment. We render 24 hours primary health care...","rating":"","reviews":"","location":{"lat":"5.531242637882544","lng":"7.500644002004378"},"category":"Doctors","link":"https://www.businesslist.com.ng/company/266003/beatitudes-mediplex-dialysis-and-kidney-centre","imageUrl":"https://www.businesslist.com.ng/img/ng/k/1575938728-28-beatitudes-mediplex-dialysis-and-kidney-centre.jpg","phone":"+2347067082041","website":"www.beatitudesmediplex.com"},{"name":"Purple Ice Consults LTD (Dental clinic)","address":"16 East-west rd, Rumuokoro close to saint Jude Catholic church. Beside Clendac petrol station, Port Harcourt, Rivers","state":"Rivers","description":"A dental clinic and company with up to date professional care . We give the clients optimal patient oriented care in implant dentistry, orthodontic care, child dental care, emergency dental services. ...","rating":"5.0","reviews":"1 Review","location":{"lat":"4.867872092665636","lng":"6.995196406496689"},"category":"Doctors","link":"https://www.businesslist.com.ng/company/256884/purple-ice-consults-ltd-dental-clinic","imageUrl":"https://www.businesslist.com.ng/img/ng/c/1539900179-61-purple-ice-consults-ltd-dental-clinic.jpg","phone":"08023046596","website":""},{"name":"QH Specialist Dental Clinics and Research Center","address":"Plot 145, opposite LG/Samsung office, 3rd avenue, Gwarinpa, , Abuja","state":"","description":"QH Specialist Dental Clinics & Reseach Center is a contemporary Dental Care Centre, equipped with state of the art gadgets. The centre aims at long-term oral health for a healthy and smiling generatio...","rating":"5.0","reviews":"1 Review","location":{"lat":"9.282639351154925","lng":"7.395052093749999"},"category":"Doctors","link":"https://www.businesslist.com.ng/company/266707/qh-specialist-dental-clinics-and-research-center","imageUrl":"https://www.businesslist.com.ng/img/ng/s/1582165910-55-qh-specialist-dental-clinics-and-research-center.png","phone":"+234 8054929034+234 7052200501","website":"www.qhspecialistdentalclinics.com"},{"name":"Maven veterinary consult","address":"Tricia plaza government house /Anwii road beside First Bank at interbau round about Asaba, Delta state., Asaba, Delta","state":"Delta","description":"Maven veterinary consult is a leading veterinary establishment providing best quality petcare and veterinary services to our numerous client over the years. We also have a petshop where you can dog fo...","rating":"","reviews":"","location":{"lat":"6.216426476521158","lng":"6.7035332023359615"},"category":"Doctors","link":"https://www.businesslist.com.ng/company/264943/maven-veterinary-consult","imageUrl":"https://www.businesslist.com.ng/img/ng/g/1566919846-38-maven-veterinary-consult.jpg","phone":"07036909584","website":"www.facebook.com/mavenvetconsult/"},{"name":"Living-spring physiotherapy clinic","address":"3 ejire street, isheri-igando Lagos, Ikeja, Lagos","state":"Lagos","description":"Living spring physiotherapy is a private mobile clinic(home and office visit) that treat and rehabilitate medical and surgical conditions that needs physiotherapy attention. Conditions such as neck pa...","rating":"5.0","reviews":"1 Review","location":{"lat":"6.587094943338595","lng":"3.463319916015621"},"category":"Doctors","link":"https://www.businesslist.com.ng/company/261630/living-spring-physiotherapy-clinic","imageUrl":"https://www.businesslist.com.ng/img/ng/r/1573414671-78-living-spring-physiotherapy-clinic.png","phone":"08169886650","website":""},{"name":"Phytoscience Nigeria","address":"32, Pentagon Plaza, Opposite Chrisland Schools, Opebi, Ikeja Ikeja LGA 100271 Lagos Nigeria, Lagos, Lagos","state":"Lagos","description":"PHYTOSCIENCE... We are the trend makers. Fundamental Solution To Human Health and Wealth WHAT ARE STEM CELLS? stem cells are mother cells that have the potential to become any type of cell in the body...","rating":"","reviews":"","location":{"lat":"6.5893734","lng":"6.5893734"},"category":"Doctors","link":"https://www.businesslist.com.ng/company/266108/phytoscience-nigeria","imageUrl":"https://www.businesslist.com.ng/img/ng/r/1576865319-24-phytoscience-nigeria.jpg","phone":"+234703 978 8705","website":"phytoscienceafrica.business.site"},{"name":"AMARA MEDICARE","address":"Plot 76B Eleganza Gardens (opposite VGC), Ajah, Lagos, Lagos","state":"Lagos","description":"AMARA MEDICARE is a specialist healthcare company focused on the provision of ophthalmic (eye), dental, ENT services. We have 4 centers currently: 1. Plot 76B Eleganza Gardens (opposite VGC), Ajah 2. ...","rating":"","reviews":"","location":{"lat":"6.461250610033758","lng":"3.557368892913817"},"category":"Doctors","link":"https://www.businesslist.com.ng/company/267342/amara-medicare","imageUrl":"https://www.businesslist.com.ng/img/ng/h/1586554694-83-amara-medicare.jpg","phone":"234-8150376696","website":"www.amaramedicare.com"},{"name":"Cosan Clinic","address":"Behind LG Primary School(along Petu Oloja Road) Igbe Laara off Ijede Road Ikorodu , Ikorodu, Lagos","state":"Lagos","description":"Cosan Clinic is a Health care facility which provides compassionate and prompt Health care for all. Our Services are :Childcare, Adolescent &Adult care, Maternity, 24hour emergency services, surgery, ...","rating":"5.0","reviews":"1 Review","location":{"lat":"6.585539115374078","lng":"3.566702349063121"},"category":"Doctors","link":"https://www.businesslist.com.ng/company/261690/cosan-clinic","imageUrl":"https://www.businesslist.com.ng/img/ng/r/1533633041-55-cosan-clinic.jpg","phone":"08033574249 : 09029223853","website":""},{"name":"Royal Animal World","address":"No. 29, Old Anwai Road, by Zanzibar Resort, Asaba, Asaba, Delta","state":"Delta","description":"Royal Animal World is a fast-growing animal health care brand that offers excellent professional veterinary services which include clinical services and surgery for pets, poultry & livestock; house ca...","rating":"5.0","reviews":"1 Review","location":{"lat":"6.2137562819391245","lng":"6.708599704986568"},"category":"Doctors","link":"https://www.businesslist.com.ng/company/265884/royal-animal-world","imageUrl":"https://www.businesslist.com.ng/img/ng/a/1583314431-47-royal-animal-world.jpg","phone":"08163403555","website":"royalanimalworld.business.site"},{"name":"Eyecare NG","address":"Kesona Eye Centre, 121 Itire Road, Lawanson, Surulere, Lagos., Lagos, Lagos","state":"Lagos","description":"Eyecare NG is an eye care promotion and development agency dedicated to helping consumers protect and maximize their vision for better performance. We inform, educate and empower people with the skill...","rating":"5.0","reviews":"1 Review","location":{"lat":"6.512577926221925","lng":"3.3494345210392567"},"category":"Doctors","link":"https://www.businesslist.com.ng/company/261072/eyecare-ng","imageUrl":"https://www.businesslist.com.ng/img/ng/z/1544009984-82-eyecare-ng.jpg","phone":"08057432289","website":"www.eyecareng.com"},{"name":"Silverspring Eye Clinic","address":"plot 12 Ikenegbu Extension, Owerri, off MCC Road by Lodan Junction, Opp Lodan Hotel, Owerri, Imo","state":"Imo","description":"An Eye Clinic and Optical Dispensary providing our patients with comprehensive friendly and technologically up-to-date eye care in a comfortable and family oriented clinic environment. Our services in...","rating":"5.0","reviews":"1 Review","location":{"lat":"5.486300555365154","lng":"7.04186350107193"},"category":"Doctors","link":"https://www.businesslist.com.ng/company/255339/silverspring-eye-clinic","imageUrl":"https://www.businesslist.com.ng/img/ng/k/1564996752-27-silverspring-eye-clinic.jpg","phone":"08092355984","website":"www.silverspringeyecare.org"},{"name":"Rocaprosthetics Ortho Care Enterprises","address":"20 owulade Avenue Irawo bus stop Owode Ajegunle off ikorodu road, Lagos, Lagos","state":"Lagos","description":"At Rocaprosthetics Ortho care centre we specialized in fitting and fabrication of Prosthesis device( Artificial Limb), using imported components and we design orthosis device( brace,calipers) with hig...","rating":"5.0","reviews":"1 Review","location":{"lat":"6.6045523003380415","lng":"3.4199050131800277"},"category":"Doctors","link":"https://www.businesslist.com.ng/company/260933/rocaprosthetics-ortho-care-enterprises","imageUrl":"https://www.businesslist.com.ng/img/ng/h/1526964947-88-rocaprosthetics-ortho-care-centre.jpg","phone":"0802907356407031548820","website":""},{"name":"The Fertility Centre. (THE HOSPITAL)","address":"21 Raji Oladimeji Cres, Off CMD Road, Magodo, Lagos, Lagos","state":"Lagos","description":"From The Fertility Centre (THE HOSPITAL) 'The Fertility Centre (Julianah Akande Fertility Centre is a dedicated Unit within Strategic Insight Healthcare or THE HOSPITAL as a fertility and Obstetrics/G...","rating":"","reviews":"","location":{"lat":"6.620528863067885","lng":"3.366368003789944"},"category":"Doctors","link":"https://www.businesslist.com.ng/company/263443/the-fertility-centre-the-hospital","imageUrl":"https://www.businesslist.com.ng/img/ng/x/1551798479-72-the-fertility-centre-the-hospital.jpg","phone":"+2348188343865","website":"www.the-hospitals.com"},{"name":"Paternity Test Nigeria","address":"79 Bamgbose Street, Lagos Island. Lagos, Lagos Island, Lagos","state":"Lagos","description":"DNA Paternity Test Nigeria results are guaranteed to have either a 99.99% probability of paternity for inclusions (99.9% without the mother) or a 0% probability of paternity for exclusions. Testing is...","rating":"","reviews":"","location":{"lat":"6.4527249716577515","lng":"3.3936595916748047"},"category":"Doctors","link":"https://www.businesslist.com.ng/company/254504/paternity-test-nigeria","imageUrl":"https://www.businesslist.com.ng/img/ng/a/1440097737-53-paternity-test-nigeria.png","phone":"08021468075","website":"www.paternitytestnigeria.com"},{"name":"PARKERS MOBILE CLINIC","address":"13 Oraukwu Crescent ,Nkpor ,Anambra, Onitsha, Anambra","state":"Anambra","description":"Parkers mobile clinic is a health care service Centre , with a mission to provide high-quality home based health care as well as professional personal care and home support for individuals (the elderl...","rating":"5.0","reviews":"1 Review","location":{"lat":"5.99853317432934","lng":"6.800537109375"},"category":"Doctors","link":"https://www.businesslist.com.ng/company/256977/parkers-mobile-clinic","imageUrl":"https://www.businesslist.com.ng/img/ng/k/1564577144-59-divine-healing-specialist-hospital.jpg","phone":"08061674466","website":"www.facebook.com/parkershealth"},{"name":"HPLINK TRAVELS AND TOURS LIMITED","address":"5 OLAKUNLE AJIBADE STR OFF OGUDU RD OJOTA, Lagos, Lagos","state":"Lagos","description":"HPLink Travels and Tours Ltd is a travel management agency with a 4year history of active participation in the Nigerian travel market. Each of these 4years was spend providing travel solutions to indi...","rating":"","reviews":"","location":{"lat":"6.586021466552183","lng":"3.385108709335327"},"category":"Doctors","link":"https://www.businesslist.com.ng/company/254568/hplink-travels-and-tours-ltd","imageUrl":"https://www.businesslist.com.ng/img/ng/l/1455108681-42-hplink-travels-and-tours-ltd.jpg","phone":"012930804","website":"www.hplinktravels.com"},{"name":"HG Energy And Gas Limited","address":"12, Aguruji Avenue, Rumigbo, Port Harcourt, Rivers","state":"Rivers","description":"An oil and gas service company that does petroleum reservoir studies, petroleum products marketing, construction in both civil and oil and gas pipe line construction.","rating":"5.0","reviews":"1 Review","location":{"lat":"4.784821","lng":"7.005453"},"category":"Doctors","link":"https://www.businesslist.com.ng/company/218093/hg-energy-and-gas-limited","imageUrl":"https://www.businesslist.com.ng/img/ng/s/1588754317-51-hg-energy-and-gas-limited.jpg","phone":"0803340149508092099407","website":"www.hgenergyandgasltd.com"},{"name":"Paramount Lifecare","address":"plot 1093, 4th Ave, Festac Town, Lagos, Lagos","state":"Lagos","description":"Paramount Life Care has emerged as the pioneers in diagnostic imaging and laboratory tests in Nigeria.Our commitment to quality and our philosophy of putting the patient first always has ensured that ...","rating":"","reviews":"","location":{"lat":"6.476258","lng":"3.284944"},"category":"Doctors","link":"https://www.businesslist.com.ng/company/260577/paramount-lifecare","imageUrl":"https://www.businesslist.com.ng/img/ng/f/1523546119-98-paramount-lifecare.jpg","phone":"09086325675","website":"paramountlifecare.com"},{"name":"El-rapha Hospital","address":"El-Rapha Hospitals and Diagnostics Plot #930 Salihu Iliyasu Street, Life Camp, Abuja, Nigeria., Abuja, Abuja","state":"Abuja","description":"El-Rapha Hospital is a place dedicated to transforming the patient and family experience through innovative and collaborative approaches to care, knowledge and leadership. We offer an integrated range...","rating":"","reviews":"","location":{"lat":"9.06138","lng":"7.49801"},"category":"Doctors","link":"https://www.businesslist.com.ng/company/267301/el-rapha-hospital","imageUrl":"https://www.businesslist.com.ng/img/ng/j/1586174730-53-el-rapha-hospital.jpg","phone":"+234 909 888 9013","website":"elraphahospital.com.ng/"},{"name":"BFI Organic India","address":"7, Majekodunmi Street, Off Allen-Avenue Ikeja, Lagos, Nigeria , Ikeja, Lagos","state":"Lagos","description":"All products from the stable of Organic India are approved by the United States Department of Agriculture, USDA, EU Organic Certification and the National Agency for Food, Drugs Administration and Con...","rating":"","reviews":"","location":{"lat":"6.597958584192453","lng":"3.351593588360629"},"category":"Doctors","link":"https://www.businesslist.com.ng/company/255991/bfi-organic-india","imageUrl":"https://www.businesslist.com.ng/img/ng/z/1465726983-61-bfi-organic-india.jpg","phone":"08033567724","website":"www.bfiorganicindia.co/"},{"name":"Primeview Eye Center","address":"The Blossom Place, Sars road,by Akwaka junction, Rukpokwu, PH, Rivers","state":"","description":"Primeview Eye Center is an eye clinic located at Sars road Rukpokwu which Eyecare professionals offer comprehensive eye tests and treatments using up-to-date equipment. We want to make Eyecare both ac...","rating":"5.0","reviews":"1 Review","location":{"lat":"4.895092105543471","lng":"6.994185227638241"},"category":"Doctors","link":"https://www.businesslist.com.ng/company/265993/primeview-eye-center","imageUrl":"https://www.businesslist.com.ng/img/ng/z/1575898990-11-primeview-eye-center.jpg","phone":"08169398883","website":"www.primevieweyecare.com"}]