[{"name":"FamilyCare Hospital","address":"108 AIT/Elebele road, Opolo, Yenagoa, Yenagoa, Bayelsa","state":"Bayelsa","description":"FamilyCare Hospital is a multi-specialty hospital located in the heart of Bayelsa State, Nigeria. It offers state-of-the-art diagnostic, therapeutic and intensive care facilities in a one-stop medical...","rating":"5.0","reviews":"1 Review","location":{},"category":"Doctors","link":"https://www.businesslist.com.ng/company/260245/familycare-hospital","imageUrl":"https://www.businesslist.com.ng/img/ng/c/1520351177-80-familycare-hospital.jpg","phone":"08155000405","website":"www.familycarehospital.com.ng"},{"name":"Greymate Care","address":"1 Ado Ibrahim Off Montgomery road yaba , Ikeja, Lagos","state":"Lagos","description":"Greymate Care connects the elderly and disabled to a caregiver within minutes. We train our staff and run background checks on them periodically. Call us when you need a nanny/caregiver for your paren...","rating":"","reviews":"","location":{"lat":"6.515225772797996","lng":"3.383209705352783"},"category":"Doctors","link":"https://www.businesslist.com.ng/company/257510/greymate-care","imageUrl":"https://www.businesslist.com.ng/img/ng/x/1489055045-88-greymate-care.jpg","phone":"+2349090904226","website":"www.greymatecare.com"},{"name":"HAVEN DENTAL CLINIC","address":"Suite A9/10, D Cherub Mall, Opposite Alpha Beach Junction, Lekki-Epe Expressway, Lekki, Lagos, Nigeria., Lagos, Lagos","state":"Lagos","description":"Haven dental clinic is an ultra modern, multi specialty dental practice that places premium on high quality, convenient and affordable dental services using cutting edge technology for best results. W...","rating":"","reviews":"","location":{"lat":"6.440135613432429","lng":"3.526287124560554"},"category":"Doctors","link":"https://www.businesslist.com.ng/company/257991/haven-dental-clinic","imageUrl":"https://www.businesslist.com.ng/img/ng/f/1494427291-95-haven-dental-clinic.png","phone":"07045212250","website":"www.havendentalclinic.com.ng"},{"name":"LIFESOURCE Hospital","address":"Plot 10, Jajo Estate, Off Mowo-nla road, Off Ijede Road, Ikorodu, Lagos, Ikorodu, Lagos","state":"Lagos","description":"LIFESOURCE Hospital is an NHIS-accredited and registered facility with the Corporate Affairs Commission of Nigeria and Lagos State Health Facility Monitoring and Accreditation Agency in 2014. The oper...","rating":"","reviews":"","location":{"lat":"6.572088237051992","lng":"3.596529144531246"},"category":"Doctors","link":"https://www.businesslist.com.ng/company/257827/lifesource-hospital","imageUrl":"https://www.businesslist.com.ng/img/ng/g/1492604672-77-lifesource-hospital.jpg","phone":"+234-01-2916130","website":""},{"name":"South Shore Women's and Children's Hospital","address":"1717, Mike Adenuga Close, off Adeola Odeku, Victoria Island, Lagos, Victoria Island, Lagos","state":"Lagos","description":"The hospital is dedicated to the provision of exceptional patient centred medical care to our clients, based on current international best practices. Our team consists of professionals who have been w...","rating":"","reviews":"","location":{"lat":"6.429249196955952","lng":"3.4133604168891907"},"category":"Doctors","link":"https://www.businesslist.com.ng/company/259245/south-shore-womens-and-childrens-hospital","imageUrl":"https://www.businesslist.com.ng/img/ng/e/1508401502-57-south-shore-women-s-and-children-s-hospital.png","phone":"08074617023","website":"www.southshorewch.com"},{"name":"Humanity Hospital","address":"3 Humanity Close Enerhen, Delta, Warri, Delta","state":"Delta","description":"Humanity Hospital Ltd is a multi specialty facility located in Effurun, Warri. The Hospital provides comprehensive primary, secondary and tertiary care with up to date facilities held to the highest s...","rating":"","reviews":"","location":{"lat":"5.54531","lng":"5.782611"},"category":"Doctors","link":"https://www.businesslist.com.ng/company/162099/humanity-hospital","imageUrl":"https://www.businesslist.com.ng/img/ng/a/1571985532_50727.png","phone":"0803-5798-575","website":"www.humanityhospitals.com"},{"name":"Effective Physiotherapy & Fitness Clinic","address":"No 2, D Close (Ajumgobia F.I.A. Close) Kado Estate, Abuja, Abuja, Abuja","state":"Abuja","description":"Effective Physiotherapy & Fitness Clinic has been serving patients in the Abuja and areas around Nigeria since 2010. Our Physical Therapy Clinic is made up of highly skilled medical professionals who ...","rating":"","reviews":"","location":{"lat":"9.078066684212889","lng":"7.413136840041261"},"category":"Doctors","link":"https://www.businesslist.com.ng/company/259796/effective-physiotherapyfitness-clinic","imageUrl":"https://www.businesslist.com.ng/img/ng/r/1515574613-41-effective-physiotherapy-fitness-clinic.jpg","phone":"08118856060","website":"www.effectivephysio.com"},{"name":"Flying Doctors Nigeria","address":"Hanger 1, Gate 1, 2nd Floor, Quits Aviation, Murtala Mohammed International Airport, Lagos , Lagos, Lagos","state":"Lagos","description":"We are West Africa's first and leading air ambulance service covering West/Central Africa and beyond. We provide aeromedical medical transport services, air ambulance transfers, ground ambulance trans...","rating":"","reviews":"","location":{},"category":"Doctors","link":"https://www.businesslist.com.ng/company/263398/flying-doctors-nigeria","imageUrl":"https://www.businesslist.com.ng/img/ng/h/1551210889-62-flying-doctors-nigeria.jpg","phone":"07035097761","website":"www.flyingdoctorsnigeria.com/"},{"name":"Lifelink Fertility Clinic","address":"27, Oladipo bateye Street Ikeja GRA , Ikeja, Lagos","state":"Lagos","description":"We offer our clients the best chance of getting pregnant within the shortest possible time. We are fully client centric, with strict attention to detail. We pride ourselves in offering bespoke persona...","rating":"","reviews":"","location":{"lat":"6.575823914094375","lng":"3.3453042770519232"},"category":"Doctors","link":"https://www.businesslist.com.ng/company/265026/lifelink-fertility-clinic","imageUrl":"https://www.businesslist.com.ng/img/ng/h/1567679458-10-lifelink-fertility-clinic.jpg","phone":"08033083580","website":"www.lifelinkfertility.com"},{"name":"Health Partners HMO Limited","address":"25, Ribadu Road, South West, Ikoyi,P.O.Box 51791 Falomo, Ikeja, Lagos","state":"Lagos","description":"Health Partners Limited, a Health Maintenance Organization (HMO), duly incorporated with the Corporate Affairs Commission (CAC) and fully accredited by the National Health Insurance Scheme (NHIS). Hea...","rating":"","reviews":"","location":{"lat":"6.443801746552719","lng":"3.418126702308655"},"category":"Doctors","link":"https://www.businesslist.com.ng/company/101760/health-partners","imageUrl":"https://www.businesslist.com.ng/img/ng/d/1490688860-37-health-partners.jpg","phone":"0807-714-0759","website":"www.healthpartners.org"},{"name":"WHITEROYAL HOSPITAL","address":"NO 8 ALHAJI MOMODU CLOSE, NEAR ZENITH BANK, OFF HOSPITAL ROAD, EKPAN DELTA STATE, Warri, Delta","state":"Delta","description":"A health care facility in Warri Delta State that provides SPECIALIST CARE ULTRASOUND/GENERAL RADIOLOGY LABORATORY SURGICAL ","rating":"4.0","reviews":"1 Review","location":{"lat":"5.566168328558853","lng":"5.756564244580837"},"category":"Doctors","link":"https://www.businesslist.com.ng/company/267745/whiteroyal-hospital","phone":"0701 933 8173","website":""},{"name":"Avon HMO","address":"29 Rumens Road Ikoyi, Lagos, Lagos","state":"Lagos","description":"Avon Healthcare Limited is a health insurance company in Nigeria duly registered by the regulatory authority (NHIS) to operate as a national HMO in October 2012 but commenced operations in 2013. Avon ...","rating":"","reviews":"","location":{"lat":"6.4478955754192775","lng":"3.4296923875808716"},"category":"Doctors","link":"https://www.businesslist.com.ng/company/258983/avon-hmo","phone":"0700-277-9800","website":"www.avonhealthcare.com/"},{"name":"Dovers Dental","address":"10a Emma Abimbola Cole, Lekki Phase 1, Lagos, Lagos, Lagos","state":"Lagos","description":"We utilise the finest resources, skills, and innovations to bring out your best smile and overall health in the most relaxing and creative atmosphere!' ","rating":"","reviews":"","location":{"lat":"6.442429","lng":"3.480605"},"category":"Doctors","link":"https://www.businesslist.com.ng/company/263114/dovers-dental","imageUrl":"https://www.businesslist.com.ng/img/ng/e/1548342135-43-dovers-dental.png","phone":"08063737929","website":"doversdental.com"},{"name":"Corporatephysio","address":"Femi Okunnu Lekki Lagos, Lagos, Lagos","state":"Lagos","description":"We are a company with a passion for addressing the escalating incidence of low back pain and neck pain especially among office workers. Low back pain and neck pain has been shown to cause huge financi...","rating":"","reviews":"","location":{"lat":"6.438513835374333","lng":"3.506591320037842"},"category":"Doctors","link":"https://www.businesslist.com.ng/company/256909/corporatephysio","imageUrl":"https://www.businesslist.com.ng/img/ng/a/1478775278-82-corporatephysio.jpg","phone":"08053165091","website":""},{"name":"Forst Eye Clinic (Ogba)","address":"No. 14 Kayode Street, Off Ijaiye Road, between Tastee Fried Chicken and Normal Children School, By Caterpillar Bus-stop, Ogba-Ikeja, Lagos. Nigeria., Ikeja, Lagos","state":"Lagos","description":"First Eye Clinic, now Forst Eye Clinic was established in 1992, and currently operates in 3 locations in Lagos Metropolis. Dr. Akuete Veronica is the Medical Director of Forst Eye Clinic. We conduct a...","rating":"5.0","reviews":"1 Review","location":{},"category":"Doctors","link":"https://www.businesslist.com.ng/company/259740/forst-eye-clinic-ogba","imageUrl":"https://www.businesslist.com.ng/img/ng/m/1527235276-49-forst-eye-clinic-ogba.png","phone":"08033435554","website":"forsteyeclinic.com/"},{"name":"MediEase Hospitality Services","address":"#7, 10th cross, Vasath Nagar, bangalore, Port Harcourt, Rivers","state":"Rivers","description":"MediEase Hospitality Services, the competently managed Indian enterprise specialises in medical tourism services to India. Our prime endeavour is to provide a comprehensive and reliable source to make...","rating":"","reviews":"","location":{"lat":"12.99133856137494","lng":"77.59239311063845"},"category":"Doctors","link":"https://www.businesslist.com.ng/company/196756/mediease-hospitality-services","imageUrl":"https://www.businesslist.com.ng/img/ng/z/1385545525_31952.jpg","phone":"009108041235560","website":"www.medieaseindia.com"},{"name":"Royal Victoria Medical Centre","address":"Plot 37, Golden Spring Estate, Lokogoma Expressway, Abuja, Abuja","state":"","description":"Royal Victoria Medical Centre is a hospital committed to providing easy access to quality health services for residents within Abuja, and its environs. The hospital is a leader in the management of mo...","rating":"","reviews":"","location":{"lat":"8.9884331","lng":"7.445971800000052"},"category":"Doctors","link":"https://www.businesslist.com.ng/company/262682/royal-victoria-medical-centre","imageUrl":"https://www.businesslist.com.ng/img/ng/k/1543323914-26-royal-victoria-medical-centre.jpg","phone":"09020925705","website":"www.royalvictoriamedicalcentre.com"},{"name":"TrueSmiles Dental Clinic","address":"Woji Road, By Railway, Woji Port Harcourt, Port Harcourt, Rivers","state":"Rivers","description":"We are a family-centred dental practice. We offer a full range of dental services including childrenâ€™s dentistry and orthodontics. What sets us apart from the rest? We understand that a trip to the ...","rating":"","reviews":"","location":{"lat":"4.837641698665197","lng":"7.047515352959181"},"category":"Doctors","link":"https://www.businesslist.com.ng/company/260382/truesmiles-dental-clinic","imageUrl":"https://www.businesslist.com.ng/img/ng/n/1527181250-53-truesmiles-dental-clinic.png","phone":"+2348036532254","website":"www.truesmilesdc.com"},{"name":"Fertil-24","address":"1 Chief Amadi Street, Opp OpenDoors Church, Off Ada George Road, Port Harcourt., Port Harcourt, Rivers","state":"Rivers","description":"Fertil-24 is a well-established company based in Nigeria, focusing on various aspects of natural fertility, infertility, and reproductive health, with a range of completely natural products to support...","rating":"","reviews":"","location":{},"category":"Doctors","link":"https://www.businesslist.com.ng/company/196595/fertil-24","imageUrl":"https://www.businesslist.com.ng/img/ng/j/1573127469-84-fertil-24.jpg","phone":"0818 580 1242","website":"www.fertil24.com"},{"name":"RAIN INTERNATIONAL SOUL CORE AND BEND NIGERIA","address":"21, Aderibigbe street, Lagos, Lagos, Lagos","state":"Lagos","description":"Rain International Soul Core and Bend Nigeria is an independent distributor of Rain International products in Nigeria. We are a globally certified distributor of Rain products; Rain Soul , Rain Core, ...","rating":"","reviews":"","location":{},"category":"Doctors","link":"https://www.businesslist.com.ng/company/267239/rain-international-soul-core-and-bend-nigeria","imageUrl":"https://www.businesslist.com.ng/img/ng/b/1585498762-76-rain-international-soul-core-and-bend-nigeria.jpg","phone":"08132822453","website":"www.rain-international-soul-core-and-bend.business.site"},{"name":"Rainbow Dental Clinic","address":"5, Igun Street,Behind Central Bank of Nigeria, Ring Road, , Benin City, Edo","state":"Edo","description":"Rainbow dental clinic is a cutting edge dental clinic located in the heart of Benin city,Edo state ,Nigeria. Established in 2014 and registered with the Cooperate Affairs Commission of Nigeria,it has ...","rating":"","reviews":"","location":{"lat":"6.333639827689867","lng":"5.626555681228638"},"category":"Doctors","link":"https://www.businesslist.com.ng/company/259520/rainbow-dental-clinic","imageUrl":"https://www.businesslist.com.ng/img/ng/e/1511880040-47-rainbow-dental-clinic.jpg","phone":"+2348061344613","website":"www.rainbowdentalclinic.com.ng"},{"name":"Rejoice Supermarket","address":"Olabisi Onabanjo Way, Adjacent, Federal Medical Center, Idi aba Abeokuta, Abeokuta, Ogun","state":"Ogun","description":"Our hub houses Supermarket, and other business hub for various services. We have wholesale and retail services for various consumables good and electronic products within the Super market","rating":"","reviews":"","location":{"lat":"7.150824449837364","lng":"3.353492631411128"},"category":"Doctors","link":"https://www.businesslist.com.ng/company/267303/rejoice-supermarket","imageUrl":"https://www.businesslist.com.ng/img/ng/k/1586187900-13-rejoice-supermarket.jpg","phone":"08033951511","website":"www.rejoicesupermart.com"},{"name":"Silvergate Travels & Tours Ltd","address":"35B Bode Thomas Steet, Surulere, Lagos, Lagos","state":"Lagos","description":"Silvergate Travels and Tours ltd is a registered Travel solution provider, set to manage all forms of travel requirements including Visa procurement, Ticketing, Hotel Reservation, airport transfer, ca...","rating":"","reviews":"","location":{"lat":"6.488865355359513","lng":"3.3503144679707475"},"category":"Doctors","link":"https://www.businesslist.com.ng/company/254610/silvergate-travelstours-ltd","imageUrl":"https://www.businesslist.com.ng/img/ng/b/1442223507-82-silvergate-travels-tours-ltd.jpg","phone":"09030142922","website":""},{"name":"KATIS MEDICAL CENTRE","address":"1, SHAMSIDEEN JAYESIMI STREET, AGA, IKORODU, Ikorodu, Lagos","state":"Lagos","description":"Katis Medical Centre is a new modern specialist hospital where the welfare of our patients is our main goal. We have specialists in all fields of medicine","rating":"","reviews":"","location":{"lat":"6.60586","lng":"3.50693"},"category":"Doctors","link":"https://www.businesslist.com.ng/company/266950/katis-medical-centre","imageUrl":"https://www.businesslist.com.ng/img/ng/d/1583503233-54-katis-medical-centre.jpg","phone":"08023814028","website":""},{"name":"Mark Of Glory Specialist Hospital, Owerri","address":"MCC road Owerri branch : No.30 MCC road, between ITC park and TRACAS park, Owerri. Irete branch : No. 3 Emeremadu str, off Umuoba rd, by first bus stop junction, Onitsha road, Irete, Owerri, Imo State. , Owerri, Imo","state":"Imo","description":"Mark Of Glory Specialist Hospital,Owerri, Imo State, Nigeria, is a multi-specialist hospital owned by Mark Of Glory ltd and has different medical specialist / consultants and some experienced medical ...","rating":"","reviews":"","location":{"lat":"5.487807831358377","lng":"7.043815341906225"},"category":"Doctors","link":"https://www.businesslist.com.ng/company/255802/mark-of-glory-specialist-hospital-owerria-subsidiary-of-mark-of-glory-","imageUrl":"https://www.businesslist.com.ng/img/ng/j/1534648152-24-mark-of-glory-specialist-hospital-owerri.jpg","phone":"08059498186 (mgt /quality control)09055290619(mgt 2)","website":"www.markofglory.com"},{"name":"Travcure Medical Tourism Consultants","address":"abuja, Aba, Abuja","state":"Abuja","description":"Travcure Medical Tourism Consultants is a specialized medical tourism company offering affordable medical facilities complemented with rich sightseeing. We are the skilled consultants having wide indu...","rating":"5.0","reviews":"1 Review","location":{},"category":"Doctors","link":"https://www.businesslist.com.ng/company/254955/travcure-medical-tourism-consultants","imageUrl":"https://www.businesslist.com.ng/img/ng/e/1479200395-29-travcure-medical-tourism-consultants.jpg","phone":"+918600044116","website":"travcure.com/"},{"name":"Peace-Trade","address":"Peace plaza no 21friesland road opp st.Josephs Catholic church,near national veterinary institute vom pleatus state , Jos, Plateau, Nigeria, Jos, Plateau","state":"Plateau","description":"The fuelless/noiseless generator is a new technology that is completely safe and reliable. This generator am talking about is a new source of a powerful product which does not make use of fuel nor die...","rating":"","reviews":"","location":{},"category":"Doctors","link":"https://www.businesslist.com.ng/company/264884/peace-trade","imageUrl":"https://www.businesslist.com.ng/img/ng/c/1566528054-27-peace-trade.jpg","phone":"08140426565","website":"www.peacetrade.com.ng"},{"name":"Menthand physiotherapy clinic","address":"PLOT 366, FEDERAL HOUSING, LUGBE FEDERAL CAPITAL T, ABUJA, Abuja, Abuja","state":"Abuja","description":"we offer the best physiotherapy services with our state of heart equipment and experienced physiotherapists on ground to offer the best service and add life to your years. we make sure you enjoy your ...","rating":"5.0","reviews":"1 Review","location":{},"category":"Doctors","link":"https://www.businesslist.com.ng/company/265341/menthand-physiotherapy-clinic","imageUrl":"https://www.businesslist.com.ng/img/ng/h/1570317839-50-menthand-physiotherapy-clinic.jpg","phone":"08055593861","website":"www.menthandphysio.com"},{"name":"KLATREK CONSULTS LTD","address":"67 Anwai road , Asaba, Delta","state":"Delta","description":"Veterinary clinic with standby veterinary doctor on duty always, petshop for all accessories, Poultry, fish, and small animal practice. Wholesale and retail of animal consumables. ","rating":"","reviews":"","location":{"lat":"6.219861471856322","lng":"6.705149830955861"},"category":"Doctors","link":"https://www.businesslist.com.ng/company/261800/klatrek-consults-ltd","imageUrl":"https://www.businesslist.com.ng/img/ng/l/1534557726-75-klatrek-consults-ltd.png","phone":"+2348037783784","website":"www.klatrek.com"},{"name":"MAAV PHYSIOCARE NIGERIA LIMITED","address":"9 odogbolu street Aguda Surulere , Lagos, Lagos","state":"Lagos","description":"Maav physiocare is a registered company that delivers health care services at the comfort of your home. We manage pain from underlying medical conditions such as; lowback pain, knee osteoarthritis , h...","rating":"5.0","reviews":"1 Review","location":{},"category":"Doctors","link":"https://www.businesslist.com.ng/company/258783/maav-physiocare","imageUrl":"https://www.businesslist.com.ng/img/ng/l/1503175902-18-maav-physiocare.png","phone":"08159820467","website":""}]