[{"name":"Abj Consolidated Nig. Ltd","address":"7 Diamond Close off old karu, Abuja, Abuja","state":"","description":"NATURE OF BUSINESS: 1. Supply of high quality medical/ laboratory equipment 2. Supply of reagents/consumables 3. Installation, maintenance, repairs of various medical equipment 4. Consultancy/ Trainin...","rating":"","reviews":"","location":{"lat":"6.5083701","lng":"3.38424729999997"},"category":"Doctors","link":"https://www.businesslist.com.ng/company/162727/abj-consolidated-nig-ltd","imageUrl":"https://www.businesslist.com.ng/img/ng/s/1400509638_65756.jpg","phone":"+2348063641215","website":"http:/surehealthplus"},{"name":"Platinum Dental Surgery","address":"106, Aladelola street, Ikosi ketu. Lagos, Lagos, Lagos","state":"Lagos","description":"Platinum Dental Surgery clinic is a customer oriented dental care center providing affordable dental services for you ranging from cosmetic dentistry to gum treatment childhood dentistry and general d...","rating":"","reviews":"","location":{"lat":"6.5987207054463655","lng":"3.385913372039795"},"category":"Doctors","link":"https://www.businesslist.com.ng/company/254175/platinum-dental-surgery","imageUrl":"https://www.businesslist.com.ng/img/ng/b/1579623986-27-platinum-dental-surgery.jpg","phone":"","website":"www.platinumdental.com.ng"},{"name":"Grandview Eye Clinic","address":"Golfview Hotel & Suites, 12 Gen Adeyinka Adebayo Road (Works Road) GRA Ikeja, Lagos., Ikeja, Lagos","state":"Lagos","description":"Grandview Eye Clinic is an out patient eye centre with state of the art equipment, poised in delivering quality eye care services of international standard. ","rating":"5.0","reviews":"1 Review","location":{"lat":"6.581800867111534","lng":"3.344542980194092"},"category":"Doctors","link":"https://www.businesslist.com.ng/company/255268/grandview-eye-clinic","imageUrl":"https://www.businesslist.com.ng/img/ng/j/1453975264-33-grandview-eye-clinic.jpg","phone":"+2347034975234","website":""},{"name":"Kelina Hospital","address":"Plot 123, 3rd Avenue, by 34 Crescent, Gwarinpa, Abuja, Abuja, Abuja","state":"Abuja","description":"Abuja Surgical Hospital: Urology: Kidney Stone and Prostate Laser Surgery; ENT Surgery, Gynaecology, General Medicine. Kelina Hospital is recognized by the Nigerian National Investment Promotion Counc...","rating":"","reviews":"","location":{"lat":"9.107233470906571","lng":"7.404326032263157"},"category":"Doctors","link":"https://www.businesslist.com.ng/company/252889/kelina-hospital","imageUrl":"https://www.businesslist.com.ng/img/ng/e/1564568922-96-kelina-hospital.jpg","phone":"0803364464408161629999","website":"www.kelinahospital.com"},{"name":"Healthboxes","address":"Plot 21, Admiralty Way, Lekki phase 1, Lagos, Lagos, Lagos","state":"Lagos","description":"Healthboxes is a comprehensive health care support service with a primary focus on providing the general public with convenient and affordable access to experienced healthcare professionals. We provid...","rating":"","reviews":"","location":{"lat":"6.447284915466526","lng":"3.4789411013183553"},"category":"Doctors","link":"https://www.businesslist.com.ng/company/264725/healthboxes","imageUrl":"https://www.businesslist.com.ng/img/ng/x/1565264392-52-healthboxes.jpg","phone":"09091111129","website":"www.healthboxes.com"},{"name":"Mediosa Healthcare Nigeria","address":"150, Ikorodu road, Adebowale house, Onipanu Somolu, Lagos , Lagos, Lagos","state":"Lagos","description":"Mediosa Healthcare is an all in one healthcare platform where users can consult certified doctors, book laboratory tests/ health checks and order medicines online. Booking laboratory tests/ medical ch...","rating":"","reviews":"","location":{"lat":"6.585062242557765","lng":"3.3592844009399414"},"category":"Doctors","link":"https://www.businesslist.com.ng/company/259004/mediosa-healthcare-nigeria","imageUrl":"https://www.businesslist.com.ng/img/ng/m/1505683100-40-mediosa-healthcare-nigeria.jpg","phone":"+2348146692227","website":"www.mediosa.com.ng"},{"name":"GODFREY HOSPITAL","address":"Plot, 3554 kofo kasumu avenue Lakeview Phase 1 Estate,, Lagos, Lagos","state":"Lagos","description":"At Godfrey Hospital, we provide clients access to the latest technology and facilities with a compassionate, patient-centered care approach. Together with our physicians and surgeons we aim to provide...","rating":"","reviews":"","location":{"lat":"6.471619674947208","lng":"3.3120188489556313"},"category":"Doctors","link":"https://www.businesslist.com.ng/company/254922/godfrey-hospital","imageUrl":"https://www.businesslist.com.ng/img/ng/l/1447496331-87-godfrey-hospital.jpg","phone":"08094941593","website":"www.facebook.com/godfreyhospital"},{"name":"Consultant Chiropractors And Wellness Centre","address":"33, community Road, Allen Avenue, Ikeja, Lagos","state":"Lagos","description":"THE CHIROPRACTIC & COMPLEMENTARY HEALTH CENTRE - NIGERIA & WEST AFRICA FOR GENTLE, EFFECTIVE AND CARING TREATMENT","rating":"","reviews":"","location":{"lat":"6.6016102","lng":"3.3547379"},"category":"Doctors","link":"https://www.businesslist.com.ng/company/219160/consultant-chiropractors-and-wellness-centre","imageUrl":"https://www.businesslist.com.ng/img/ng/c/1554881830_77150.jpg","phone":"0807377444408028582269","website":"www.spinalcomplementaryhealthcentre.vpweb.co.uk"},{"name":"Anavara","address":"#6 & 29, LSDPC Shopping Arcade, Ijaiye Road, Ogba, Lagos, Nigeria, Lagos, Lagos","state":"Lagos","description":"Anavara is a Medical Tourism facilitation company. We provide access to leading hospitals in Germany, India, Philippines and Thailand. we provide the following services. 1. Preparatory or Consultation...","rating":"","reviews":"","location":{"lat":"6.631513195003176","lng":"3.3406631648540497"},"category":"Doctors","link":"https://www.businesslist.com.ng/company/254683/anavara","imageUrl":"https://www.businesslist.com.ng/img/ng/k/1465547596-82-anavara.png","phone":"2933160","website":"anavara.com/"},{"name":"BTH Integrated Wellness and Therapy","address":"Plot 3 Rock Drive, off C & I Leasing Drive, Central Business District, Lekki Phase 1, – Lagos, Lagos, Lagos","state":"Lagos","description":"BTH Integrated Wellness and Therapy offers a confidential and safe environment where our clients can talk about any confusing, stressful, traumatic or simply uncomfortable issues they may be facing. W...","rating":"","reviews":"","location":{"lat":"6.4389189595503105","lng":"3.472806215286255"},"category":"Doctors","link":"https://www.businesslist.com.ng/company/256868/bth-integrated-wellness-and-therapy","imageUrl":"https://www.businesslist.com.ng/img/ng/k/1478183347-24-bth-integrated-wellness-and-therapy.png","phone":"+234 (01) 7000609","website":"www.bththerapy.com/"},{"name":"1Dokita Healthcare LTD","address":"4 Olusola Olude Close, Gbagada Phase 2, Lagos, Lagos, Lagos","state":"Lagos","description":"1Dokita is a network of health service providers and the clients who require them. The company is set out to ensure healthcare is easily accessible to all, encourage good health seeking behavior, offs...","rating":"","reviews":"","location":{"lat":"6.54665684937795","lng":"3.389140602191219"},"category":"Doctors","link":"https://www.businesslist.com.ng/company/262392/1dokita-healthcare-ltd","imageUrl":"https://www.businesslist.com.ng/img/ng/e/1540291078-68-1dokita.jpg","phone":"08092078111","website":"www.1dokita.ng"},{"name":"MedAcess Healthcare Consultant","address":"Tafawa Balewa Way, Central Business District, Abuja, Abuja","state":"Abuja","description":"MedAcess is a leading Stem Cell Therapy and Treatment centre in India. We Provides Affordable Cost of stem Cell Therapy for autism, diabetes, knee joint, muscular dystrophy, spinal cord injury, celebr...","rating":"","reviews":"","location":{"lat":"8.609777438958753","lng":"7.504915374999996"},"category":"Doctors","link":"https://www.businesslist.com.ng/company/266177/medacess-healthcare-consultant","imageUrl":"https://www.businesslist.com.ng/img/ng/j/1577728878-51-medacess-healthcare-consultant.jpg","phone":"07448034463","website":"www.medacess.com/"},{"name":"Bounce Back physiotherapy Clinic Port Harcourt","address":"22 Ohia Street Amadi Flat Extension Old G.R.A Beside Creek Garden Hotel, Port Harcourt, Rivers","state":"Rivers","description":"Bounce Back physiotherapy and wellness clinic was established to bring relief to preventable back pain sufferers across the country through Right information, Education on lifestyle modification and t...","rating":"","reviews":"","location":{"lat":"4.813223365765368","lng":"7.034244472369437"},"category":"Doctors","link":"https://www.businesslist.com.ng/company/261897/bounce-back-physiotherapy-clinic-port-harcourt","imageUrl":"https://www.businesslist.com.ng/img/ng/z/1535591949-18-bounce-back-physiotherapy-clinic-port-harcourt.jpg","phone":"07035022081","website":"bouncebackphysio.com.ng/"},{"name":"Biosensors Medical Laboratory ","address":"24, Blantyre Street, Wuse 2, Abuja, Abuja","state":"Abuja","description":"Established in 1996, BIosensors has been performing Medical Laboratory testing and other services. By applying and fulfilling ISO 15189-standards, we are able to give true value for time and trust, pr...","rating":"","reviews":"","location":{"lat":"9.072972275470491","lng":"7.484051745498846"},"category":"Doctors","link":"https://www.businesslist.com.ng/company/190725/biosensors-medical-laboratory","imageUrl":"https://www.businesslist.com.ng/img/ng/s/1373194982_60645.jpg","phone":"+2347058893766","website":"www.biosensorsng.com"},{"name":"Caring palms healthcare limited","address":"Plot 927/928 Bish. Aboyade Cole St, Victoria Island., Lagos, Lagos","state":"Lagos","description":"Caring palms health care limited is a MedTech Start-up set to the disrupt healthcare service delivery in Nigeria. We are the “Uber” of the health sector in Nigeria, and are unique because customer...","rating":"","reviews":"","location":{"lat":"6.435483549223954","lng":"3.438191664121632"},"category":"Doctors","link":"https://www.businesslist.com.ng/company/261499/caring-palms-healthcare-limited","imageUrl":"https://www.businesslist.com.ng/img/ng/b/1532005140-56-caring-palms-healthcare-limited.jpg","phone":"08030461321","website":"caringpalms.org"},{"name":"NATIONAL HOSPITAL ABUJA","address":"Plot 132, National Hospital Road, P.M.B 425, Central Business District, Abuja, Abuja","state":"Abuja","description":"The Hospital was originally designed to cater for the needs of women and children in Nigeria and the West African sub-region with a view to reduce morbidity and mortality rates, and to carry out exten...","rating":"","reviews":"","location":{"lat":"9.0388416","lng":"7.4630887"},"category":"Doctors","link":"https://www.businesslist.com.ng/company/126429/national-hospital-abuja","imageUrl":"https://www.businesslist.com.ng/img/ng/s/1543258386-43-national-hospital-abuja.png","phone":"0809751976408097520012","website":"nationalhospital.gov.ng/"},{"name":"ANADOLU MEDICAL CENTER rep","address":" Number 18, 3rd apartment before HUB pharmacy and supermarket 69 road. gwarimpa, Abuja, Abuja","state":"Abuja","description":"ANADOLU MEDICAL CENTER is a hopital base in Istanul Turkey and is in affliation with JOHN HOPKINS MEDICINE in terms of training and quality improvement, and also among the very best hopital in the wor...","rating":"","reviews":"","location":{"lat":"9.11188521932449","lng":"7.3822009563446045"},"category":"Doctors","link":"https://www.businesslist.com.ng/company/255600/anadolu-medical-center-rep","imageUrl":"https://www.businesslist.com.ng/img/ng/h/1459937149-73-anadolu-medical-center-rep.jpg","phone":"+2348028801009","website":"anadolumedicalcenter.com"},{"name":"Regenix Healthcare Services","address":"Broad Street, Lagos Island, Lagos, Lagos","state":"Lagos","description":"Most affordable health insurance in Lagos. We have several plans ranging from individual to personal, healthcare for workers and more. Regenix Health plans are designed to meet the needs of all segmen...","rating":"","reviews":"","location":{"lat":"6.4552593119151265","lng":"3.3851026598022145"},"category":"Doctors","link":"https://www.businesslist.com.ng/company/262096/regenix-healthcare-services","imageUrl":"https://www.businesslist.com.ng/img/ng/r/1537442286-57-regenix-healthcare-services.jpg","phone":"07018204144","website":"regenixhealthcare.com/"},{"name":"TOUR2INDIA4HEALTH CONSULTANTS PVT. LTD.","address":"Nigeria-Lagos, Lagos Island, Lagos","state":"Lagos","description":"Experience successful surgery in India at super specialty hospitals with quality surgery facilities and medical treatment by best surgeons at affordable price","rating":"5.0","reviews":"1 Review","location":{},"category":"Doctors","link":"https://www.businesslist.com.ng/company/190687/tour2india4health-consultants-pvt-ltd","imageUrl":"https://www.businesslist.com.ng/img/ng/r/1362365514_86311.jpg","phone":"","website":"www.tour2india4health.com/"},{"name":"CHION FAMILY MEDICAL CENTRE","address":"3, OKI LANE, MENDE-MARYLAND, Ikeja, Lagos","state":"Lagos","description":"With a fully equipped laboratory, well-stocked pharmacy and team of medical professionals,our hospital provides a standard healthcare system with full access to medical and wellness solutions that cut...","rating":"","reviews":"","location":{"lat":"6.5763877932007695","lng":"3.3721673945648263"},"category":"Doctors","link":"https://www.businesslist.com.ng/company/258805/chion-family-medical-centre","imageUrl":"https://www.businesslist.com.ng/img/ng/h/1503450609-18-chion-family-medical-centre.jpg","phone":"+2348170529474","website":"www.chionfamilymedicalcentre.com"},{"name":"Shabach Hospitals","address":"7 shabach crecent, by eru motors, PTI road, effurun, Warri, Warri, Delta","state":"Delta","description":"Shabach operates a 24 hour service as expected with the medical world. Shabach Hospitals is a multi-specialty facility private hospital that offer world-class comprehensive PRIMARY, SECONDARY and TERT...","rating":"","reviews":"","location":{"lat":"5.5544","lng":"5.7932"},"category":"Doctors","link":"https://www.businesslist.com.ng/company/258405/shabach-hospitals","imageUrl":"https://www.businesslist.com.ng/img/ng/j/1499082577-18-shabach-hospitals.png","phone":"0803-405-1375","website":"shabachhospitals.com"},{"name":"Sunshine Petcare and Veterinary Services","address":"5 Adedeji Aderogba str..off okunola rd..Egbeda. Lagos State, Ikeja, Lagos","state":"Lagos","description":"Sunshine Petcare and Veterinary Services(SVC&Vs) provides healthcare services to all petanimals, diagnose, treat and prevent disease condition in both healthy and sick animals. Other services offerred...","rating":"","reviews":"","location":{"lat":"6.53415676972265","lng":"3.393552303314209"},"category":"Doctors","link":"https://www.businesslist.com.ng/company/257684/sunshine-petcare-and-veterinary-services","imageUrl":"https://www.businesslist.com.ng/img/ng/e/1490822932-68-sunshine-petcare-and-veterinary-services.jpg","phone":"08136303383","website":""},{"name":"Cedarcrest Hospitals Limited Branch","address":"Lagos Hospital: 25, Harold Sodipo Crescent, off Joel Ogunnaike Street, GRA Ikeja , Ikeja, Lagos","state":"Lagos","description":"Cedarcrest Hospitals is a modern specialist Healthcare centre located in the heart of Abuja and Lagos. Good news to Nigerians! You no longer need to go outside our borders to seek for medical attentio...","rating":"","reviews":"","location":{"lat":"6.5779294","lng":"3.3443627"},"category":"Doctors","link":"https://www.businesslist.com.ng/company/219161/cedarcrest-hospitals-limited-branch","imageUrl":"https://www.businesslist.com.ng/img/ng/l/1469010607_98837.jpg","phone":"0809515135308174610006","website":"www.cedarcresthospitals.com"},{"name":"Desol Medical Solutions","address":"10 Abeokuta Street, Ebute Metta (East), Yaba, Lagos, Nigeria., Lagos, Lagos","state":"Lagos","description":"At DesolMed we believe that our clients' needs are of the utmost importance, and our entire team is dedicated & committed to meeting those needs, we take care of the temporary and permanent medical st...","rating":"","reviews":"","location":{"lat":"6.486177668254044","lng":"3.3817112445694875"},"category":"Doctors","link":"https://www.businesslist.com.ng/company/257210/desol-medical-solutions","imageUrl":"https://www.businesslist.com.ng/img/ng/h/1484793586-56-desol-medical-solutions.jpg","phone":"+234.(818).689.9594","website":"desolmed.com/"},{"name":"Greenlife Herbal Products","address":"11, abu street, Oshodi, Lagos","state":"Lagos","description":"Discover How To Treat Gonorrhea, Staphylococcus, Fibroid, Pile, Stroke, Diabetes, Ulcer, Urinary Tract Infections, Hormone imbalance, Ovarian Cysts, Cancer, Fallopian Tube Blockage, Asthma, Endometrio...","rating":"","reviews":"","location":{"lat":"6.475613337670557","lng":"3.3388030529022217"},"category":"Doctors","link":"https://www.businesslist.com.ng/company/254679/greenlife-herbal-products","imageUrl":"https://www.businesslist.com.ng/img/ng/a/1443371885-83-greenlife-herbal-network-limited.png","phone":"+2348170731688","website":"www.curativeherbalproducts.com"},{"name":"Western Optical","address":"NEPA close, off Ahmadu Bello Way, Victoria island, Lagos, Victoria Island, Lagos","state":"Lagos","description":"Eye care services and Optical Supplies. * Home Services * Contact Lenses * Glaucoma treatment * Spectacle lenses * Others","rating":"","reviews":"","location":{"lat":"6.424485514360493","lng":"3.412019726764356"},"category":"Doctors","link":"https://www.businesslist.com.ng/company/262699/western-optical","imageUrl":"https://www.businesslist.com.ng/img/ng/c/1543453123-96-western-optical.jpg","phone":"+2348051317580","website":"westernoptical.business.site"},{"name":"Minimally Invasive Surgical Solution","address":"33F Oba Akinjobi Street, GRA, Ikeja, Lagos State, Nigeria, Ikeja, Lagos","state":"Lagos","description":"Minimally Invasive surgical solutions Ltd (MISS) is both a laparoscopy training center and an Ambulatory Surgery center. The goal of the center is twofold in keeping with the mission of the company an...","rating":"","reviews":"","location":{"lat":"6.577957008362949","lng":"3.349873203521727"},"category":"Doctors","link":"https://www.businesslist.com.ng/company/267708/minimally-invasive-surgical-solution","imageUrl":"https://www.businesslist.com.ng/img/ng/a/1589628955-12-minimally-invasive-surgical-solution.jpg","phone":"08177788224","website":"www.miss.com.ng"},{"name":"D & TET","address":" 8, Ikoyi Club 1938 Road, Ikoyi, Lagos, Lagos","state":"Lagos","description":"We provide a “one stop” centre for accurate high quality screening and diagnosis of gastrointestinal disorders, using the very latest flexible fibre-optic endoscopes. The service is delivered by C...","rating":"","reviews":"","location":{"lat":"6.452748","lng":"3.428033"},"category":"Doctors","link":"https://www.businesslist.com.ng/company/258915/dtet","imageUrl":"https://www.businesslist.com.ng/img/ng/e/1504618878-35-d-tet.png","phone":"08177559225","website":"www.dandtetglobal.com"},{"name":"Hi-fi Hospital","address":"1207, Trans Engineering Layout, News Engineering, Dawaki, Abuja, Abuja, Abuja","state":"Abuja","description":"","rating":"4.0","reviews":"1 Review","location":{"lat":"9.1292368665136","lng":"7.402639389038086"},"category":"Doctors","link":"https://www.businesslist.com.ng/company/162095/hi-fi-hospital","phone":"08096398364","website":"www.hifihospitalabuja.com"}]