[{"name":"AURORA MEDICAL (PLASTIC SURGERY CLINIC)","address":"2B Crown Court Estate, Orisa Sanya Street, Oniru royal Estate. Victoria Island., Victoria Island, Lagos","state":"Lagos","description":"A Plastic surgery clinic with qualified and seasoned professionals, that take client care to a whole new level. located in a serene and safe environment, while maintaining absolute confidentiality. Ev...","rating":"","reviews":"","location":{"lat":"6.428780096847666","lng":"3.452802300453186"},"category":"Doctors","link":"https://www.businesslist.com.ng/company/265231/aurora-medical-plastic-surgery-clinic","imageUrl":"https://www.businesslist.com.ng/img/ng/g/1569339639-97-aurora-medical-plastic-surgery-clinic.jpg","phone":"09082461261","website":"www.myauroramedical.com"},{"name":"NJETOURS LTD","address":"Suite E329 Ikota Shopping Complex VGC Lekki, Lagos Island, Lagos","state":"Lagos","description":"NJETOURS LTD is a Limited Liability Company, with the corporate head office located at Ikota Shopping Complex, Victoria Garden City Lekki, Lagos, Nigeria. OUR SERVICES We are committed to provide exce...","rating":"5.0","reviews":"2 Reviews","location":{"lat":"6.464270560106144","lng":"3.555471897125244"},"category":"Doctors","link":"https://www.businesslist.com.ng/company/260897/njetours-ltd","imageUrl":"https://www.businesslist.com.ng/img/ng/e/1577553209-17-njetours-ltd.jpg","phone":"+2347089496731","website":"www.njetours.com"},{"name":"Alphine Life Solutions","address":"701 trade center, Ikeja, Lagos","state":"Lagos","description":"ALPHINE LIFE SOLUTIONS, headquartered in Mumbai, has excellence in providing service to patients and medical tourists since 1992. We at ALPHINE LIFE SOLUTIONS work with a commitment towards facilitati...","rating":"5.0","reviews":"2 Reviews","location":{},"category":"Doctors","link":"https://www.businesslist.com.ng/company/255925/alphine-life-solutions","imageUrl":"https://www.businesslist.com.ng/img/ng/k/1464863170-76-alphine-life-solutions.jpg","phone":"00912242688484","website":"www.alphinelife.com"},{"name":"Dheeraj Bojwani Consultants","address":"lagos city, Abuja, Lagos","state":"Lagos","description":"Dheeraj bojwani consultants are supreme medical tourism service provider based in India for more than ten years. With experience of handling thousands of patients every year, the team provides exempla...","rating":"5.0","reviews":"2 Reviews","location":{"lat":"9.082374890243571","lng":"8.67419958114624"},"category":"Doctors","link":"https://www.businesslist.com.ng/company/196438/dheeraj-bojwani-consultants","imageUrl":"https://www.businesslist.com.ng/img/ng/h/1457064646-14-dheeraj-bojwani-consultants.jpg","phone":"919371136499","website":"www.dheerajbojwani.com/"},{"name":"Healthstead Global Limited","address":"641, Jereton Mariere Road, Apo,Gudu, Abuja (By Jimeta Filling Station, Zone E, Apo), Abuja, Abuja","state":"Abuja","description":"Healthstead Global Limited is Nigeria's first indigenous Health Marketing firm. Duly and fully registered and incorporated under the Companies and allied Matters Act of 1990, with RC No. 1440363. we p...","rating":"5.0","reviews":"7 Reviews","location":{"lat":"8.998771730972914","lng":"7.483491897583008"},"category":"Doctors","link":"https://www.businesslist.com.ng/company/259219/healthstead-global-limited","imageUrl":"https://www.businesslist.com.ng/img/ng/x/1566676858-45-healthstead-global-limited.jpg","phone":"08060680382","website":"www.healthsteadng.wordpress.com"},{"name":"Joje Abebe Fertility Centre","address":"Plot 0140, Bamanga Tukur Street, Opposite Beautiful Beginning Academy, Zone E Legislative Quarters, Gudu District, Apo , Abuja, Abuja","state":"Abuja","description":"A Fertility Hospital driven by the promise that \"No Woman shall be barren\" and with the passion to see as many couples as possible overcome the burden of infertility and become joyful parents. Our com...","rating":"5.0","reviews":"3 Reviews","location":{"lat":"9.00294388622479","lng":"7.486785437898334"},"category":"Doctors","link":"https://www.businesslist.com.ng/company/263926/joje-abebe-fertility-centre","imageUrl":"https://www.businesslist.com.ng/img/ng/h/1557758200-79-joje-abebe-fertility-centre.png","phone":"08171049999","website":"www.jojefertility.com"},{"name":"Oaklands Dental Clinic","address":"Eve and kez Plaza, Mcc Road, Ikenegbu. , Owerri, Imo","state":"Imo","description":"Oakland Dental Clinic is targeted at giving you the best you can ever require in dentistry. We have our team of experts based in owerri, Imo state, Nigeria, ready to serve you at an affordable cost. �...","rating":"5.0","reviews":"3 Reviews","location":{"lat":"5.488295810762576","lng":"7.044749280850056"},"category":"Doctors","link":"https://www.businesslist.com.ng/company/260164/oaklands-dental-clinic","imageUrl":"https://www.businesslist.com.ng/img/ng/g/1573257804-81-oaklands-dental-clinic.jpg","phone":"+2347036531860","website":"www.oaklandsdentalclinic.ng"},{"name":"Gloxygen Dental Care","address":"Plot 148A , First Avenue , Sector F , FHA , Lugbe , Off Airport Road (Opp. Bread abd More , Bsd FHA Mortgage Bank ), Abuja, Abuja","state":"Abuja","description":"Gloxygen dental care provides world class dental solutions to all your dental needs , within the shortest possible time , and convenient appointment - 24 hour service , even on weekends . We care to g...","rating":"5.0","reviews":"3 Reviews","location":{"lat":"8.995776330001558","lng":"7.370312979208551"},"category":"Doctors","link":"https://www.businesslist.com.ng/company/263176/gloxygen-dental-care","imageUrl":"https://www.businesslist.com.ng/img/ng/e/1549055376-89-gloxygen-dental-care.jpg","phone":"070359189760813804107","website":"gloxygen-dental-care.business.site"},{"name":"Charitos BO Hospital","address":"Plot D22, Aco Estate, Life Camp, Abuja, Abuja, Abuja","state":"Abuja","description":"Charitos BO Hospital is a specialty tertiary health care located in the heart of the Federal Capital Territory (FCT), Life Camp, Abuja, Nigeria. Our well-trained medical experts, state-of-the-art medi...","rating":"5.0","reviews":"3 Reviews","location":{"lat":"9.090198114609457","lng":"7.378633057072875"},"category":"Doctors","link":"https://www.businesslist.com.ng/company/262227/charitos-bo-hospital","imageUrl":"https://www.businesslist.com.ng/img/ng/s/1538606901-93-charitos-bo-hospital.png","phone":"08141911404","website":"www.charitosbohospital.com"},{"name":"Dr. Olorungbebe Naturalist Clinic","address":"No 1, Dr. Olorungbebe Street, Apex Estate, Pagun Oke Omin, Ibadan, Oyo","state":"Oyo","description":"Welcome. We are a herbal medicine production company, engaging itself in herbal medicines and other commodities. The vision and determination of the Chairman, Prof. Dr. Mustapha Salami is to take ...","rating":"","reviews":"","location":{"lat":"9.821713465402416","lng":"7.674723345523833"},"category":"Doctors","link":"https://www.businesslist.com.ng/company/267210/dr-olorungbebe-naturalist-clinic","imageUrl":"https://www.businesslist.com.ng/img/ng/z/1585167094-29-dr-olorungbebe-naturalist-clinic.png","phone":"09080525824","website":"herbalnigeria.blogspot.com/"},{"name":"GREENE DIAGNOSTICS LTD","address":"16c, uwasota road off Ugbowo Lagos road, Benin City, Edo","state":"Edo","description":"Greene diagnostics is a fully operational Standard Tertiary research Laboratory with state of arts equipments. We conduct Tests ranging from PRENATAL FETAL GENOTYPE/CVS, Hormonal assay, Tumor markers ...","rating":"5.0","reviews":"3 Reviews","location":{"lat":"6.3341985651151385","lng":"5.599056097235007"},"category":"Doctors","link":"https://www.businesslist.com.ng/company/256544/greene-diagnostics-ltd","imageUrl":"https://www.businesslist.com.ng/img/ng/l/1577658025-83-greene-diagnostics-ltd.jpg","phone":"08025200314","website":"www.greeneduagnostics.com"},{"name":"KABWORLD Physiotherapy & Co (Reg)","address":"Lagos Island, Mainland and Ikorodu axis , Lagos, Lagos","state":"Lagos","description":"We provide quality and excellent Physiotherapy Services for individuals (Treatment brought to your homes I.e domiciliary services) and hospital services based on consultations. Varieties of medical co...","rating":"5.0","reviews":"2 Reviews","location":{"lat":"6.4354704184240745","lng":"3.437047004699707"},"category":"Doctors","link":"https://www.businesslist.com.ng/company/257294/kabworld-physiotherapyco-reg","imageUrl":"https://www.businesslist.com.ng/img/ng/s/1512582146-81-kabworld-physiotherapy-co-reg.jpg","phone":"2347033309554","website":"www.kabworldphysiotherapy.com"},{"name":"Aquila Clinic & Fertility","address":"15a Yauri Street, Garki, Abuja, Abuja, Abuja","state":"Abuja","description":"Aquila Clinic & Fertility is a specialist hospital in Abuja . We specialize in Gynecology and Obstetrics. Our services also extend to Assessment, Diagnosis and Treatment of other health issues We have...","rating":"5.0","reviews":"2 Reviews","location":{"lat":"9.02894593248081","lng":"7.486536784958503"},"category":"Doctors","link":"https://www.businesslist.com.ng/company/260826/aquila-clinicfertility","imageUrl":"https://www.businesslist.com.ng/img/ng/m/1525867554-16-aquila-clinic-fertility.jpg","phone":"07057380555","website":""},{"name":"24/7 EMERGENCY AMBULANCE SERVICES ","address":"40, Ishaga road, Atunrase busstop, Near LUTH, Lagos, Lagos, Lagos","state":"Lagos","description":"At Braingrace, we are committed to provide emergency ground and air ambulance services within Lagos and across Nigeria","rating":"4.0","reviews":"4 Reviews","location":{"lat":"6.513809716679271","lng":"3.3576115407049656"},"category":"Doctors","link":"https://www.businesslist.com.ng/company/259956/247-emergency-ambulance-services","imageUrl":"https://www.businesslist.com.ng/img/ng/a/1557844991-34-braingrace-ambulance-services.jpg","phone":"+2348035578766+2348085446170+2347039665211","website":"www.braingraceambulance.com.ng"},{"name":"Edge Medical Center Ltd. ","address":"Plot P14 Isiukwuato Street, PreFab Housing, Uratta West Owerri, Imo 460232, Owerri, Imo","state":"Imo","description":"Edge Medical Center is a private, fully equipped, ultra modern 50 bed medical center located in Owerri, Imo State, Nigeria, providing extensive general and specialist healthcare with diagnostic servic...","rating":"5.0","reviews":"2 Reviews","location":{"lat":"5.491581637791726","lng":"7.041721343994141"},"category":"Doctors","link":"https://www.businesslist.com.ng/company/255990/edge-medical-center-ltd","imageUrl":"https://www.businesslist.com.ng/img/ng/e/1465680023-66-edge-medical-center-ltd.jpg","phone":"2349039494930","website":"www.edgemedicalcenter.com"},{"name":"Dheeraj Bojwani Consultants","address":"2nd Floor, Yamu Niwas, Narendra Nagar, Railway Under Bridge, nagpur, Argungu, Plateau","state":"Plateau","description":"Get successful treatment & surgeries done in the Best Hospitals of India, know more about Top 10 Hospitals in India through Dheeraj Bhojwani Consultants in India.","rating":"4.7","reviews":"3 Reviews","location":{"lat":"12.7499950149438","lng":"4.535220535968051"},"category":"Doctors","link":"https://www.businesslist.com.ng/company/190183/dheeraj-bojwani-consultants","imageUrl":"https://www.businesslist.com.ng/img/ng/m/1412575377-dheeraj-bojwani-consultants.jpg","phone":"919371136499","website":"www.dheerajbojwani.com/"},{"name":"Dr Solution Cottage Hospital Ltd","address":"HQ: Off #58 Mbodo-Aluu Road, Port Harcourt and 12 Rumuosi-Ozuoba Road, PH., Port Harcourt, Rivers","state":"Rivers","description":"Dr. Solution Cottage Hospital has evolved from a small town hospital dedicated almost exclusively to the care of Women & Children into a Family Hospital where amazing things happen! More than 5 specia...","rating":"4.5","reviews":"2 Reviews","location":{"lat":"4.936334700293773","lng":"6.9561320543289185"},"category":"Doctors","link":"https://www.businesslist.com.ng/company/256985/dr-solution-cottage-hospital","imageUrl":"https://www.businesslist.com.ng/img/ng/m/1479941804-77-dr-solution-cottage-hospital.jpg","phone":"08039565922","website":"www.drsolutionhospital.com"},{"name":"CHIROPRACTOR SPECIALISTS","address":"33 Community road, off Allen Avenue , Ikeja, Lagos","state":"Lagos","description":"We treat all Spinal problems manifesting as body pains, all personal and sport injuries. We approach with gentle, friendly and effective techniques.","rating":"5.0","reviews":"2 Reviews","location":{},"category":"Doctors","link":"https://www.businesslist.com.ng/company/263692/chiropractor-specialists","imageUrl":"https://www.businesslist.com.ng/img/ng/c/1554829726-99-chiropractor-specialists.jpg","phone":"07066516410","website":"www.spinalcomplementaryhealthcentre.vpweb.co.uk"},{"name":"Total Care Dental Clinic ","address":"111 Airport Road opp mobil filling station by new Eliozu road roundabout, rumuodomaya, Port Harcourt, Rivers","state":"Rivers","description":"Total Care is a State-of-the-art Dental Clinic in Port Harcourt. Our services include: consultation/dental check-up, x-rays, scaling and polishing, fillings, endodontic treatment, Crowns and Bridges, ...","rating":"4.7","reviews":"3 Reviews","location":{"lat":"4.889595568231732","lng":"7.001897031649833"},"category":"Doctors","link":"https://www.businesslist.com.ng/company/255523/total-care-dental-clinic","imageUrl":"https://www.businesslist.com.ng/img/ng/g/1474382854-46-total-care-dental-clinic.png","phone":"+234808505996108065529260","website":"www.totalcaredental.com.ng"},{"name":"3-J Dental Clinic","address":"Plot 101 East - West Road, Rumuodara, Port Harcourt, Rivers","state":"Rivers","description":"3-J Dental Clinic is a Port Harcourt based dental clinic that offers quality general dental services ; Cosmetic dentistry,Restorative dentistry,Root canal therapy, Tooth extractions, Management of gum...","rating":"5.0","reviews":"1 Review","location":{"lat":"4.861213392908707","lng":"7.0318094470167125"},"category":"Doctors","link":"https://www.businesslist.com.ng/company/256293/3-j-dental-clinic","imageUrl":"https://www.businesslist.com.ng/img/ng/d/1473335923-15-3-j-dental-clinic.jpg","phone":"+2348071557277","website":"www.3jdentalclinic.com"},{"name":"Dr Hassan's Hospital & Diagnostic Centre","address":"No 5 iller Crescent, off Katsina Ala Street, Maitama, Abuja, Abuja, Abuja","state":"Abuja","description":"Dr. Hassan’s Hospital & Diagnostics Centre is a multi-specialty facility, provides comprehensive primary, secondary and tertiary care with up to date facility held to the highest standards of health...","rating":"5.0","reviews":"1 Review","location":{"lat":"9.094531269879132","lng":"7.495522963669828"},"category":"Doctors","link":"https://www.businesslist.com.ng/company/260273/dr-hassans-hospitaldiagnostic-centre","imageUrl":"https://www.businesslist.com.ng/img/ng/j/1520597933-85-dr-hassan-s-hospital-diagnostic-centre.jpg","phone":"+2348161616702","website":"drhassanshospital.com/"},{"name":"MeCure Oshodi WeCare","address":"Mecure House, Debo Industrial Compound, Oshodi Exp.way Beside NAFDAC, Charity Bus-Stop, Oshodi, Lagos., Oshodi, Lagos","state":"Lagos","description":"MeCure WeCare Provides Health Care Services for our members plus additional 4 family members. Such member will be diagnosed free for Cancer, Liver disease, Heart disease, Stroke, up to 9 -12 Lifestyle...","rating":"4.0","reviews":"1 Review","location":{"lat":"6.554631144275752","lng":"3.3498966693878174"},"category":"Doctors","link":"https://www.businesslist.com.ng/company/254028/mecure-wecare","imageUrl":"https://www.businesslist.com.ng/img/ng/z/1432191102-80-mecure-wecare.jpg","phone":"08051677085","website":"www.mecure.com"},{"name":"Goldville Prosthetics and Orthotics Ltd","address":"18, Jemi Alade street, Jemi Alade Estate, Power line bus stop, Isheri - Igando road. Lagos. , Ikeja, Lagos","state":"Lagos","description":"ABOUT GOLDVILLE PROSTHETICS/ORTHOTICS Goldville Prosthetics and Orthotics sole aim is to provide prosthetics (artificial arms, hands and legs) and orthotics (assistive devices such as spinal braces, s...","rating":"5.0","reviews":"1 Review","location":{"lat":"6.600660741421721","lng":"3.2944669248556693"},"category":"Doctors","link":"https://www.businesslist.com.ng/company/258214/goldville-prosthetics-and-orthotics-ltd","imageUrl":"https://www.businesslist.com.ng/img/ng/c/1547600222-76-goldville-prosthetics-and-orthotics-services.jpg","phone":"09030314956","website":"www.twitter.com/gvprosthetics"},{"name":"Oam Physiotherapy Services","address":"Adebisi Aje street, Irawo, Ikorodu, Ikorodu, Lagos","state":"Lagos","description":"We Private or Home Physiotherapist who manage clients conditions such as Neurological (Stroke, Parkison disease), Orthopedic (Low back pain, Shoulder pain, Osteoathrithis) Pediatric (Cerebral palsy, A...","rating":"5.0","reviews":"2 Reviews","location":{"lat":"6.622205849992348","lng":"3.5412491520104394"},"category":"Doctors","link":"https://www.businesslist.com.ng/company/263646/oam-physiotherapy-services","imageUrl":"https://www.businesslist.com.ng/img/ng/s/1591295089-92-oam-physiotherapy-services.jpg","phone":"+2349080361093","website":"dlagosphysio.mozello.com"},{"name":"Medivice Prosthetics","address":"17 Onayade Street Jibowu, Lagos State Nigeria, Lagos, Lagos","state":"Lagos","description":"PROSTHETIC AND ORTHOTIC Technologies. Medivice is social enterprise, focused on providing low-cost modern technologies for people with limb loss and those living with physical disability We provide mo...","rating":"5.0","reviews":"1 Review","location":{"lat":"6.52173577377938","lng":"3.368412490924129"},"category":"Doctors","link":"https://www.businesslist.com.ng/company/262350/medivice-prosthetics","imageUrl":"https://www.businesslist.com.ng/img/ng/h/1539825389-93-medivice.jpg","phone":"09090599990","website":"www.medivice.ng/"},{"name":"Zeeno Cosmetics Dental Clinic","address":"114, Sapele Road, Benin City, Edo State, Nigeria, Benin City, Edo","state":"Edo","description":"Zeeno Dentals is an edged cutting dental care delivering organization. We offer a unique blend of products due to the versatility of our operational platforms; thus we offer premier mobile dental care...","rating":"5.0","reviews":"1 Review","location":{"lat":"6.2961887829112495","lng":"5.631093978881836"},"category":"Doctors","link":"https://www.businesslist.com.ng/company/259631/zeeno-cosmetics-dental-clinic","imageUrl":"https://www.businesslist.com.ng/img/ng/z/1513270334-81-zeeno-cosmetics-dental-clinic.jpg","phone":"+2347088135502","website":"www.zeenodentals.com"},{"name":"ROYAL SMILE DENTAL, BRACES AND IMPLANT CENTRE LTD","address":"FIRST FLOOR, VICTORY PLAZA, 107 WOJI ROAD, BY YKC JUNCTION, PORT HARCOURT, RIVERS STATE, Port Harcourt, Rivers","state":"Rivers","description":"ROYAL SMILE MULTISPECIALTY DENTAL CLINIC AND IMPLANT CENTRE is a standard, licenced and certified state of the art multispecialty dental clinic facility at the best,that is located in a highly serene ...","rating":"5.0","reviews":"1 Review","location":{"lat":"4.8228455459113295","lng":"7.0534894055499535"},"category":"Doctors","link":"https://www.businesslist.com.ng/company/264353/royal-smile-dental-braces-and-implant-centre-ltd","imageUrl":"https://www.businesslist.com.ng/img/ng/h/1574063957-97-royal-smile-dental-braces-and-implant-centre-ltd.jpg","phone":"+2347053492014+2348062977460","website":"www.royalsmiledentalclinicphc.com.ng"},{"name":"EYEUPDATE EYE CLINIC AND OPTICAL SUPPLIES","address":"01 AJUWON JUNCTION, AKUTE AJUWON ROAD, BESIDE M. R. S. FILLING STATION, NEAR GRAILAND GATE, Ifo, Ogun","state":"Ogun","description":"Residents of Alagbole, Ajuwon, Akute, Matogun, Lambe, Olambe, Koye Oke, Alagbado, Agbado, Oshere, Mowe Ibafo, Redeem Camp, Iju Road, Ogba, Agee, Omole, Fagba, Abule Egba, Akiode, Is hero Road, College...","rating":"5.0","reviews":"1 Review","location":{"lat":"6.674749701707782","lng":"3.3447902507068648"},"category":"Doctors","link":"https://www.businesslist.com.ng/company/262879/eyeupdate-eye-clinic-and-optical-supplies","imageUrl":"https://www.businesslist.com.ng/img/ng/e/1545725830-70-eyeupdate-eye-clinic-and-optical-supplies.jpg","phone":"08107531046","website":"eyeclinic.onlinewebshop.net"}]