[{"name":"Procivi Interservices Limited","address":"Udu road, Warri., Warri, Delta","state":"Delta","description":"Procivi is a dynamic recruitment and employment services company (CV writing, job placement, staff outsourcing, project management, long and short-term recruiting) based in the heart of Warri, Delta S...","rating":"","reviews":"","location":{"lat":"5.53059","lng":"5.78353"},"category":"Employment","link":"https://www.businesslist.com.ng/company/266149/procivi-interservices-limited","imageUrl":"https://www.businesslist.com.ng/img/ng/s/1577439598-98-procivi-interservices-limited.jpg","phone":"08058904835","website":"www.procivigroup.com"},{"name":"Abol Life Support AHA Training Center","address":"61 Okumagba Avenue, Venell Hosp Complex, P.O.Box 3065, Warri, Delta State, Nigeria, Warri, Delta","state":"Delta","description":"“ We make learning to save lives easy and affordable” Abol Life Support International Ltd is registered in Nigeria as a Consultancy firm engaged in Training, Learning, Development and other consul...","rating":"","reviews":"","location":{"lat":"5.529193976793483","lng":"5.747308731079102"},"category":"Employment","link":"https://www.businesslist.com.ng/company/256285/abol-life-support-intl-ltd","imageUrl":"https://www.businesslist.com.ng/img/ng/s/1469519096-32-abol-life-support-int-l-ltd.jpg","phone":"08075552050","website":"www.abollifesupport.com"},{"name":"Give A Smile International Ltd Nigeria","address":"Orji okigwe road , Owerri, Imo","state":"Imo","description":"Give A Smile International Ltd. (GAS International Ltd.) Is a Pan African Entertainment and Advertising Company. We run a fashion magazine but focuses on grooming and developing talents in the area of...","rating":"","reviews":"","location":{"lat":"5.508540590877854","lng":"7.038663625717163"},"category":"Employment","link":"https://www.businesslist.com.ng/company/255490/give-a-smile-international-ltd","imageUrl":"https://www.businesslist.com.ng/img/ng/f/1457944216-83-give-a-smile-international-ltd.jpg","phone":"+2347062078902","website":"www.misscampusnationalgh.com"},{"name":"LISSE AFRICA LTD","address":"10A, Ayinde Akinmade street, Lekki, Lagos, Lagos, Lagos","state":"Lagos","description":"LISSE AFRICA is a dynamic human resource consulting firm with key interest in recruitment with the aim of providing employees that are professional, verified and with a good cultural fit. At LISSE AFR...","rating":"","reviews":"","location":{"lat":"6.727838171579387","lng":"3.4187543392181396"},"category":"Employment","link":"https://www.businesslist.com.ng/company/259141/lisse-africa-ltd","imageUrl":"https://www.businesslist.com.ng/img/ng/f/1549328334-41-lisse-africa-ltd.png","phone":"+2349023957345","website":"www.lisseafrica.com"},{"name":"Powerful African Traditional Native Doctor","address":"NO'10'A oru, ijebu, Ogun State, Nigeria, Ijebu-Igbo, Ogun","state":"Ogun","description":"Hello my fellow people ,AM CHIEF Ifasegun Omobabaoguntola is recongnised all over the world of marine kingdom,, If You Need A Powerful African Traditional Native Doctor? Call Chief Ifasegun Omobabaogu...","rating":"","reviews":"","location":{"lat":"6.992184515887237","lng":"3.977191642700177"},"category":"Employment","link":"https://www.businesslist.com.ng/company/262577/powerful-african-traditional-native-doctor","imageUrl":"https://www.businesslist.com.ng/img/ng/b/1542098934-59-powerful-african-traditional-native-doctor.jpg","phone":"08151110492","website":""},{"name":"Apata & Ascott Limited","address":"27 Bode Thomas, Surulere Lagos., Lagos, Lagos","state":"Lagos","description":"Apata & Ascott Limited is a Human Resource consulting firm that bring fresh insight and add value to organizations. Our services include Recruitments, Trainings, Organizational Development, HR Auditin...","rating":"","reviews":"","location":{"lat":"6.488187105698099","lng":"3.361167848142941"},"category":"Employment","link":"https://www.businesslist.com.ng/company/255285/apata-ascott","imageUrl":"https://www.businesslist.com.ng/img/ng/z/1454329260-41-apata-ascott.png","phone":"+2348181930797","website":"www.apataandascott.com"},{"name":"Ralds & Agate Limited","address":"Plot 171B, Ikeja Way Dolphin Estate Ikoyi, Nigeria and 1er Etage Immeuble Edition Cles BP 8418, Yaounde Republic of Cameroon, Lagos","state":"","description":"Ralds & Agate is a Business Management Consulting firm focused on providing People and Process related solutions to businesses, communities and organizations within and outside Africa. Our focus is on...","rating":"","reviews":"","location":{"lat":"6.459345327440685","lng":"3.417874574661255"},"category":"Employment","link":"https://www.businesslist.com.ng/company/256439/raldsagate-limited","imageUrl":"https://www.businesslist.com.ng/img/ng/h/1471350544-83-ralds-agate-limited.jpg","phone":"+(234) 810 891 9819+(234) 807 472 6248","website":"www.raldsandagate.com"},{"name":"Cruitera Technologies LTD","address":"Gafunk House, 7 Afisman drive anifowoshe street, ikeja Lagos, Ikeja, Lagos","state":"Lagos","description":"Cruitera is an online platform/HR Software in Nigeria where organizations can create a personalized and customizable recruitment software (job board) for effective recruitment process. Setting up a jo...","rating":"","reviews":"","location":{"lat":"6.5968591","lng":"3.3359324"},"category":"Employment","link":"https://www.businesslist.com.ng/company/266396/cruitera-technologies-ltd","imageUrl":"https://www.businesslist.com.ng/img/ng/e/1579462962-29-cruitera-technologies-ltd.png","phone":"08063135432","website":"www.cruitera.com"},{"name":"Startup Jobs Nigeria","address":"Plot 10 Block 79 Emma Abimbola Cole Lekki Phase 1, Lagos, Lagos","state":"Lagos","description":"Ngstartupjobs.com is Nigeria's top startup job search, recruitment and career website. We provide you with the latest jobs and vacancies in Nigeria today. As a job seeker, you can search for jobs from...","rating":"","reviews":"","location":{"lat":"6.4424884","lng":"3.4756467"},"category":"Employment","link":"https://www.businesslist.com.ng/company/265163/startup-jobs-nigeria","imageUrl":"https://www.businesslist.com.ng/img/ng/m/1568811588-58-startup-jobs-nigeria.png","phone":"07019812928","website":"ngstartupjobs.com"},{"name":"Graduate Training and attitude development limited","address":"6, Ali Akilu Road ECWA DCC secretariat, Kaduna, Kaduna, Kaduna","state":"Kaduna","description":"Graduate Training and Attitude Development Limited is a start up management training and Attitude Coaching Company set up to help corporate organizations, private individual, Non-governmental Organiza...","rating":"","reviews":"","location":{"lat":"10.502248997501326","lng":"7.416801452636719"},"category":"Employment","link":"https://www.businesslist.com.ng/company/257848/graduate-training-and-attitude-development-limited","imageUrl":"https://www.businesslist.com.ng/img/ng/h/1492771293-84-graduate-training-and-attitude-development-limited.jpg","phone":"+234-90-9330-9595","website":"www.graduatetraining.com.ng"},{"name":"JobsGivers","address":"Obio Akpor Port Harcout Rivers State, Nigeria, Port Harcourt, Rivers","state":"Rivers","description":"JobsGivers is a human resource / outsourcing company located in Port Harcourt. We publish latest job vacancies in Nigeria, help job seekers build their careers and find their dream jobs in Nigeria, we...","rating":"","reviews":"","location":{"lat":"4.819007157009504","lng":"6.987297999532416"},"category":"Employment","link":"https://www.businesslist.com.ng/company/264362/jobsgivers","imageUrl":"https://www.businesslist.com.ng/img/ng/e/1562070938-18-jobsgivers.jpg","phone":"08083053951","website":"www.jobsgivers.com"},{"name":"Transcend Business Solution","address":"KM 41 , Lekki-Epe Expressway, Lagos Island, Lagos","state":"Lagos","description":"Transcend Business and Staffing Solution (TBS) is a Recruitment and ICT solution firm focused on rendering high quality service delivery to her esteemed clients.","rating":"","reviews":"","location":{"lat":"6.449551250069266","lng":"3.6278746994080393"},"category":"Employment","link":"https://www.businesslist.com.ng/company/260270/transcend-business-solution","imageUrl":"https://www.businesslist.com.ng/img/ng/j/1520954206-12-transcend-business-and-staffing-solution.jpg","phone":"08060467876","website":"www.transcendbss.com"},{"name":"GlobalHunt India Pvt Ltd.","address":"E 45/6, Abuja, Abuja","state":"Abuja","description":"World","rating":"5.0","reviews":"1 Review","location":{},"category":"Employment","link":"https://www.businesslist.com.ng/company/190648/globalhunt-india-pvt-ltd","imageUrl":"https://www.businesslist.com.ng/img/ng/e/1361265815_47694.jpg","phone":"01146547700","website":"www.globalhunt.in"},{"name":"FOBCA Consulting","address":"1st Floor Bank of Agric. Building, Agodi Total Garden, Ibadan., Ibadan, Oyo","state":"Oyo","description":"About FOBCA Consulting We are financial and business consulting firm. Our Professional services are tailored to grow your business. BUSINESS CONSULTING - Business plan - Process plan - Marketing plan ...","rating":"","reviews":"","location":{"lat":"7.399354202258483","lng":"3.909679110157378"},"category":"Employment","link":"https://www.businesslist.com.ng/company/266337/fobca-consulting","imageUrl":"https://www.businesslist.com.ng/img/ng/c/1579082254-89-fobca-consulting.jpg","phone":"08096154003","website":"www.fobcaconsulting.com"},{"name":"Mani Recruits & Training Ltd","address":"N0 48 Aguiyi Ironsi Street, Maitama, Abuja, Abuja, Abuja","state":"Abuja","description":"Mani Recruits & Training Limited has grown to be the largest household and Office staffing agency in Nigeria, providing experienced, qualified and formally trained domestic staff to five-star organiza...","rating":"","reviews":"","location":{"lat":"9.097025308758413","lng":"7.480119192708116"},"category":"Employment","link":"https://www.businesslist.com.ng/company/261357/mani-recruitstraining-ltd","imageUrl":"https://www.businesslist.com.ng/img/ng/j/1530805138-77-mani-recruits-training-ltd.png","phone":"08092888924","website":"www.manirecruits.com"},{"name":"Nwachukwu Maid service and Employment Agency","address":"32,Summit Road. Asaba Delta state,Nigeria, Asaba, Delta","state":"Delta","description":"Nwachukwu maid service and employment agency is a government approved H.R consulting firm. We are a one stop H.R shop for all your hr needs","rating":"","reviews":"","location":{"lat":"6.208495347724571","lng":"6.699646491294857"},"category":"Employment","link":"https://www.businesslist.com.ng/company/257746/nwachukwu-maid-service-and-employment-agency","imageUrl":"https://www.businesslist.com.ng/img/ng/l/1579463837-67-nwachukwu-maid-service-and-employment-agency.jpg","phone":"08038647670","website":""},{"name":"Gr8jobsng","address":"No. 5, Ogbunike Street, Off Admiralty Way Lekki Phase 1, Lagos Nigeria, Lagos Island, Lagos","state":"Lagos","description":"Gr8jobsng.com is a recruitment platform for both jobseekers and employers, where the latest jobs in Nigeria, vacancies in Nigeria, Career Opportunities for Nigerians, and other useful trainings for Ni...","rating":"","reviews":"","location":{"lat":"6.446978731201344","lng":"3.4560799598693848"},"category":"Employment","link":"https://www.businesslist.com.ng/company/259021/gr8jobsng","imageUrl":"https://www.businesslist.com.ng/img/ng/a/1505828913-26-gr8jobsng.jpg","phone":"01-277-8960","website":"www.gr8jobsng.com/"},{"name":"Numitec Nigeria Ltd","address":"Herbart Macaulay Way, Wise, Abuja, Abuja, Abuja","state":"Abuja","description":"Numitec Educational is into human resources, education/school services, laboratory chemicals, laboratory equipments, employment services, industrial training placement and assistance services and also...","rating":"","reviews":"","location":{"lat":"9.076989283143892","lng":"7.408968095063983"},"category":"Employment","link":"https://www.businesslist.com.ng/company/261603/numitec-nigeria-ltd","imageUrl":"https://www.businesslist.com.ng/img/ng/s/1532978878-87-numitec-nigeria-ltd.jpg","phone":"08050803022","website":"www.numitecnigeria.com"},{"name":"Multifocal Limited","address":"Abuja, Abuja, Abuja","state":"Abuja","description":"Multifocal Limited offers HR and Business Management Services to organizations; bringing to bear best global HR and business practices duly aligned to the immediate environment of the organization. At...","rating":"","reviews":"","location":{"lat":"9.07919068086527","lng":"7.409796362518364"},"category":"Employment","link":"https://www.businesslist.com.ng/company/254480/multifocal-limited","imageUrl":"https://www.businesslist.com.ng/img/ng/l/1439829204-69-multifocal-limited.png","phone":"09999991234","website":"www.multifocalnigeria.com"},{"name":"McTimothAssociates","address":"Lagos Address Capital Building: 332 Ikorodu Road, Anthony Village/Maryland lagos, Ikeja, Lagos","state":"Lagos","description":"McTimothy Associates is a Professional Management consulting, Recruitment and Business Training company, incorporated in Nigeria with the Corporate Affairs Commission (CAC) and centrally located at An...","rating":"","reviews":"","location":{"lat":"6.567073785091656","lng":"3.367168754339218"},"category":"Employment","link":"https://www.businesslist.com.ng/company/259145/mctimothassociates","imageUrl":"https://www.businesslist.com.ng/img/ng/e/1507214283-26-mctimothassociates.png","phone":"+23414534754","website":"www.mctimothyassociates.com/"},{"name":"DRYVA Logistics","address":"2M Obasa Road, Off Oba Akran Avenue, Ikeja, Lagos, Lagos","state":"","description":"Hire a VERIFIED Driver for 1 Day, 1 Week, 1 Month, Full time & Interstate Travel on DRYVA Getting a GREAT driver in Lagos is an arduous, draining task, some even say it’s almost impossible. One of t...","rating":"","reviews":"","location":{"lat":"6.601078056625231","lng":"3.3358184282836874"},"category":"Employment","link":"https://www.businesslist.com.ng/company/266082/dryva-logistics","imageUrl":"https://www.businesslist.com.ng/img/ng/n/1576682682-39-dryva-nigeria.png","phone":"08178877991","website":"www.dryva.com.ng"},{"name":"Combatant Guards","address":"109, Bajulaiye Road, Shomolu., Lagos, Lagos","state":"Lagos","description":"Combatant Guards Limited is a security company which was incorporated in Nigeria in December 2005. In compliance with Federal Laws regulating operations of Private Security Companies, Combatant Guards...","rating":"5.0","reviews":"1 Review","location":{},"category":"Employment","link":"https://www.businesslist.com.ng/company/194373/combatant-guards","imageUrl":"https://www.businesslist.com.ng/img/ng/h/1428395507_82635.png","phone":"01 762 3917","website":"www.combatantguardsltd.org"},{"name":"AFORDONZ CONSULTING","address":"240, Herbert Macaulay Way, Yaba, Lagos, Lagos, Lagos","state":"Lagos","description":"Afordonz Consulting is one of the leading HR Consultants in Nigeria and the only complete recruitment solutions provider to the logistics, Freight Forwarding, oil and gas, Maritime, Manufacturing, FMC...","rating":"","reviews":"","location":{"lat":"6.499776912725171","lng":"3.378197189410457"},"category":"Employment","link":"https://www.businesslist.com.ng/company/253502/afordonz-consulting","imageUrl":"https://www.businesslist.com.ng/img/ng/s/1420772756-afordonz-consulting.png","phone":"09091748074","website":"http;//www.afordonzgroup.com"},{"name":"Otiz Keepers","address":"No. 36E Edem Urua Street, Opposite Akwa Ibom House of Assembly, Uyo, Akwa Ibom State Nigeria., Uyo, Akwa Ibom","state":"Akwa Ibom","description":"Otiz Keepers is a leading recruitment company poised to deliver value added staffing, consulting and training services to clients and candidates. ","rating":"","reviews":"","location":{"lat":"5.005903017576205","lng":"7.934712547546383"},"category":"Employment","link":"https://www.businesslist.com.ng/company/265497/otiz-keepers","imageUrl":"https://www.businesslist.com.ng/img/ng/a/1571566837-77-otiz-keepers.png","phone":"+2348023717811","website":"www.otizkeepers.com"},{"name":"BioNetHRM Solutions","address":"206 Muri Okunola Street, Victoria Island, Lagos, Victoria Island, Lagos","state":"Lagos","description":"BioNetHRM,Our core is into provision of Automated Staff Attendance & HRM Application Development to aid the HR manager in aspect of ATTENDANCE,HR,and PAYROLL computation. We have developed Automated s...","rating":"","reviews":"","location":{"lat":"6.429259858317021","lng":"3.423614501953125"},"category":"Employment","link":"https://www.businesslist.com.ng/company/266500/bionethrm-solutions","imageUrl":"https://www.businesslist.com.ng/img/ng/l/1580287696-96-bionethrm-solutions.png","phone":"07034789033","website":"bionet.hrmassistant.com"},{"name":"Assist to Hire","address":"TRIBE compound, No 1b, Prince Adelowo Adedeji street, Lekki Phase 1 Lekki, 234001, Lagos, Lagos, Lagos","state":"Lagos","description":"Are you experiencing a high turnover rate of salespeople? Do you have great products but lack the right salesforce? Do you often have to train new salespeople every month due to the loophole created b...","rating":"","reviews":"","location":{"lat":"6.438372255814565","lng":"3.481516021972652"},"category":"Employment","link":"https://www.businesslist.com.ng/company/264241/assist-to-hire","imageUrl":"https://www.businesslist.com.ng/img/ng/e/1560929781-62-assist-to-hire.png","phone":"09015154987","website":"assisttohire.com/"},{"name":"K<span style=\"color: red\">love</span>rharris","address":"Plot 1B Omorinre Johnson Close,, Lekki Phase1, Lagos Nigeria, Lagos, Lagos","state":"Lagos","description":"Kloverharris is an indigenous Human Resource & Human capital development consultancy company. We are duly registered under the Laws of The Federal Republic of Nigeria to provide services to both local...","rating":"","reviews":"","location":{"lat":"6.43646","lng":"3.46138"},"category":"Employment","link":"https://www.businesslist.com.ng/company/265450/kloverharris","imageUrl":"https://www.businesslist.com.ng/img/ng/f/1571124426-55-kloverharris.png","phone":"012933866","website":"www.kloverharris.com"},{"name":"HEARTPRINT NANNIES AND MAIDS","address":"suite A6 ,Children Place Plaza,Sangotedo,AJah, Lekki Epe Express way,Lagos,Nigeria, Lagos Island, Lagos","state":"Lagos","description":"We are a leading Domestic Service Agency,We provide Housemaids,Cooks,Househelps, Nannies,Drivers,Chef,Security Guards. We are the best in recruitment of trust worthy staffs, We do medical screening,Fi...","rating":"","reviews":"","location":{"lat":"6.472436532788384","lng":"3.6315500736236572"},"category":"Employment","link":"https://www.businesslist.com.ng/company/258595/heartprint-nannies-and-maids","imageUrl":"https://www.businesslist.com.ng/img/ng/m/1500924401-76-heartprint-nannies-and-maids.jpg","phone":"+234 8059914974","website":"www.heartprintnannies.com"},{"name":"FIRST CHOICE CONSULTING","address":"2, Akin Oshiyemi Street (Opp Sterling Bank) Allen Avenue Ikeja - Lagos, Ikeja, Lagos","state":"Lagos","description":"FIRST CHOICE INT'L CONSULTING & FINANCIAL SOLUTIONS LTD, is a reputable company and one of the leading recruitment and training agencies in Nigeria. All our services are uniquely designed to add value...","rating":"","reviews":"","location":{"lat":"6.606676306301112","lng":"3.348705768585205"},"category":"Employment","link":"https://www.businesslist.com.ng/company/263930/first-choice-consulting","imageUrl":"https://www.businesslist.com.ng/img/ng/l/1557828539-61-first-choice-consulting.png","phone":"08124069125","website":"firstchoiceleasingltd.com/about"},{"name":"Townsfield Consulting Inc","address":"5 Showonuola Street, Keke - Ogba, Ikeja, Ikeja, Lagos","state":"Lagos","description":"Townsfield Consulting Inc, is a very popular consulting firm in Nigeria. Their services cut across human resources, branding and business development, financial services, even extends to health servic...","rating":"","reviews":"","location":{"lat":"6.617856699300661","lng":"3.336796760559082"},"category":"Employment","link":"https://www.businesslist.com.ng/company/260061/townsfield-consulting-inc","imageUrl":"https://www.businesslist.com.ng/img/ng/e/1518303944-67-townsfield-consulting-inc.jpg","phone":"+234-807-559-0271","website":"www.townsfieldconsulting.com"}]