[{"name":"The Job Auction","address":"Southgate House, Osborne Estate, Osborne Rd, Lagos, Lagos","state":"Lagos","description":"Advertise a job or skill with ease on The Job Auction. The Auction Site where you can auction a job or a skill you have and get the best rate / earn more money. We've all got Skills To Pay The Bills. ...","rating":"","reviews":"","location":{"lat":"6.524161849241094","lng":"3.3792142829379372"},"category":"Employment","link":"https://www.businesslist.com.ng/company/262476/the-job-auction","imageUrl":"https://www.businesslist.com.ng/img/ng/n/1540946679-13-the-job-auction.jpg","phone":"00000000000","website":"www.thejobauction.com"},{"name":"Peerless LMS","address":"Plot 9 Gbagada Industrial Scheme, Beside UPS, Gbagada Expressway, Lagos","state":"","description":"PeerlessLms helps small and medium businesses inspire a culture of learning and develop an engaged workforce. Nigerian based Learning Management Systems development, empowering businesses to create be...","rating":"","reviews":"","location":{"lat":"6.5513068","lng":"3.3764131"},"category":"Employment","link":"https://www.businesslist.com.ng/company/263393/peerless-lms","imageUrl":"https://www.businesslist.com.ng/img/ng/n/1551264449-99-peerless-lms.png","phone":"0903 041 1878","website":"peerlesslms.com/"},{"name":"SunnEconeering Consulting Ltd","address":"30,sani Abacha Road,GRA Phase 3 Portharcourt , Port Harcourt, Rivers","state":"Rivers","description":"UNN ECONEERING CONSULTING is an Organizational Development and HR business advisory firm that provides organizational optimization solutions for companies and institutions, to ensure that their corpor...","rating":"","reviews":"","location":{"lat":"5.864541386061041","lng":"8.131360468222981"},"category":"Employment","link":"https://www.businesslist.com.ng/company/266835/sunneconeering-consulting-ltd","imageUrl":"https://www.businesslist.com.ng/img/ng/r/1582803549-40-sunneconeering-consulting-ltd.jpg","phone":"09078257865","website":"www.sunneconeering.com"},{"name":"The Jobs Platform","address":"153 Lola Holloway, Phase 1, Omole, Ikeja, Lagos","state":"Lagos","description":"At The Jobs Platform, we e-expertly and efficiently bridge the gap between the employer and the employee by connecting exceptional and qualified candidates to great and extraordinary companies at all ...","rating":"","reviews":"","location":{"lat":"6.635874255971374","lng":"3.366234678512569"},"category":"Employment","link":"https://www.businesslist.com.ng/company/266054/the-jobs-platform","imageUrl":"https://www.businesslist.com.ng/img/ng/r/1576439286-82-the-jobs-platform.png","phone":"08036034753","website":"jobsplatform.afncon.com"},{"name":"Total Facilities Management Limited","address":"Plot 740 Aminu Kano Crescent, Wuse 2, Abuja, Abuja, Abuja","state":"Abuja","description":"TOTAL FACILITIES MANAGEMENT LIMITED (TFML) was established in 1997 with the aim of providing high quality facility management/maintenance services to both public and private sectors. We are members of...","rating":"","reviews":"","location":{"lat":"9.083092597959949","lng":"7.467950235586613"},"category":"Employment","link":"https://www.businesslist.com.ng/company/196599/total-facilities-management-limited","imageUrl":"https://www.businesslist.com.ng/img/ng/x/1396910599_21027.png","phone":"2348082071946","website":"www.tfmlconsultant.com"},{"name":"Anyworknaija","address":"17 Ibikunle st. off Herbert Macaulay road Yaba, Lagos, Lagos, Lagos","state":"Lagos","description":"AnyworkNaija Recruitment has been established by hospitality professionals for hospitality professionals. We have the knowledge and understanding to expediently locate the right talent for you operati...","rating":"","reviews":"","location":{"lat":"6.511423000099963","lng":"3.3771888201293905"},"category":"Employment","link":"https://www.businesslist.com.ng/company/264972/anyworknaija","imageUrl":"https://www.businesslist.com.ng/img/ng/s/1567161037-40-anyworknaija.png","phone":"+234 7013360604","website":"www.anyworknaija.com"},{"name":"Cedar Oak Multi-Services Ltd","address":"43, Lord Lugard Street, Asokoro, Abuja, Abuja","state":"Abuja","description":"Cedar Oak Multi-Services Limited (COMSL) is a human resource management consultancy providing effective human resource management services to organizations and individuals. COMSL is a consultancy with...","rating":"","reviews":"","location":{"lat":"9.0443478","lng":"7.5080282"},"category":"Employment","link":"https://www.businesslist.com.ng/company/263507/cedar-oak-multi-services-ltd","imageUrl":"https://www.businesslist.com.ng/img/ng/n/1552555189-27-cedar-oak-multi-services-ltd.png","phone":"08130222015","website":"www.cedaroak.ng"},{"name":"Human Capital Associates Global Consult Limited","address":"23, ACME Road, Acme Building, second Floor, Ogba-Ikeja, Ikeja, Lagos","state":"Lagos","description":"Human Capital Associates Global Consult Ltd. is an international training and consultancy firm. A Skill, Knowledge and Attitude Development outfit, particularly reputed for providing integrated profes...","rating":"","reviews":"","location":{"lat":"6.623856042458981","lng":"3.341667652130127"},"category":"Employment","link":"https://www.businesslist.com.ng/company/238757/human-capital-associates","imageUrl":"https://www.businesslist.com.ng/img/ng/r/1495453673-46-human-capital-associates.jpg","phone":"08180907161","website":"www.hcaglobalconsult.com"},{"name":"Stelmatson Global Consult","address":"Suite 3, PTIL Plaza, Zarmaganda Junction, Jos, Plateau","state":"Plateau","description":"Stelmatson Global Consult is a management, research and educational consulting firm based in Jos Plateau State. We recruit international students to UK, US, Canadian, Russian and German universities. ...","rating":"","reviews":"","location":{"lat":"9.849278852084739","lng":"8.866950261028592"},"category":"Employment","link":"https://www.businesslist.com.ng/company/266193/stelmatson-global-consult","phone":"+2348032854302","website":"www.stelmatson.com"},{"name":"VolunteeringinUganda","address":"Hannover Street, Room 34, Abuja, Abuja","state":"Abuja","description":" Footprint Volunteer Uganda is a project initiated with an aim of reaching out to the various needs within our society. Among these include; vulnerable people, wildlife, water and environment, Agricul...","rating":"","reviews":"","location":{"lat":"9.076097097920787","lng":"7.398638373016411"},"category":"Employment","link":"https://www.businesslist.com.ng/company/261011/volunteeringinuganda","imageUrl":"https://www.businesslist.com.ng/img/ng/c/1527671144-66-volunteeringinuganda.jpg","phone":"+23491343319","website":"volunteeringinuganda.org"},{"name":"BOE CONCEPTS INTERLINK LTD","address":"2ND FLOOR, NO.1, ADESINA STREET OFF APAPA/OSHODI EXPRESSWAY, IJESHA BUS STOP, SURULERE, LAGOS, Lagos, Lagos","state":"Lagos","description":"BOE Concepts Interlink Ltd is a consulting firm that engages in various commission services among which are; - Recruitment Service - Vehicle Tracking Installation - Insurance Intermediary Service - Pr...","rating":"","reviews":"","location":{"lat":"6.50640731080423","lng":"3.38487052543951"},"category":"Employment","link":"https://www.businesslist.com.ng/company/252904/boe-concepts-interlink-ltd","phone":"07061076941","website":"www.boe.com.ng"},{"name":"NIGERIA DEFENCE ACADEMY KADUNA","address":"Nigeria Defence Academy,Kaduna, Kaduna","state":"","description":"The Nigeria Defence Academy Form is now on sale ,Applicants are to contact the NDA Commandant on 08139159340 for more information. NDA Admission Requirements. 1) Minimum of 5 Credit passes at SSCE (WA...","rating":"","reviews":"","location":{"lat":"10.574222078332808","lng":"7.42950439453125"},"category":"Employment","link":"https://www.businesslist.com.ng/company/255858/nigeria-defence-academy-kaduna","imageUrl":"https://www.businesslist.com.ng/img/ng/m/1463987344-71-nigeria-defence-academy-kaduna.jpg","phone":"08064294919","website":""},{"name":"DigIT Jobs","address":"1, Olaniyan Close Mobolaji Bank Anthony Way, Maryland, Ikeja, Lagos., Ikeja, Lagos","state":"Lagos","description":"DigIT Nigeria is the leading recruitment solution provider focused on the niche of Creative, Tech and Digital jobs for people seeking jobs and the employers who need great people. For employers, Digit...","rating":"","reviews":"","location":{"lat":"6.584990563811302","lng":"3.3592942104423855"},"category":"Employment","link":"https://www.businesslist.com.ng/company/263588/digit-jobs","imageUrl":"https://www.businesslist.com.ng/img/ng/m/1572858231-50-digit-jobs.jpg","phone":"08123456971","website":"digit.ng"},{"name":"Xpressteachers.com","address":"Opebi Road, Ikeja, Lagos","state":"Lagos","description":"Xpressteachers.com is a Job Posting Board solely dedicated to the Education Sector. We provide a service whereby educational professionals seeking employment can upload their CV's & search jobs on our...","rating":"","reviews":"","location":{"lat":"6.587855927944171","lng":"3.3626294593078683"},"category":"Employment","link":"https://www.businesslist.com.ng/company/259293/xpressteacherscom","imageUrl":"https://www.businesslist.com.ng/img/ng/a/1509025059-47-xpressteachers-com.jpg","phone":"08092804344","website":"www.xpressteachers.com"},{"name":"JobHouse Nigeria","address":"53 Olusegun Highway, Lagos, Lagos","state":"Lagos","description":"JobHouse Nigeria or JobHouse Recruitment Agency (Nigeria) is Nigeria's leading HR company with exceptional Staff Outsourcing, Recruitment Consulting, HR Development and Job Placement services. If you ...","rating":"","reviews":"","location":{"lat":"6.524912267306636","lng":"3.3789911232788654"},"category":"Employment","link":"https://www.businesslist.com.ng/company/255062/jobhouse-nigeria","imageUrl":"https://www.businesslist.com.ng/img/ng/j/1450024907-79-jobhouse-nigeria.jpg","phone":"","website":"www.jobhouse.org/jobs/nigeria/"},{"name":"EasyCall Outsourcing Services Limited","address":"Suite D284, Road 1 Ikota Shopping Complex, Eti Osa, Lagos, Lagos","state":"Lagos","description":"EasyCall Outsourcing is a human resources outsourcing, consulting and staffing company, providing strategic support to serve the HR needs of organisations. Our experienced team of professionals have e...","rating":"","reviews":"","location":{"lat":"6.463716207309462","lng":"3.5548388957977295"},"category":"Employment","link":"https://www.businesslist.com.ng/company/238875/easy-call-outsourcing-services-limited","phone":"08075828361","website":"www.easycalloutsourcing.com"},{"name":"Idashjobs Services","address":"34, Jaiye Oyedotun Street Magodo, G.R.A Phase II, Ikeja, Lagos, Nigeria., Ikeja, Lagos","state":"Lagos","description":"Idashjobs.com Services is an Internet Job Board duly registered with the Corporate Affairs Commission (CAC) in Nigeria. We are poised to provide employment opportunities to all, irrespective of where ...","rating":"","reviews":"","location":{},"category":"Employment","link":"https://www.businesslist.com.ng/company/258681/idashjobs-services","imageUrl":"https://www.businesslist.com.ng/img/ng/d/1501846119-16-idashjobs-services.jpg","phone":"+2347039517368","website":"www.idashjobs.com"},{"name":"CLEAT SINERGY RESOURCES LTD","address":"Suite 13E Sabondale Shopping Complex, Obafemi Awolowo Way Jabi District, Jabi, Abuja., Abuja, Abuja","state":"Abuja","description":"Cleat Sinergy Resources Ltd is a staff recruitment agency duly registered with the Corporate Affairs Commission (CAC). The need/quest for organizations, institutions, individuals seeking to fill in ha...","rating":"","reviews":"","location":{"lat":"8.32768174193848","lng":"7.414398339557238"},"category":"Employment","link":"https://www.businesslist.com.ng/company/264472/cleat-sinergy-resources-ltd","phone":"08116900559","website":"www.cleatsinergyresources.org.ng"},{"name":"Walls Integrated Services Ltd","address":"1 engineering close, Lagos, Lagos","state":"Lagos","description":"Walls Integrated Services Ltd is a company incorporated to offer high value in oil and gas, petroleum product and general procurement services and has experienced unprecedented growth in the Nigerian ...","rating":"","reviews":"","location":{"lat":"6.435283491565356","lng":"3.426216244697571"},"category":"Employment","link":"https://www.businesslist.com.ng/company/254552/walls-integrated-services-ltd","phone":"+2347055555248","website":"www.walls.com.ng"},{"name":"Best Search Recruitment Ltd","address":"Valley View Plaza, 99 Opebi Road Ikeja, Lagos, Lagos","state":"Lagos","description":"Best Search Recruitment is a Leading recruitment agency in Africa. We are focused on locating hard to find talented individuals for reputable companies worldwide.   With 30 years combined Internat...","rating":"","reviews":"","location":{"lat":"6.585488564561973","lng":"3.364734649658203"},"category":"Employment","link":"https://www.businesslist.com.ng/company/252573/best-search-recruitment-ltd","phone":"+2348134244515","website":"www.bestsearchrecruitment.com"},{"name":"eRecruiter Nigeria","address":"6th Floor 103 Allen Avenue, Ikeja, Lagos","state":"Lagos","description":"eRecruiter Nigeria is a Professional Recruitment Consultancy and Staffing Services Firm. eRecruiter Nigeria is a recruitment consultancy in Nigeria which utilises the power of the internet to find the...","rating":"","reviews":"","location":{"lat":"6.598934","lng":"3.359593"},"category":"Employment","link":"https://www.businesslist.com.ng/company/264594/erecruiter-nigeria","imageUrl":"https://www.businesslist.com.ng/img/ng/k/1564083266-91-erecruiter-nigeria.jpg","phone":"+234-1-453-5031+234-1-291-0563","website":"www.erecnigeria.com"},{"name":"HRLeverage Africa","address":"The Professional Place 12b, Olumoroti Street, Off Jogunomi Street, By Gbagada Express Way, Gbagada, Lagos., Lagos, Lagos","state":"Lagos","description":"HRLeverage delivers excellent spectrum of HR Business Solutions through a custom-built approach for organizations. As a premium professional HR Boutique firm domiciled in Africa, we provide a one-stop...","rating":"","reviews":"","location":{},"category":"Employment","link":"https://www.businesslist.com.ng/company/254819/hrleverageafrica","imageUrl":"https://www.businesslist.com.ng/img/ng/x/1445702760-47-hrleverageafrica.png","phone":"08022155626","website":"www.hrleverageafrica.com"},{"name":"Andronicus Consulting","address":"0Ibadan, Oyo","state":"Oyo","description":"Andronicus Consulting is a human resources business partner with interest in service and value to improve organisations HR system. We are a brand known for excellence and integrity with focused HR pro...","rating":"","reviews":"","location":{"lat":"7.378471836332893","lng":"3.935135364663438"},"category":"Employment","link":"https://www.businesslist.com.ng/company/257069/andronicus-consulting","imageUrl":"https://www.businesslist.com.ng/img/ng/d/1481849067-66-andronicus-consulting.jpg","phone":"","website":""},{"name":"Career-Wise Consults","address":"22 Zik Avenue, off Tafawa Balewa Street, opposite Faith Alive Foundation, Jos, Plateau","state":"Plateau","description":"Hire/Recruitment Agency | capacity Development Trainers | CV (Curriculum Vitae) Developer | Career Coaching and Mentoring | Career Planning Consultant | Career Consultant | Workplace Intelligence Work...","rating":"","reviews":"","location":{},"category":"Employment","link":"https://www.businesslist.com.ng/company/262926/career-wise-consults","imageUrl":"https://www.businesslist.com.ng/img/ng/x/1586987338-86-career-wise-consults.jpg","phone":"08037751551","website":"www.facebook.com/career-wiseconsults"},{"name":"Linkway Consult","address":"Lekki-Epe expressway, lagos, Lagos Island, Lagos","state":"Lagos","description":"We are a registered company in Nigeria with the mandate to provide quality satisfaction to your HR needs. As the name implies, we have the resources and expertise to link your organization into a high...","rating":"","reviews":"","location":{"lat":"6.4589849","lng":"3.6015207000000373"},"category":"Employment","link":"https://www.businesslist.com.ng/company/196600/linkway-consult","imageUrl":"https://www.businesslist.com.ng/img/ng/j/1397742202_76467.jpg","phone":"","website":"www.linkwayconsult.com"},{"name":"Gigastreams consulting","address":"Aperin House, Ajah, Lagos., Lagos, Lagos","state":"Lagos","description":"Gigastreams Consulting is a people development and training organization devoted to helping professionals and organizations develop through our highly specialized Project Management and Human Resource...","rating":"","reviews":"","location":{},"category":"Employment","link":"https://www.businesslist.com.ng/company/260997/gigastreams-consulting","imageUrl":"https://www.businesslist.com.ng/img/ng/e/1527490947-17-gigastreams-consulting.jpg","phone":"08022224787","website":"Www.gigastreamsconsulting.com"},{"name":"Yemlek Best Touch Ltd","address":"20, Palm Avenue, UBA Building, Mushin, Lagos., Mushin, Lagos","state":"Lagos","description":"We render educational services generally, such as; Private Home tutoring services, Adult Education classes in the office where we tutor adults who have challenges of how to read and write. Finally we ...","rating":"5.0","reviews":"1 Review","location":{},"category":"Employment","link":"https://www.businesslist.com.ng/company/190943/yemlek-best-touch-ltd","imageUrl":"https://www.businesslist.com.ng/img/ng/n/1385041388_32062.jpg","phone":"08187284780","website":""},{"name":"EAGLE TRUST CONSULT","address":"2, AKILAPA STREET, OLUBADAN ESTATE, IBADAN, Ibadan, Oyo","state":"Oyo","description":"We are a Business Consultancy firm focused on small/medium businesses. Our goal is to provide our clients with the support they need to grow their businesses by providing them with value -added and co...","rating":"","reviews":"","location":{"lat":"9.079493224279078","lng":"8.657441139221191"},"category":"Employment","link":"https://www.businesslist.com.ng/company/196815/eagle-consult","imageUrl":"https://www.businesslist.com.ng/img/ng/e/1389355217_49657.jpg","phone":"","website":"www.eagletrustconsult.com"},{"name":"GML Nigeria","address":" 5 Prince Adelowo Adedeji Street, Off Admiralty Way, Lekki, Lagos Nigeria., Lagos, Lagos","state":"Lagos","description":"Global Manpower is a pioneer of outsourcing and contract staff management in Nigeria, with more than thirty (30) years of experience. Through a network of over twenty locations, we recruit, manage and...","rating":"","reviews":"","location":{"lat":"6.442759308210354","lng":"3.4554905479011495"},"category":"Employment","link":"https://www.businesslist.com.ng/company/265254/gml-nigeria","phone":"+234 1 2706336","website":"gml-nigeria.com"},{"name":"Leading Edge Global Resources Ltd.","address":"59, Ondo Street, Old Bodija, Ibadan North, Ibadan, Oyo","state":"Oyo","description":"We are into recruitment, outsourcing, training and placement. Our clientele include higher institutions of learning. Schools in general. International organisations, Blue-chip and orange companies as ...","rating":"","reviews":"","location":{"lat":"7.4231849","lng":"3.9013686"},"category":"Employment","link":"https://www.businesslist.com.ng/company/249935/leading-edge-global-resources","phone":"07015498165081707835900805612931408030506094","website":"www.legr.org"}]