[{"name":"Flowell Oil and Gas","address":"148, Aba Road, Port Harcourt, Rivers","state":"Rivers","description":"","rating":"","reviews":"","location":{"lat":"4.8175689","lng":"7.0093362"},"category":"Employment","link":"https://www.businesslist.com.ng/company/194361/flowell-oil-and-gas","phone":"08064326781","website":""},{"name":"Paulablack Limited","address":"Suite 34 Crown Plaza, Behind Peace Park Utako, Abuja, Abuja","state":"Abuja","description":"We provide domestic staffing services, corporate staffing services and concierge services to private families and high profile executives. Keen intuition, discretion and unparalleled personal attentio...","rating":"","reviews":"","location":{},"category":"Employment","link":"https://www.businesslist.com.ng/company/190139/paulablack-limited","phone":"0807823571807029834619","website":"www.paulablackdomestichelp.com"},{"name":"MyJobMag Limited","address":"7 Alade Avenue, Ikeja, Ikeja, Lagos","state":"Lagos","description":"MyJobMag.com is a fast growing job website in Nigeria. We offer you the latest jobs and vacancies in Nigeria today. We assist job seekers by providing latest and verified job adverts and career inform...","rating":"","reviews":"","location":{},"category":"Employment","link":"https://www.businesslist.com.ng/company/257467/myjobmag-limited","phone":"08121633133","website":"www.myjobmag.com"},{"name":"JobsInnigeria","address":"6th Floor, 294 Herbet Macaulay Way, Sabo, Yaba, Lagos., Lagos, Lagos","state":"Lagos","description":"|Job vacancies in Nigeria - for latest jobs in Nigeria visit Jobsinnigeria.com.ng | The best Jobsite In Nigeria | Jobs & Recruitment in Nigeria,","rating":"","reviews":"","location":{},"category":"Employment","link":"https://www.businesslist.com.ng/company/170732/jobsinnigeria","phone":"+2347080832217+2348022281234","website":"www.jobsinnigeria.com.ng"},{"name":"JEV Consulting","address":"51/53, Ijaye Road, Ogba, Mushin, Lagos","state":"Lagos","description":"JEV Consulting is a Human Resource, Training and Management Consulting firm. We offer the following services. Recruitment, Outsourcing, Training, Business process re-engineering, Change Management, Hu...","rating":"","reviews":"","location":{},"category":"Employment","link":"https://www.businesslist.com.ng/company/256729/jev-consulting","phone":"2348083712920","website":"www.jevconsulting.com"},{"name":"Selcah Human Resources Consulting Abuja ","address":"B47 Efab Mal, Area eleven, Garki, Abuja , Abuja, Abuja","state":"Abuja","description":"We specialize in Human Resources consulting, HR outsourcing, Recruitment and selection processes. Our team of professional experts are fully committed to standard HR policies and processes at all our ...","rating":"","reviews":"","location":{},"category":"Employment","link":"https://www.businesslist.com.ng/company/190706/selcah-human-resources-consulting-abuja","phone":"0809265623008081369722","website":"www.selcah.com/hr"},{"name":"V-Squared Marketing Solutions","address":"5, Olayinka Gbagda, Lagos, Lagos, Lagos","state":"Lagos","description":"We are a Business intelligence, insights and Marketing Solution company. We have experience in turning both your internal and external data into isghts that will aid your investment decisions. We have...","rating":"","reviews":"","location":{},"category":"Employment","link":"https://www.businesslist.com.ng/company/190228/v-squared-marketing-solutions","phone":"23408033441199","website":"www.v-squard.com"},{"name":"HEPZIBAH MANPOWER AGENCY","address":"13 plantation street, PLANTATION STREE, KUJE, Jos, Abuja","state":"Abuja","description":"We are Recruiting Agency from Nigeria we are seeking for your partnership in recruitment of Male and female labourers.","rating":"","reviews":"","location":{},"category":"Employment","link":"https://www.businesslist.com.ng/company/264615/hepzibah-manpower-agency","imageUrl":"https://www.businesslist.com.ng/img/ng/m/1564314236-38-hepzibah-manpower-agency.jpg","phone":"09019848930","website":""},{"name":"Goodluck Star Agency","address":"GSA bus stop Ebute off Corner Bus stop Sangotedo Ajah, Lagos Island, Lagos Island, Lagos","state":"Lagos","description":"We recruite works to our Clients after profiling them by getting all the necessary information needed to checkmate the activities of our Applicants to avoid all sort of misconduct and then send them w...","rating":"","reviews":"","location":{},"category":"Employment","link":"https://www.businesslist.com.ng/company/267317/goodluck-star-agency","imageUrl":"https://www.businesslist.com.ng/img/ng/s/1586337463-82-goodluck-star-agency.jpg","phone":"(+234) 07041247388","website":""},{"name":"VGS Recruitment Solutions Ltd","address":"63 Ogunlana Drive Surulere Lagos, Lagos, Lagos","state":"Lagos","description":"At VGS Recruitment Solutions Ltd, we attract top Clients with need for exceptional candidates. Our Services are provided with Speed, Precision and Accuracy. Our Turn Around Time on Candidate placement...","rating":"","reviews":"","location":{},"category":"Employment","link":"https://www.businesslist.com.ng/company/259595/vgs-recruitment-solutions-ltd","phone":"07046226996","website":"www.vgsrecruitment.com"},{"name":"Jobslink Nigeria","address":"Internet, Aba, Abia","state":"Abia","description":"Jobslink Nigeria; Free jobs adds and jobs search portal","rating":"","reviews":"","location":{},"category":"Employment","link":"https://www.businesslist.com.ng/company/190321/jobslink-nigeria","phone":"","website":"www.jobslink.com.ng"},{"name":"Ngcareers.com","address":"Lekki, Lagos","state":"","description":"Ngcareers is Nigeria's top jobs and career platform connecting millions of people to work opportunities and career advancement tools. We publish the very latest job vacancies for all of Nigeria - conn...","rating":"","reviews":"","location":{},"category":"Employment","link":"https://www.businesslist.com.ng/company/264855/ngcareerscom","imageUrl":"https://www.businesslist.com.ng/img/ng/x/1566317542-58-ngcareers-com.png","phone":"","website":"ngcareers.com"},{"name":"BIZPOINT CONSULTS LIMITED","address":"10B, OSUNTOKUN AVE OLD BODIJA , Ibadan, Oyo","state":"Oyo","description":"","rating":"","reviews":"","location":{},"category":"Employment","link":"https://www.businesslist.com.ng/company/256378/bizpoint-consults-limited","phone":"0810500040008132222222","website":"www.bizpoint.com.ng"},{"name":"RCS Recruitment Services","address":"Block 18 International Market, jakande First Gate, Lekki, Lagos","state":"","description":"RCS RECRUITMENT SERVICES..IS COMPANY WITH DIGNITY IN TERMS OF RECRUITMENT. WE PROFESSIONALLY DEPLOY DOMESTICS STAFFS LIKE:DRIVERS,CLEANERS,SECURITY,SALES REP,DISPATCHED RIDER,COOK,WAITRESS,BAR MAN, MA...","rating":"","reviews":"","location":{},"category":"Employment","link":"https://www.businesslist.com.ng/company/264845/rcs-recruitment-services","phone":"0706 714 3765","website":"rcsintegratedservices.wordpress.com"},{"name":"Busa HR","address":"Suite K101 Ikota Shopping Complex VGC Lagos , Lagos Island, Lagos","state":"Lagos","description":"We support companies in all industries in the fields of HR, Legal, Finance, Sales & Marketing, Engineering and Supply chain. We know how important people are to business. We also think that \"People ar...","rating":"1.0","reviews":"1 Review","location":{},"category":"Employment","link":"https://www.businesslist.com.ng/company/259470/busa-hr","phone":"+2348023162437","website":"www.busahr.com"},{"name":"NNPC","address":"Alesa aleme, Port Harcourt, Rivers","state":"Rivers","description":" THE NIGERIAN NATIONAL PETROLEUM CORPORATION, (PHRC) 2015 is aimed at recruiting qualified candidates from the following areas of specialization:â€¢ Science:Geology, Geophysics, Computer Science, Phys...","rating":"","reviews":"","location":{},"category":"Employment","link":"https://www.businesslist.com.ng/company/254331/nnpc","phone":"08078462890","website":"www.nnpcgroup.com"},{"name":"zoewei enterprise resources ltd","address":"93 idewu street,olodi apapa lagos, Apapa, Lagos","state":"Lagos","description":"Zoewei enterprise resources limited (ZERL) is a duly incorporated under the company and allied matters Act, laws of the federal republic of Nigeria with RC No. 1262639 and has a registered office in L...","rating":"","reviews":"","location":{},"category":"Employment","link":"https://www.businesslist.com.ng/company/254456/zoewei-enterprise-resources-ltd","phone":"0807951055901-2919560","website":"www.zoeweigroup.blogspot.com"},{"name":"Nigerian Job Portal","address":"Lagos, Lagos, Lagos","state":"Lagos","description":"Nigerian Job Portal publish latest Jobs in Nigeria. Get Current Job Opportunities in Nigeria, nysc jobs, fresh Graduate Jobs , jobs in Nigeria Daily.","rating":"","reviews":"","location":{},"category":"Employment","link":"https://www.businesslist.com.ng/company/190300/nigerian-job-portal","phone":"","website":"www.nigerianjobportal.com"},{"name":"Nigerian Agip Oil Company Limited Nigeria NAOC","address":"Mile 4 Ikwere Road, Portharcourt Rivers, Port Harcourt, Rivers","state":"Rivers","description":"Ibuse international Nigeria limited is a reputable reliable multidisplinary consulting firm with professional Expertise. ","rating":"","reviews":"","location":{},"category":"Employment","link":"https://www.businesslist.com.ng/company/135130/nigerian-agip-oil-company-limited-naoc","imageUrl":"https://www.businesslist.com.ng/img/ng/s/1569223644-34-nigerian-agip-oil-company-limited-nigeria-naoc.jpg","phone":"084 236409","website":""},{"name":"JobVine Nigeria","address":"79 Roeland Street, Cape Town, 8001, South Africa","state":"","description":"Jobs at JobVine - JobVine offers 1000's of jobs in Nigeria through its job search and jobs board. Send your CV to top recruitment agencies & employers. Careers for you.","rating":"","reviews":"","location":{"lat":"-33.9324344","lng":"18.424907800000028"},"category":"Employment","link":"https://www.businesslist.com.ng/company/196516/jobvine-nigeria","phone":"","website":"www.jobvine.com.ng/"},{"name":"Ajeets Nigeria","address":"Abuja, Nigeria, Abuja, Abuja","state":"Abuja","description":"Ajeets Consultants is Nigeria's leading recruitment services provider since 1991. Ajeets Group provides unique value to clients and candidates through a comprehensive suite of innovative solutions whi...","rating":"","reviews":"","location":{},"category":"Employment","link":"https://www.businesslist.com.ng/company/260880/ajeets-nigeria","imageUrl":"https://www.businesslist.com.ng/img/ng/m/1526468294-17-ajeets-nigeria.jpg","phone":"234 9583967","website":"www.ajeets.com"},{"name":"Net Solutions Services","address":"Fred Mammound Avenue, Ishawo, Ikorodu, Ikorodu, Lagos","state":"Lagos","description":"NET SOLUTIONS SERVICES is a corporate recruitment service provider. Over the years, NET SOLUTIONS SERVICES has been strategically involved in successfully sourcing, training, placement, and consulting...","rating":"","reviews":"","location":{},"category":"Employment","link":"https://www.businesslist.com.ng/company/257572/net-solutions-services","phone":"08181041413","website":""},{"name":"Rina-Bells Home Tutors","address":"Bariga, Lagos Nigeria, Ikeja, Lagos","state":"Lagos","description":"Research has shown that high percentage of children do not assimilate adequately in class. Why not give your child an educational boost by engaging the services of a private tutor? @ RINA-BELLS HOME T...","rating":"","reviews":"","location":{},"category":"Employment","link":"https://www.businesslist.com.ng/company/190864/rina-bells-home-tutors","phone":"0813818481408129090590","website":""},{"name":"A&S ROYAL CONSULTS","address":"D3B, road 3, Union home estate, kuje, Abuja, Abuja","state":"Abuja","description":"Recruitment, training and human resources services.For ur dedicated and hardworking staff and workers that will move ur organization to the next level. ","rating":"","reviews":"","location":{},"category":"Employment","link":"https://www.businesslist.com.ng/company/259687/as-royal-consults","phone":"08087974751","website":""},{"name":"Quicktech Solution Consults","address":"4, Moshalasi Bus stop, behind RAB OIL, Alagbado Lagos, Alagbado, Lagos","state":"Lagos","description":"Quicktech solution Consult is a technology human resources and training development center, that focus on building human capacity by creating Jobs and empowering the youth. Our Services Includes: HR S...","rating":"","reviews":"","location":{},"category":"Employment","link":"https://www.businesslist.com.ng/company/265547/quicktech-solution-consults","phone":"08064434890","website":""},{"name":"E.A.Effiong Enterprises","address":"Bode Thomas Street Surulere","state":"","description":"Marine Engineers and General business Cement Dealers and distributors without boundaries Mariyime consultants Employment Agents Manufacturers. Representaives","rating":"","reviews":"","location":{},"category":"Employment","link":"https://www.businesslist.com.ng/company/190236/eaeffiong-enterprises","phone":"0803338775008033387751","website":""}]