[{"name":"EMMORD CONSULT","address":"37 Neni Street Ogui New Layout, Enugu North, Enugu, Enugu","state":"Enugu","description":"EMMORD CONSULT is the brain child of Clifford Emmanuel Okafor who for over four years has been a verification officer and State Coordinator, liaising between reputable companies and institutions in th...","rating":"","reviews":"","location":{"lat":"6.505083445019953","lng":"7.5860595703125"},"category":"Employment","link":"https://www.businesslist.com.ng/company/258085/emmord-consult","imageUrl":"https://www.businesslist.com.ng/img/ng/f/1495308808-70-emmord-consult.jpg","phone":"07038727841","website":""},{"name":"Link4vessels.com","address":"Online","state":"","description":"Online website for listing vessels for sale and charter, maritime job vacancies, contract opportunities, and seafarer cv profiles. We also do consulting, vessel and crew management services, chandelli...","rating":"","reviews":"","location":{},"category":"Employment","link":"https://www.businesslist.com.ng/company/256789/link4vesselscom","imageUrl":"https://www.businesslist.com.ng/img/ng/r/1477031332-12-link4vessels-com.jpg","phone":"07063124832","website":"link4vessels.com"},{"name":"AGBOLADE TRADOMEDICAL HEALTH IS WEALTH","address":"Market road off ijebu north,,ogun state, Ijebu-Ode, Ogun","state":"Ogun","description":"+2348168965161 ifa teach us to be endure in whatever challenge that might face us,ifa Said if we don't don't relent efforts in praying and sacrificing all our lives will later be comfortable and livea...","rating":"","reviews":"","location":{},"category":"Employment","link":"https://www.businesslist.com.ng/company/265517/agbolade-tradomedical-health-is-wealth","imageUrl":"https://www.businesslist.com.ng/img/ng/h/1571750417-18-agbolade-tradomedical-health-is-wealth.jpg","phone":"08168965161","website":"www.agbomolaifakunle.com"},{"name":"Intelligentdude Consult","address":" Lord's Choosen, Federal Housing,Kwapa, Lugbe 100001, Abuja, Abuja","state":"Abuja","description":"Intelligentdude Consult is a Career Counseling and Job Support organization based in Abuja. We are a team of professionals with years of coaching and mentoring of job seekers and professionals. Our se...","rating":"","reviews":"","location":{},"category":"Employment","link":"https://www.businesslist.com.ng/company/264477/intelligentdude-consult","imageUrl":"https://www.businesslist.com.ng/img/ng/d/1563039467-59-intelligentdude-consult.jpg","phone":"08134657689","website":"careerswithintelligentdude.com/"},{"name":"Find a Househelp","address":"20 Igbodo Street, Old GRA, Port Harcourt , Port Harcourt, Rivers","state":"Rivers","description":"We are professional recruitment company that only specialises in sourcing the most trustworthy, honest, reliable and skillful househelps in Nigeria. We implement a very strict and rigorous selection p...","rating":"","reviews":"","location":{},"category":"Employment","link":"https://www.businesslist.com.ng/company/259402/find-a-househelp","imageUrl":"https://www.businesslist.com.ng/img/ng/r/1510524893-58-find-a-househelp.jpg","phone":"09099100256","website":"www.findahousehelp.com.ng"},{"name":"ByPlus Consulting","address":"No 20b Akin Osinyemi Street, Allen Avenue, Ikeja, Lagos","state":"Lagos","description":"ByPlus has the expertise and business experience that makes a difference. With our innovative and entrepreneurial mindset we identify ways human resource management practices and procedures can be use...","rating":"","reviews":"","location":{},"category":"Employment","link":"https://www.businesslist.com.ng/company/258558/byplus-consulting","imageUrl":"https://www.businesslist.com.ng/img/ng/l/1500564670-78-byplus-consulting.png","phone":"08087870280","website":"www.byplusconsulting.com"},{"name":"Miranda Ubong","address":"Lagos Nigeria, Lagos, Lagos","state":"Lagos","description":"We are a HR virtual assistance services firm. We assist with everything HR! Our services include; HR Business Virtual Assistance, Hr Content Virtual Assistance, HR Admin Virtual Assistance We take you...","rating":"","reviews":"","location":{},"category":"Employment","link":"https://www.businesslist.com.ng/company/264970/miranda-ubong","imageUrl":"https://www.businesslist.com.ng/img/ng/d/1567117068-30-miranda-ubong.png","phone":"0814 861 2939","website":"www.mirandaubong.com"},{"name":"Napenero International Limited","address":"Block 348 Flat 1 Amuwo Odofin Estate Mile 2 Lagos Nigeria., Lagos, Lagos","state":"Lagos","description":"Napenero International Limited is a first Class Security Solutions. We deal with Access Control, Bio-Metri Attendance System, Video Door Entry System, Company Registration, Electric Fencing, Gate & Ga...","rating":"","reviews":"","location":{},"category":"Employment","link":"https://www.businesslist.com.ng/company/267548/napenero-international-limited","imageUrl":"https://www.businesslist.com.ng/img/ng/b/1588422831-14-napenero-international-limited.jpg","phone":"+2349079596262","website":"napenerointernatio.wixsite.com/website"},{"name":"Martyns Consulting","address":"7 Obafalabi Street, Opposite Omole Phase 1 (GRA) Ojodu Berger, Lagos, Nigeria., Ikeja, Lagos","state":"Lagos","description":"Martyns Consulting is a dynamic Human Resources and Management Consultancy Company that provides specialist Human Resources support to businesses across Nigeria and Africa. We provide a one stop shop ...","rating":"","reviews":"","location":{},"category":"Employment","link":"https://www.businesslist.com.ng/company/260399/martyns-consulting","imageUrl":"https://www.businesslist.com.ng/img/ng/l/1521816652-76-martyns-consulting.jpg","phone":"+ (234)8 0875 88412","website":"martynsconsulting.com/"},{"name":"CareerHubAfrica","address":"Block 77 Plot 30A Oyibo Adjarho Street, Lekki Phase 1, Lagos , Lagos Island, Lagos","state":"Lagos","description":"We are a recruitment portal connecting job seekers to employers in the oil and gas, maritime and energy industries in Nigeria. We also offer training and career tips to professionals in these industri...","rating":"","reviews":"","location":{},"category":"Employment","link":"https://www.businesslist.com.ng/company/258459/careerhubafrica","imageUrl":"https://www.businesslist.com.ng/img/ng/m/1499700582-87-careerhubafrica.png","phone":"08187951972","website":"www.careerhubafrica.com"},{"name":"Ray Concept Consult","address":"Muritala Mohammed Way, Opposite os Township Campus Jos, Plateau State, Jos, Plateau","state":"Plateau","description":"RAY CONCEPT Consult Limited (a division of RAY CONCEPT SYNERGY LIMITED) is a fully indigenous limited liability Company incorporated in Nigeria with the Corporate Affairs Commission (RC1102772). RAY C...","rating":"","reviews":"","location":{"lat":"9.913562683021581","lng":"8.893759827405802"},"category":"Employment","link":"https://www.businesslist.com.ng/company/260372/ray-concept-consult","phone":"08022226036","website":""},{"name":"Etiquette and Image Consultant","address":"65 Forestry Road , Benin City, Edo","state":"Edo","description":"Fully committed to providing the highest quality first hand programmes, seminars, briefings and coaching sessions to kids, Graduates, professionals, C-Level Executives, Entrepreneurs and Private Indiv...","rating":"","reviews":"","location":{},"category":"Employment","link":"https://www.businesslist.com.ng/company/259950/etiquette-and-image-consultant","imageUrl":"https://www.businesslist.com.ng/img/ng/h/1517272913-28-etiquette-and-image-consultant.jpg","phone":"09020745999","website":"www.linkedin.com/in/obehiokoawo"},{"name":"Edge Outsource","address":"Edo innovates, ICE Road, Off Wire Road, Benin City, Edo","state":"Edo","description":"Professional Business Process Outsourcing Firm in Nigeria. eOutsource is a trusted outsourcing partner to organizations in the Private, Public and Development sectors. With our expertise in People, Pr...","rating":"","reviews":"","location":{},"category":"Employment","link":"https://www.businesslist.com.ng/company/265357/edge-outsource","imageUrl":"https://www.businesslist.com.ng/img/ng/k/1570539565-44-edge-outsource.jpg","phone":"09032128057","website":"www.eoutsource.net"},{"name":"Rekrut Consulting Limited","address":"1st Floor, Light Plaza, Suite FF6. #32, Association Avenue, Ilupeju-Lagos, Nigeria., Lagos, Lagos","state":"Lagos","description":"Rekrut Consulting Limited is a top class human capital development service provider in Nigeria. Our prime objective is to enable organisations access tomorrow’s thinking and today’s best practices...","rating":"","reviews":"","location":{},"category":"Employment","link":"https://www.businesslist.com.ng/company/265222/rekrut-consulting-limited","phone":"+2348033071649","website":"www.rekrutconsulting.com"},{"name":"VC EDUCATION CONSULT NIG.","address":"19B NNOBI ROAD NNEWI, Nnewi, Anambra","state":"Anambra","description":"WE ARE EDUCATION CONSULTANT WITH A DIFFERENT, DO YOU WANT TO STUDY OR WORK ABROAD COME TO US WE CAN HELP YOU MAKE YOUR DREAM COME THROUGH. ","rating":"","reviews":"","location":{"lat":"6.013705832566205","lng":"6.9064414501190186"},"category":"Employment","link":"https://www.businesslist.com.ng/company/255706/vc-education-consult-nig","phone":"08064731860","website":""},{"name":"Vacancy Hunters Services","address":"Suite 10 Oyibo Odinamadu Block ,National Center for Women Development, Opposite Central Banlk Of Nigeria, Central Area, Abuja, Abuja, Abuja","state":"Abuja","description":"We are duly registered with Corporate Affairs Commission with excellent job recruitment service delivery with number BN:2623789. In the light of the above, we hereby write you to show our willingness ...","rating":"","reviews":"","location":{},"category":"Employment","link":"https://www.businesslist.com.ng/company/255346/vacancy-hunters-services","imageUrl":"https://www.businesslist.com.ng/img/ng/a/1541536877-72-vacancy-hunters-services.jpg","phone":"08092917628","website":"www.vacancyhunters.com"},{"name":"Virgo Consults","address":"Ogunnaike Street Shangisha magodo, Ikosi Ketu, Lagos Mainland, Lagos, Nigeria, Ikeja, Lagos","state":"Lagos","description":"This is an organisation which deals mainly in creating and meeting the needs and requirements of job recruitments.","rating":"","reviews":"","location":{"lat":"6.615060775007099","lng":"3.350710052734371"},"category":"Employment","link":"https://www.businesslist.com.ng/company/264116/virgo-consults","phone":"09063870356","website":""},{"name":"EZ37 Solutions Limited","address":"No.53 Oyo Road, Goodwill House, Mokola Oremeji, Ibadan, Oyo","state":"Oyo","description":"EZ-37 Solutions is a Management and Human Resource Consulting and Training firm that provides professional, tailor-made, organizational development and manpower solutions for our clients. We specializ...","rating":"","reviews":"","location":{},"category":"Employment","link":"https://www.businesslist.com.ng/company/190377/ez37-solutions-limited","imageUrl":"https://www.businesslist.com.ng/img/ng/x/1578662420-51-ez37-solutions-limited.jpg","phone":"02-2911097","website":"www.ez37solutions.org"},{"name":"Yokebay Limited","address":"Blok 31 Gabby Adeosun Street, Off Admiralty Way, Lekki Phase 1, Lagos, Lagos","state":"Lagos","description":"Yokebay provides freelance services to Nigerians looking for jobs. We are an online marketplace dedicated to serving the Nigeria market.","rating":"","reviews":"","location":{"lat":"6.435275672632495","lng":"3.478717803955078"},"category":"Employment","link":"https://www.businesslist.com.ng/company/258295/yokebay-limited","imageUrl":"https://www.businesslist.com.ng/img/ng/e/1497773551-96-yokebay-limited.png","phone":"07086437840","website":"yokebay.com"},{"name":"JustJobsNg","address":"Ikeja, Lagos, Ekiti","state":"Ekiti","description":"JustJobsNg is Nigeria's highly searchable jobs site, providing accurate and up to date information on the latest job vacancies in a variety of industries and locations in Nigeria. ","rating":"","reviews":"","location":{},"category":"Employment","link":"https://www.businesslist.com.ng/company/258376/justjobsng","imageUrl":"https://www.businesslist.com.ng/img/ng/d/1498656364-71-justjobsng.jpg","phone":"+234 809 333 3020","website":"www.justjobsng.com/"},{"name":"Careers Nigeria | Jobs in Nigeria","address":"No 33, Queens Street. Off Hughes Avenue, Lagos, Lagos","state":"Lagos","description":"Online career platform where leading employers and quality talent meet. Careers Nigeria is a leading one-stop career website that connects job seekers to their next career opportunity while also provi...","rating":"","reviews":"","location":{},"category":"Employment","link":"https://www.businesslist.com.ng/company/267756/careers-nigeriajobs-in-nigeria","imageUrl":"https://www.businesslist.com.ng/img/ng/s/1594453390-46-careers-nigeria-jobs-in-nigeria.png","phone":"08099541942","website":"careersnigeria.com"},{"name":"Platinum Careers","address":"Agodogba Avenue, Parkview Estate. Ikoyi.Lagos, Lagos, Lagos","state":"Lagos","description":"Global Reach, Local Touch We are a Human resource consulting company with head office in Ikoyi, Lagos. Platinum Careers is a Uniquely African and proudly Nigerian Company offering support and services...","rating":"","reviews":"","location":{},"category":"Employment","link":"https://www.businesslist.com.ng/company/259234/platinum-careers","imageUrl":"https://www.businesslist.com.ng/img/ng/h/1508330071-84-platinum-careers.jpg","phone":"+2347086566206","website":"www.platinum-careers.com"},{"name":"Teclab Management Services Ltd","address":"28, Okunola Aina street, Mende, Maryland, Lagos, Lagos, Lagos","state":"Lagos","description":"PEOPLE MANAGEMENT I. Organizational Development:At TMSL we help organizations create outstanding result by driving organizational alignment, strategy, process and people thus equipping our clients wit...","rating":"","reviews":"","location":{},"category":"Employment","link":"https://www.businesslist.com.ng/company/137609/teclab-management-services-ltd","imageUrl":"https://www.businesslist.com.ng/img/ng/m/1316436431_65892.jpg","phone":"01-8791432","website":"www.teclab-ng.com"},{"name":"Dera Resources Concept Limited (DeraJobs.Com)","address":"7 Addo Road, Ajah, Lekki, Lagos, Lagos","state":"Lagos","description":" Introduction: DeraJobs.Com, operated by “Dera Resources Concept Limited” is a Human Resources (HR) organisation established to provide 21st century/cutting edge HR solutions through tail...","rating":"","reviews":"","location":{},"category":"Employment","link":"https://www.businesslist.com.ng/company/122651/dera-resources-concept-limited-derajobscom","phone":"08099356522","website":"www.derajobs.com"},{"name":"NGO Jobs In Africa","address":"Ikeja, Ikeja, Lagos","state":"Lagos","description":"Ngojobsinafrica is the most popular and reliable job search site in Africa. It provides up to date and accurate information on Non-Government Organization job Opportunities across Africa. http://ngojo...","rating":"","reviews":"","location":{},"category":"Employment","link":"https://www.businesslist.com.ng/company/258494/ngo-jobs-in-africa","imageUrl":"https://www.businesslist.com.ng/img/ng/m/1500042586-74-ngo-jobs-in-africa.jpg","phone":"08093333020","website":"ngojobsinafrica.com/"},{"name":"NEOLIFE International","address":"Amac Housing Estate Airport Road Lugbe, Abuja, Abuja","state":"Abuja","description":"NeoLife international is GNLD supplement manufacturers and independent business partners in Nigeria. We are independent suppliers and retailers of her wholefood supplements ","rating":"","reviews":"","location":{},"category":"Employment","link":"https://www.businesslist.com.ng/company/258003/neolife-international","phone":"09058247252","website":"anchoragehealthclinics.blogspot.com"},{"name":"Teacher.com.ng","address":"23 Odogbolu Street, Lagos, Lagos","state":"Lagos","description":"Teacher.com.ng is the leading teacher job board and recruitment service, providing teachers, tutors and educators with information and opportunities that are beneficial to their professional developme...","rating":"","reviews":"","location":{},"category":"Employment","link":"https://www.businesslist.com.ng/company/257626/teachercomng","imageUrl":"https://www.businesslist.com.ng/img/ng/s/1490215630-39-teacher-com-ng.png","phone":"+234908 678 9860","website":"www.teacher.com.ng/"},{"name":"Secured Records Management Solutions Ltd","address":"El-Al Court Block 14 Plot 35 Yesufu Abiodun Road Oniru Victoria Island, Victoria Island, Lagos","state":"Lagos","description":"Welcome to Secured Records Management Solutions Ltd, an end to end document management company. At Secured Records we provide our customers with a rich bouquet of services to choose from. We tailor ou...","rating":"","reviews":"","location":{},"category":"Employment","link":"https://www.businesslist.com.ng/company/262458/secured-records-management-solutions-ltd","phone":"01-2900919","website":"www.securedrecords.com"}]