[{"name":"Syntegral Legal Practice","address":"26, Constitution Road, Gadowa Estate, Central Area District, Abuja Municipal, Abuja","state":"","description":"Syntegral Solicitors is a full service law firm with the expertise to provide innovative business solutions for clients with diverse needs. With offices in Lagos and Abuja, Syntegral is strategically ...","rating":"","reviews":"","location":{"lat":"9.06667","lng":"7.48333"},"category":"legal","phone":"","website":"","email":""},{"name":"Tokunbo Orimobi LP (Ibadan Office)","address":"Queen Elizabeth Road, Mokola, Ibadan., Ibadan, Oyo","state":"Oyo","description":"Tokunbo Orimobi LP (“Tokunbo Orimobi”) has competent and adept lawyers with vast knowledge and experience in several areas of practice including but not limited to Corporate & Commercial; Corporat...","rating":"","reviews":"","location":{"lat":"7.998467878150746","lng":"3.2042312622070312"},"category":"legal","phone":"","website":"","email":""},{"name":"Tom George And Akinniranye","address":"1-9, Berkley Street, Onikpan, Lagos Island, Lagos","state":"Lagos","description":"The official web site of Tom George and Akinniranye.","rating":"","reviews":"","location":{"lat":"6.4473273","lng":"3.405397"},"category":"legal","phone":"","website":"","email":""},{"name":"","address":"","state":"","description":"","rating":"","reviews":"","location":{},"category":"legal","phone":"","website":"","email":""},{"name":"Uche Pat Okoro & Co","address":"No 3 Luther Street, Tinubu Lagos State, Lagos, Lagos","state":"Lagos","description":"Uche Pat Okoro & Co is a top notch law firm committed to client satisfaction. We offer professional property and corporate law services. ","rating":"","reviews":"","location":{"lat":"6.454718162338701","lng":"3.409114947807211"},"category":"legal","phone":"","website":"","email":""},{"name":"CAC registration in Port Harcourt","address":"El-lawson Solicitors,No. 350 Ikwerre Road by Checkpoint junction, Rumuokwuta, Port Harcourt, Rivers","state":"Rivers","description":"I am your digital lawyer, a CAC guru, your surest plug for everything related to registration of businesses/companies with the Corporate Affairs Commission of Nigeria. Register your business/company t...","rating":"","reviews":"","location":{"lat":"6.518878999999996","lng":"3.3740559999999986"},"category":"legal","phone":"","website":"","email":""},{"name":"Dlegalhouse Solicitors","address":"No.350 Aker Road, Iwofe P.H, Port Harcourt, Rivers","state":"Rivers","description":"We are your CAC experts. We help business owners register their businesses with CAC and we also help them process their trademark registration. We are your legit plug for genuine properties within Por...","rating":"","reviews":"","location":{},"category":"legal","phone":"","website":"","email":""},{"name":"Lords And Temple Legal Firm","address":"No. 294, Sabo - Yaba, Herbert Macaulay Rd, 101212, Lagos, Nigeria, Lagos","state":"","description":"Lords and Temple is renowned legal firm located in the center of Lagos with a team of Highly trained and experienced Litigation Lawyers. ","rating":"","reviews":"","location":{"lat":"6.5043315981363","lng":"3.3778774738311768"},"category":"legal","phone":"","website":"","email":""},{"name":"","address":"","state":"","description":"","rating":"","reviews":"","location":{},"category":"legal","phone":"","website":"","email":""},{"name":"Obaga, Obaga & Co","address":"Suite B49, Banex (Vina) Plaza, Wuse II, Abuja, Abuja, Abuja","state":"Abuja","description":"Obaga, Obaga & Co is a firm of legal practitioners and consultants based in the FCT with specialty in ICT Law and Infrastructure Financing. We have provided excellent legal solutions in the most compe...","rating":"","reviews":"","location":{"lat":"9.073217042098323","lng":"7.467978000640869"},"category":"legal","phone":"","website":"","email":""},{"name":"BONACCORD SOLICITORS","address":"46, QUEENS STREET, ALAGOMEJI BUS STOP, YABA, LAGOS, Lagos, Lagos","state":"Lagos","description":"Firm of Legal Practitioners and Arbitrators. Practice areas- General Litigation, Intellectual property Law, Immigration law practice, Maritime Law, Commercial and corporate law practice, Energy Law, a...","rating":"","reviews":"","location":{"lat":"6.50728136391842","lng":"3.370622772460936"},"category":"legal","phone":"","website":"","email":""},{"name":"FNB LAW PRACTICE","address":"2 Olufunmilola Okikiolu Street off Toyin Street, Ikeja, Lagos","state":"Lagos","description":"A modern law office equiped to provide solution to all your legal needs and challenges in all legal spectrum including commercial law, Real Estate, Receivership, Inellectual Property, Finance and Loan...","rating":"","reviews":"","location":{"lat":"6.596397163647197","lng":"3.347871984922449"},"category":"legal","phone":"","website":"","email":""},{"name":"ICEVIEW PARTNERS","address":"23, ILAWE STREET, IFAKO, GBAGADA, LAGOS, Lagos, Lagos","state":"Lagos","description":"ICEVIEW PARTNERS is a law firm engaged in the busines of general legal practice and Consultancy. The law firm has over 13 years experience in commercial and corporate litigation, arbitration and media...","rating":"","reviews":"","location":{"lat":"6.561438005689336","lng":"3.391264911731014"},"category":"legal","phone":"","website":"","email":""},{"name":"Lawserve Attorney","address":"29A, Araromi Street, Lagos Island, Lagos","state":"Lagos","description":"","rating":"4.0","reviews":"1 Review","location":{},"category":"legal","phone":"","website":"","email":""},{"name":"","address":"","state":"","description":"","rating":"","reviews":"","location":{},"category":"legal","phone":"","website":"","email":""},{"name":"Tajudeen Ao Funsho And Associate","address":"4C, Muritala Mohammed Way, Zainab House, Murtala International Airport Road, Nasarawa, Kano, Kano","state":"Kano","description":"This is a law firm. It briefs covers all sphere of legal services. It also act as legal agents to international business concerns. It also represents individuals in their personal capacities. We offer...","rating":"","reviews":"","location":{"lat":"11.98859332922442","lng":"8.498268127441406"},"category":"legal","phone":"","website":"","email":""},{"name":"The Positive Place","address":"14/16, Osolo way, Ajao Estate, Isolo Lagos Nigeria, Lagos, Lagos","state":"Lagos","description":"We are a team of engineers, policy experts and economists who are poised to use emerging technology diffusion to create the next future in Africa, starting from Nigeria. In our team are doctoral engin...","rating":"","reviews":"","location":{"lat":"6.740769827408821","lng":"3.460766294047062"},"category":"legal","phone":"","website":"","email":""},{"name":"Treadstone Solicitors","address":"suite 200,2nd floor,western mouse,8/10,Broad street,Lagos., Lagos Island, Lagos","state":"Lagos","description":"We are a law firm comprising of 15 lawyers with various years of experience,ranging from fifteen to twenty-five years practice experience.Our areas of practice include intellectual properties,like tra...","rating":"","reviews":"","location":{"lat":"6.451124593408553","lng":"3.390437656036397"},"category":"legal","phone":"","website":"","email":""},{"name":"Victor Ukpe and Co","address":"31 Obio Imo Street , Uyo, Akwa Ibom","state":"Akwa Ibom","description":"We are experts in Civil Litigation, Criminal Litigation, Commercial Law practice, Legal drafting, Maritime Law, Telecommunications Law, and General litigation.","rating":"","reviews":"","location":{"lat":"5.020274128135765","lng":"7.931957475753848"},"category":"legal","phone":"","website":"","email":""},{"name":"A A Aderogba And Company","address":"13, Okesuna Street, Lagos Island, Lagos","state":"Lagos","description":"","rating":"","reviews":"","location":{"lat":"6.451236","lng":"3.4047885"},"category":"legal","phone":"","website":"","email":""},{"name":"A A Ibrahim And Company","address":"Suite B8-B11 House, Tafawa Balewa Way Ndamela House, Area 3, Garki, Abuja","state":"","description":"","rating":"","reviews":"","location":{"lat":"9.06667","lng":"7.48333"},"category":"legal","phone":"","website":"","email":""},{"name":"Abayomi Disu And Company","address":"Ojogun House, 381, Yaba, Lagos Mainland, Lagos","state":"","description":"","rating":"","reviews":"","location":{"lat":"6.6189","lng":"3.30047"},"category":"legal","phone":"","website":"","email":""},{"name":"Abdullahi Ibrahim And Company","address":"45, Haile Selassie Street, Asokoro, Abuja","state":"","description":"","rating":"","reviews":"","location":{"lat":"9.04084","lng":"7.5193093"},"category":"legal","phone":"","website":"","email":""},{"name":"","address":"","state":"","description":"","rating":"","reviews":"","location":{},"category":"legal","phone":"","website":"","email":""},{"name":"Abdul And Associates","address":"2, Harvey Road Yaba Development Council, Lagos Mainland, Lagos","state":"","description":"","rating":"","reviews":"","location":{"lat":"6.5111809","lng":"3.3773242"},"category":"legal","phone":"","website":"","email":""},{"name":"Abfr And Company","address":"13, Military Street, Onikan, Lagos Island, Lagos","state":"Lagos","description":"","rating":"","reviews":"","location":{"lat":"6.4459794","lng":"3.4037162"},"category":"legal","phone":"","website":"","email":""},{"name":"Abiodun Falade And Company","address":"Suite B17, Plot 1400/140, Amma Centre, Oro Ago Crescent, Garki 2, Abuja Municipal, Abuja","state":"","description":"","rating":"","reviews":"","location":{"lat":"9.02762","lng":"7.49495"},"category":"legal","phone":"","website":"","email":""},{"name":"Abiodun Adesanya And Company","address":"50/52, Broad Street, Bookshop House, 2nd Floor, Lagos Island, Lagos","state":"Lagos","description":"","rating":"","reviews":"","location":{"lat":"6.4524039","lng":"3.3968535"},"category":"legal","phone":"","website":"","email":""}]