[{"name":"Rwellis & Co.","address":"Plot 824 Off Anthony Ani Street, Finance Quarters, Wuye Abuja Nigeria, Abuja, Abuja","state":"Abuja","description":"Rwellis & Co., is a Nigerian based, business and real estate firm specialising in diverse areas of business laws and real property. Incorporated in 2006 as Green Law Office, the name of the firm was c...","rating":"","reviews":"","location":{"lat":"9.066666699999999","lng":"7.483333300000027"},"category":"Legal","link":"https://www.businesslist.com.ng/company/196598/rwellisco","phone":"08104089303","website":"www.rwellislaw.com"},{"name":"Kunle Odufayo & co.","address":"17/19, 5th Floor Oshopey Plaza Allen Avenue, Lagos., Lagos, Lagos","state":"Lagos","description":"KUNLE ODUFAYO AND CO. IS ONE OF THE LEADING LAW FIRMS IN NIGERIA PROVIDING EXCEPTIONAL SERVICES IN THE AREAS OF CORPORATE AND COMMERCIAL LAW PRACTICE, REAL PROPERTY CONSULTING, REGULATORY COMPLIANCE E...","rating":"","reviews":"","location":{"lat":"6.59852402600195","lng":"3.353312462568283"},"category":"Legal","link":"https://www.businesslist.com.ng/company/253914/kunle-odufayoco","phone":"08023124183","website":"www.kunleodufayoandco.com"},{"name":"Ekikhalochambers","address":"195A, CORPORATION DRIVE DOLPHIN ESTATE, IKOYI LAGOS STATE, Ikeja, Lagos","state":"Lagos","description":"UWENSUYI-EDOSOMWAN & CO is a Law firm comprising of experienced, capable and dedicated legal professionals committed to providing exceptional legal services to its clients. The firm provides a wide sp...","rating":"","reviews":"","location":{"lat":"6.525701013595497","lng":"3.3740559999999986"},"category":"Legal","link":"https://www.businesslist.com.ng/company/266776/ekikhalochambers","phone":"+2348177581230","website":"ekikhalochambers.com/"}]