[{"name":"Must-Do Properties ","address":"Oak Building, County B/Stop, Ogba, Lagos, Lagos","state":"Lagos","description":"Real estate in all ramifications, including legal, finance, properties management, leasing, backward integrations, sales and development in Nigeria.","rating":"5.0","reviews":"3 Reviews","location":{"lat":"6.506868618824733","lng":"3.37705135345459"},"category":"Legal","link":"https://www.businesslist.com.ng/company/253384/must-do-properties","phone":"0812516076107093278261","website":""},{"name":"KAYODE AJULO & Co. CASTLE OF LAW","address":"21, Amazon Street, Ministers’ Hill, Maitama, Abuja-Nigeria, Abuja, Abuja","state":"Abuja","description":"KAYODE AJULO & Co. CASTLE OF LAW, is the leading corporate and litigation law firm in Nigeria, Africa. Our law firm is well equipped with up-to-date state of the art information technology to facilita...","rating":"4.0","reviews":"2 Reviews","location":{"lat":"9.078576204185302","lng":"7.401299124359184"},"category":"Legal","link":"https://www.businesslist.com.ng/company/256425/kayode-ajuloco-castle-of-law","imageUrl":"https://www.businesslist.com.ng/img/ng/m/1471036475-24-kayode-ajulo-co-castle-of-law.jpg","phone":"+2348033154349","website":"www.kayodeajulo.com"},{"name":"Chambers Of Mohammed Shuaib","address":"First Floor Block G, Bassan Plaza, Plot 759, Central Business District, Abuja, Abuja, Abuja","state":"Abuja","description":"The principal goals of the Firm are to position itself to deliver broad based and excellent legal services to its clients, with integrity and commitment. The Firm is involved in general legal practice...","rating":"5.0","reviews":"4 Reviews","location":{"lat":"9.05184711233383","lng":"7.482483386993408"},"category":"Legal","link":"https://www.businesslist.com.ng/company/164795/chambers-of-mohammed-shuaib","phone":"092915060","website":""},{"name":"Car Tracker Abuja","address":"61 Garki, Abuja, Abuja, Abuja","state":"Abuja","description":"We are into car tracking device and installation. With our tracking device, you can know the exact street where your car is anywhere in Nigeria. You can stop and start your car with your phone. You ca...","rating":"5.0","reviews":"2 Reviews","location":{"lat":"9.079449522605277","lng":"7.470806442457842"},"category":"Legal","link":"https://www.businesslist.com.ng/company/262545/car-tracker-abuja","imageUrl":"https://www.businesslist.com.ng/img/ng/a/1541692096-41-car-tracker-abuja.png","phone":"08066804625","website":"www.cartrackerabuja.com"},{"name":"Richflood Environmental and Laboratory Consultants","address":"Annex; Suite A16, Hawthorn Suites, Area 11 Abuja, Nigeria. Head Office; Plot 109A, Jubilation Bethel, Lokogoma, Abuja, Abuja, Abuja","state":"Abuja","description":"Environmental Consultant in Nigeria Services Environmental Impact Assessment (EIA) Environmental Audit (EA) Laboratory Services Environmental Monitoring Services Field Data Gathering for Co-Consultant...","rating":"","reviews":"","location":{"lat":"9.065970267393991","lng":"7.482569217681885"},"category":"Legal","link":"https://www.businesslist.com.ng/company/254200/richflood-environmental-and-laboratory-consultants","imageUrl":"https://www.businesslist.com.ng/img/ng/j/1435512137-37-richflood-environmental-and-laboratory-consultants.jpg","phone":"+234 09 292 0003","website":"www.richflood.com"},{"name":"CHAMAN PROPERTIES","address":"SHOP 17 POWA SHOPPING COMPLEX, WAREWA, BESIDE WAREWA POLICE STATION, WAWA BUS STOP, AFTER LONG BRIDGE, AREPO, LAGOS IBADAN EXPRESS WAY, OJODU BERGER, LAGOS STATE., Ikeja, Lagos","state":"Lagos","description":"CHAMAN PROPERTIES is a world-class and one of the leading real estate consulting firm in Nigeria. Our philosophy is very simple: we apply high quality standards to ensure smooth and transparent proper...","rating":"","reviews":"","location":{"lat":"6.688691488427496","lng":"3.4139722015243024"},"category":"Legal","link":"https://www.businesslist.com.ng/company/254756/chaman-properties","imageUrl":"https://www.businesslist.com.ng/img/ng/k/1444627659-63-chaman-properties.jpg","phone":"08065553671","website":"www.chamanproperties.estateagentsng.com"},{"name":"BAM & GAD SOLICITORS","address":"17/19 ALLEN AVENUE IKEJA ,LAGOS, Lagos, Lagos","state":"Lagos","description":"Bam & Gad Solicitors is a firm of leading lawyers located in Ikeja, Lagos, Nigeria providing efficient legal services as the top Commercial,Corporate, general Civil and Business law Attorneys. Practic...","rating":"5.0","reviews":"5 Reviews","location":{"lat":"6.598227266952309","lng":"3.3535531942901597"},"category":"Legal","link":"https://www.businesslist.com.ng/company/262824/bamgad-solicitors","imageUrl":"https://www.businesslist.com.ng/img/ng/k/1586341631-69-bam-gad-solicitors.jpg","phone":"+234 8062787594","website":"bamandgadsolicitors.com.ng"},{"name":"GRACE LEGACY CHAMBERS","address":"2, AYOBO ROAD OFF MEGIDA BUS STOP, ADJACENT GNA SCHOOLS, AYOBO. ALIMOSHO LCDA, LAGOS, NIGERIA, Lagos, Lagos","state":"Lagos","description":"Welcome to Grace Legacy Chambers, a full service law firm were we provide comprehensive legal services to our local and international clients. We look forward to becoming legally engaged with you. GLC...","rating":"5.0","reviews":"1 Review","location":{"lat":"6.6054","lng":"3.2438"},"category":"Legal","link":"https://www.businesslist.com.ng/company/261624/grace-legacy-chambers","imageUrl":"https://www.businesslist.com.ng/img/ng/s/1580501428-72-grace-legacy-chambers.jpg","phone":"08155464073","website":"g.page/grace-legacy-chambers?gm"},{"name":"CHAMAN LAW FIRM","address":"31, Afolabi Aina Street, Allen Ikeja, Lagos, Ikeja, Lagos","state":"Lagos","description":"CHAMAN LAW FIRM is a world class and one of the leading and top law firms in Nigeria. In Support of clients on substantial matters, we deploy well-configured attorney teams with domestic and internati...","rating":"","reviews":"","location":{"lat":"6.68906350636082","lng":"3.41474351740726"},"category":"Legal","link":"https://www.businesslist.com.ng/company/263550/chaman-law-firm","imageUrl":"https://www.businesslist.com.ng/img/ng/l/1589409730-41-chaman-law-firm.jpg","phone":"08065553671","website":"www.chamanlawfirm.com"},{"name":"Classic Attorneys","address":"4, Sule Abuka Street, Opebi, Ikeja, Ikeja, Lagos","state":"Lagos","description":"Classic Attorneys is a Real Estate and Property Law Firm in Lagos, Nigeria. We specialize in Conveyancing of Land and Developed Property assisting clients in acquisition and disposal of real estate as...","rating":"","reviews":"","location":{"lat":"6.425321747696884","lng":"3.4206460415324536"},"category":"Legal","link":"https://www.businesslist.com.ng/company/262320/classic-attorneys","imageUrl":"https://www.businesslist.com.ng/img/ng/g/1539503590-78-classic-attorneys.jpg","phone":"08168504153","website":"www.classic-attorneys.com"},{"name":"LEGAL EMPERORS","address":"13A AKPAN AKPA ETUK STREET, , Uyo, Akwa Ibom","state":"Akwa Ibom","description":"LEGAL EMPERORS is an entity registered under Part B of the Companies and Allied Matters Act, Cap C20 Laws of the Federation of Nigeria 2004 to engage in the business of Legal Practice & Consultancy, A...","rating":"","reviews":"","location":{"lat":"5.0365639858870574","lng":"7.91300907672121"},"category":"Legal","link":"https://www.businesslist.com.ng/company/256299/legal-emperors","imageUrl":"https://www.businesslist.com.ng/img/ng/d/1493887010-73-legal-emperors.jpg","phone":"+234-8022148248","website":"www.legalemperors.com.ng"},{"name":"Resolution Law Firm","address":"Alphon House, 50/52, Toyin Street, Ikeja, Lagos, Lagos","state":"Lagos","description":"Resolution Law Firm is established by a team of lawyers with a passion and dedication to cater to needs for quality legal services. Our lawyers have experience and technical know-how to deliver qualit...","rating":"5.0","reviews":"1 Review","location":{},"category":"Legal","link":"https://www.businesslist.com.ng/company/258641/resolution-law-firm","imageUrl":"https://www.businesslist.com.ng/img/ng/s/1501491324-76-resolution-law-firm.png","phone":"08099223322","website":"www.resolutionlawng.com"},{"name":"Lex Artifex, LLP.","address":"34 Udotung Ubo Street, Uyo, Akwa Ibom","state":"Akwa Ibom","description":"Lex Artifex, LLP, an international business law office, provides a wide range of top-tier, timely, cost-efficient and world-class integrated legal solutions to its business clients both internationall...","rating":"","reviews":"","location":{"lat":"6.4940767874131415","lng":"3.3415603637695312"},"category":"Legal","link":"https://www.businesslist.com.ng/company/257385/lex-artifex-llp","imageUrl":"https://www.businesslist.com.ng/img/ng/k/1487443185-21-lex-artifex-llp.png","phone":"+2348039795959","website":"www.lexartifexllp.com"},{"name":"Principality Clerks","address":"22b, Lugard Avenue, Ikoyi,, Lagos Island, Lagos","state":"Lagos","description":"Principality Clerks provides world class business registration and intellectual property registration services in Nigeria. We assist our numerous clients to carry out company registration, trademark r...","rating":"5.0","reviews":"2 Reviews","location":{"lat":"6.455614474430598","lng":"3.4326569470277946"},"category":"Legal","link":"https://www.businesslist.com.ng/company/261952/principality-clerks","imageUrl":"https://www.businesslist.com.ng/img/ng/e/1536143844-74-principality-clerks.jpg","phone":"08097700559","website":""},{"name":"Samson&Co","address":"12, Jimoh Akintoye Street, Lagos, Lagos","state":"Lagos","description":"Law and legal practitioners, we handle wills, inheritance, court case, real estates, documentation and other law firm activities.","rating":"5.0","reviews":"2 Reviews","location":{"lat":"6.584061667332406","lng":"3.3524799803955148"},"category":"Legal","link":"https://www.businesslist.com.ng/company/258330/samsonco","imageUrl":"https://www.businesslist.com.ng/img/ng/j/1498117645-95-samson-co.jpg","phone":"09057035193","website":""},{"name":"Augusten Godwalfe Chambers","address":"No. 3 Joseph Odunlami Street, Ogba, Ikeja, Lagos","state":"Lagos","description":"Augusten Godwalfe Chambers is Nigeria’s leading online law firm. Our clients have come to depend on us for the best legal advice and solutions at all hours of the day. Our strength lies in our promp...","rating":"5.0","reviews":"1 Review","location":{"lat":"6.629474493292302","lng":"3.340219259262085"},"category":"Legal","link":"https://www.businesslist.com.ng/company/259137/augusten-godwalfe-chambers","imageUrl":"https://www.businesslist.com.ng/img/ng/g/1507153353-15-augusten-godwalfe-chambers.png","phone":"+2348033876146","website":"www.godwalfe.com"},{"name":"OLAJUMOKE OLUBUKOLA OLADEJO (KOLAPO) ESQ","address":"No. 3, Aperin street, Awolowo, Old Bodija, Ibadan, Oyo","state":"Oyo","description":"Olajumoke is a Legal Practitioner in Ibadan, Oyo State, Nigeria. She was called to the Bar on the 14th day of February, 2012. She is also an Accredited Corporate Affairs Commission Agent. Her practice...","rating":"","reviews":"","location":{"lat":"7.373014051793841","lng":"3.93882193017578"},"category":"Legal","link":"https://www.businesslist.com.ng/company/267739/olajumoke-olubukola-oladejo-kolapo-esq","imageUrl":"https://www.businesslist.com.ng/img/ng/d/1591741357-20-olajumoke-olubukola-oladejo-kolapo-esq.jpg","phone":"234-8053927949","website":"olajumokeoladejo.wordpress.com"},{"name":"Amadi & Associates (Fortune Chambers)","address":"77 Njemanze Str. Owerri Imo State, Nigeria, Owerri, Imo","state":"Imo","description":"Amadi and Associates is a reputable Estate Agency and Legal representative that prides itself in being specialists in the sales, rentals and management of properties in Owerri Imo State, Nigeria. Our ...","rating":"5.0","reviews":"2 Reviews","location":{"lat":"5.4833333","lng":"7.033333299999981"},"category":"Legal","link":"https://www.businesslist.com.ng/company/190904/amadiassociates-furtune-chembers","imageUrl":"https://www.businesslist.com.ng/img/ng/l/1367700303_40887.jpg","phone":"+2348033425698","website":""},{"name":"OLUWABUNMI O. OGBONTIBA ESQ.","address":"3, Aperin Street, Awolowo Avenue, Old Bodija, Ibadan, Oyo","state":"Oyo","description":"Oluwabunmi O. Ogbontiba is a practicing lawyer and an accredited Corporate Affairs Commission Agent based in Ibadan, Oyo State, Nigeria with expertise in litigation, probate matters, registration of p...","rating":"4.0","reviews":"3 Reviews","location":{"lat":"7.356684460257768","lng":"4.021344616746663"},"category":"Legal","link":"https://www.businesslist.com.ng/company/266854/oluwabunmi-o-ogbontiba-esq","imageUrl":"https://www.businesslist.com.ng/img/ng/h/1582895870-63-oluwabunmi-o-ogbontiba-esq.jpg","phone":"+2348162760553","website":"ogbontibabunmi.wordpress.com"},{"name":"1st Attorneys","address":"22, Idowu Taylor Street, Victoria Isand, Lagos, Victoria Island, Lagos","state":"Lagos","description":"1st Attorneys is an International Business Law Firm serving Clients worldwide.","rating":"5.0","reviews":"2 Reviews","location":{"lat":"6.433479468582442","lng":"3.42708507882071"},"category":"Legal","link":"https://www.businesslist.com.ng/company/170747/1st-attorneys","imageUrl":"https://www.businesslist.com.ng/img/ng/d/1375624197_10479.jpg","phone":"234 1 2705178","website":"1stattorneys.com"},{"name":"Alexander Payne Co. Ltd","address":"Investment House (7th floor) 21/25 Broad Street, Lagos Island, Lagos","state":"Lagos","description":"Alexander Payne Co Ltd is a reputable Law publication firm. Our publications includes the Supreme Court Judgments on Lands; Nigerian Company Law Cases and Supreme Court Judgments on Evidence.we also h...","rating":"","reviews":"","location":{"lat":"6.4467015454137195","lng":"3.3983051776885986"},"category":"Legal","link":"https://www.businesslist.com.ng/company/258670/alexander-payne-co-ltd","imageUrl":"https://www.businesslist.com.ng/img/ng/k/1501770285-21-alexander-payne-co-ltd.jpg","phone":"08181999888","website":"www.alexandernigeria.com"},{"name":"Royal Heritage","address":"ADEKILE HOUSE 7, Ikoyi Club,1938 Road, Ikoyi Lagos., Lagos, Lagos","state":"Lagos","description":"Royal Heritage is a group of : SOLICITORS| BARRISTERS| NOTARIES PUBLIC| TRADE MARK AGENTS. The firm provides specialized services to a variety of clients, both local and international, with respect to...","rating":"","reviews":"","location":{"lat":"6.452562299999999","lng":"3.4278596000000334"},"category":"Legal","link":"https://www.businesslist.com.ng/company/252996/royal-heritage","imageUrl":"https://www.businesslist.com.ng/img/ng/l/1413291279-royal-heritage.png","phone":"+234-803 320 6947","website":"www.royalheritagelaw.com"},{"name":"Jide Ogundimu & Co Solicitors","address":"4B, Oba Adetona Street, Ilupeju Estate, Lagos, Lagos","state":"Lagos","description":"Jide Ogundimu & Co Solicitors a firm of Barristers and Solicitors is a progressive and innovative law practice based in the City of Lagos, Nigeria. The firm was founded in 2006 by Mr. Jide Ogundimu a ...","rating":"4.8","reviews":"4 Reviews","location":{},"category":"Legal","link":"https://www.businesslist.com.ng/company/102690/jide-ogundimuco-solicitors","imageUrl":"https://www.businesslist.com.ng/img/ng/j/1525072767_38799.jpg","phone":"+234-9099870393+234-80-60559255+447-956503531","website":"www.jideogundimucosolicitors.com"},{"name":"Pristine Crest Legal Practitioners & Consultants","address":"1st Floor, SOS Memorial Plaza, Sango-Eleyele Road, Oluseyi Bus Stop, Ibadan, Ibadan, Oyo","state":"Oyo","description":"Pristine Crest Legal is a team of young dynamic professionals with world view. For us, every case is unique and important so we take them seriously. We think outside the box within legal boundaries to...","rating":"","reviews":"","location":{"lat":"7.83333","lng":"3.93333"},"category":"Legal","link":"https://www.businesslist.com.ng/company/264988/pristine-crest-legal-practitionersconsultants","imageUrl":"https://www.businesslist.com.ng/img/ng/d/1567380041-12-pristine-crest-legal-practitioners-consultants.jpg","phone":"2347062264113","website":"pristinecrestlegal.org.ng/"},{"name":"TEMIDLAW CHAMBERS","address":"2b, Kunle Lemboye Close, formerly Ifeolu Close, opposite Eastwind Eye Specialist Hospital, along Igbore Road Ijeja-Abeokuta., Abeokuta, Ogun","state":"Ogun","description":"It is our pleasure to introduce TemiDLaw Chambers, which has been operating as a new entity in the legal advisory market since 2013. We are convinced that the three basic pillars of our services i.e. ...","rating":"5.0","reviews":"1 Review","location":{"lat":"7.143726280718671","lng":"3.3375139687428828"},"category":"Legal","link":"https://www.businesslist.com.ng/company/262994/temidlaw-chambers","imageUrl":"https://www.businesslist.com.ng/img/ng/s/1547048422-48-temidlaw-chambers.png","phone":"08080769766","website":""},{"name":"Nobilitas Solicitors","address":" 21, Ajanaku Street, (Awuse Estate) off Salvation Road, Opebi – Ikeja,Lagos., Lagos, Lagos","state":"Lagos","description":"Integrated Legal Services in Nigeria. Our areas of practice include: Local and international Technology and eCommerce advisory Crisis management, including 24/7 response and advice services for enviro...","rating":"5.0","reviews":"1 Review","location":{"lat":"6.58621214540667","lng":"3.3653774578124285"},"category":"Legal","link":"https://www.businesslist.com.ng/company/263654/nobilitas-solicitors","imageUrl":"https://www.businesslist.com.ng/img/ng/e/1554237287-99-nobilitas-solicitors.jpg","phone":"(+234) 8035789155","website":"www.nobilitassolicitors.com/"},{"name":"Country hill attorneys & solicitors","address":"13B Esther Adeleke St, Lekki Phase 1 105102, Lagos, Ebonyi","state":"","description":"Country Hill Attorneys & Solicitors is a full-service law firm comprising of professionals with diverse expertise and proven track records of offering a wide range of tailor-made legal services which ...","rating":"5.0","reviews":"1 Review","location":{"lat":"6.450815949638373","lng":"3.480404290083243"},"category":"Legal","link":"https://www.businesslist.com.ng/company/264389/country-hill-attorneyssolicitors","imageUrl":"https://www.businesslist.com.ng/img/ng/e/1562300838-24-country-hill-attorneys-solicitors.jpg","phone":"08036622568","website":"countryhillattorneys.com.ng"},{"name":"Primedgeattorneys","address":" Suite 309, No. 4 Algiers Street, Wuse Zone 5 Abuja., Abuja, Abuja","state":"Abuja","description":"Primedgeattorneys is a top-notch, Law Firm; which has as its primary focus - the satisfaction of the specialized needs of its Clients. We are also dedicated to excellence in our chosen endeavors. Our ...","rating":"","reviews":"","location":{"lat":"9.062811339156964","lng":"7.457861548065239"},"category":"Legal","link":"https://www.businesslist.com.ng/company/260900/primedgeattorneys","imageUrl":"https://www.businesslist.com.ng/img/ng/x/1526579042-78-primedgeattorneys.png","phone":"08037850768","website":"www.primedgeattorneys.com"},{"name":"Banwo & Ighodalo","address":"98, Awolowo Road, South West Ikoyi, Lagos","state":"","description":"Banwo & Ighodalo is a top legal firm, constantly ranked as one of the top five Nigerian law firms in Corporate Finance & Restructuring, Project Finance, Foreign Investment & Divestment, Securities & C...","rating":"","reviews":"","location":{"lat":"6.442391643615336","lng":"3.419679354077175"},"category":"Legal","link":"https://www.businesslist.com.ng/company/196725/banwoighodalo","imageUrl":"https://www.businesslist.com.ng/img/ng/g/1414606193-banwo-ighodalo.jpg","phone":"01 4615203","website":"www.banwo-ighodalo.com"}]