[{"name":"Uche Pat Okoro & Co","address":"No 3 Luther Street, Tinubu Lagos State, Lagos, Lagos","state":"Lagos","description":"Uche Pat Okoro & Co is a top notch law firm committed to client satisfaction. We offer professional property and corporate law services. ","rating":"","reviews":"","location":{"lat":"6.454718162338701","lng":"3.409114947807211"},"category":"Legal","link":"https://www.businesslist.com.ng/company/265477/uche-pat-okoroco","imageUrl":"https://www.businesslist.com.ng/img/ng/e/1571321074-78-uche-pat-okoro-co.jpg","phone":"+2348038455621","website":""},{"name":"Tokunbo Orimobi LP (Ibadan Office)","address":"Queen Elizabeth Road, Mokola, Ibadan., Ibadan, Oyo","state":"Oyo","description":"Tokunbo Orimobi LP (“Tokunbo Orimobi”) has competent and adept lawyers with vast knowledge and experience in several areas of practice including but not limited to Corporate & Commercial; Corporat...","rating":"","reviews":"","location":{"lat":"7.998467878150746","lng":"3.2042312622070312"},"category":"Legal","link":"https://www.businesslist.com.ng/company/259382/tokunbo-orimobi-lp-ibadan-office","phone":"+2348055190025","website":"www.tolegalgroup.com"},{"name":"ICEVIEW PARTNERS","address":"23, ILAWE STREET, IFAKO, GBAGADA, LAGOS, Lagos, Lagos","state":"Lagos","description":"ICEVIEW PARTNERS is a law firm engaged in the busines of general legal practice and Consultancy. The law firm has over 13 years experience in commercial and corporate litigation, arbitration and media...","rating":"","reviews":"","location":{"lat":"6.561438005689336","lng":"3.391264911731014"},"category":"Legal","link":"https://www.businesslist.com.ng/company/261585/iceview-partners","phone":"08034846512","website":""},{"name":"The Positive Place","address":"14/16, Osolo way, Ajao Estate, Isolo Lagos Nigeria, Lagos, Lagos","state":"Lagos","description":"We are a team of engineers, policy experts and economists who are poised to use emerging technology diffusion to create the next future in Africa, starting from Nigeria. In our team are doctoral engin...","rating":"","reviews":"","location":{"lat":"6.740769827408821","lng":"3.460766294047062"},"category":"Legal","link":"https://www.businesslist.com.ng/company/256445/the-positive-place","phone":"+2347037924280","website":""},{"name":"Victor Ukpe and Co","address":"31 Obio Imo Street , Uyo, Akwa Ibom","state":"Akwa Ibom","description":"We are experts in Civil Litigation, Criminal Litigation, Commercial Law practice, Legal drafting, Maritime Law, Telecommunications Law, and General litigation.","rating":"","reviews":"","location":{"lat":"5.020274128135765","lng":"7.931957475753848"},"category":"Legal","link":"https://www.businesslist.com.ng/company/263965/victor-ukpe-and-co","imageUrl":"https://www.businesslist.com.ng/img/ng/m/1558106072-23-victor-ukpe-and-co.jpg","phone":"07062726217","website":""},{"name":"Dlegalhouse Solicitors","address":"No.350 Aker Road, Iwofe P.H, Port Harcourt, Rivers","state":"Rivers","description":"We are your CAC experts. We help business owners register their businesses with CAC and we also help them process their trademark registration. We are your legit plug for genuine properties within Por...","rating":"","reviews":"","location":{},"category":"Legal","link":"https://www.businesslist.com.ng/company/266255/dlegalhouse-solicitors","imageUrl":"https://www.businesslist.com.ng/img/ng/f/1578405675-56-dlegalhouse-solicitors.png","phone":"08064292566","website":""},{"name":"Lords And Temple Legal Firm","address":"No. 294, Sabo - Yaba, Herbert Macaulay Rd, 101212, Lagos, Nigeria, Lagos","state":"","description":"Lords and Temple is renowned legal firm located in the center of Lagos with a team of Highly trained and experienced Litigation Lawyers. ","rating":"","reviews":"","location":{"lat":"6.5043315981363","lng":"3.3778774738311768"},"category":"Legal","link":"https://www.businesslist.com.ng/company/257738/lords-and-temple-legal-firm","imageUrl":"https://www.businesslist.com.ng/img/ng/j/1491475760-92-lords-and-temple-legal-firm.jpg","phone":"+234 802 639 9294","website":""},{"name":"CAC registration in Port Harcourt","address":"El-lawson Solicitors,No. 350 Ikwerre Road by Checkpoint junction, Rumuokwuta, Port Harcourt, Rivers","state":"Rivers","description":"I am your digital lawyer, a CAC guru, your surest plug for everything related to registration of businesses/companies with the Corporate Affairs Commission of Nigeria. Register your business/company t...","rating":"","reviews":"","location":{"lat":"6.518878999999996","lng":"3.3740559999999986"},"category":"Legal","link":"https://www.businesslist.com.ng/company/266339/cac-registration-in-port-harcourt","imageUrl":"https://www.businesslist.com.ng/img/ng/k/1579089902-20-cac-registration-in-port-harcourt.jpg","phone":"08064292566","website":""},{"name":"Obaga, Obaga & Co","address":"Suite B49, Banex (Vina) Plaza, Wuse II, Abuja, Abuja, Abuja","state":"Abuja","description":"Obaga, Obaga & Co is a firm of legal practitioners and consultants based in the FCT with specialty in ICT Law and Infrastructure Financing. We have provided excellent legal solutions in the most compe...","rating":"","reviews":"","location":{"lat":"9.073217042098323","lng":"7.467978000640869"},"category":"Legal","link":"https://www.businesslist.com.ng/company/255941/obaga-obagaco-legal-practitioners","imageUrl":"https://www.businesslist.com.ng/img/ng/k/1496402051-77-obaga-obaga-co.jpg","phone":"08034141257","website":""},{"name":"Treadstone Solicitors","address":"suite 200,2nd floor,western mouse,8/10,Broad street,Lagos., Lagos Island, Lagos","state":"Lagos","description":"We are a law firm comprising of 15 lawyers with various years of experience,ranging from fifteen to twenty-five years practice experience.Our areas of practice include intellectual properties,like tra...","rating":"","reviews":"","location":{"lat":"6.451124593408553","lng":"3.390437656036397"},"category":"Legal","link":"https://www.businesslist.com.ng/company/256504/treadstone-solicitors","imageUrl":"https://www.businesslist.com.ng/img/ng/e/1472323512-45-treadstone-solicitors.jpg","phone":"+234 8023799276","website":""},{"name":"BONACCORD SOLICITORS","address":"46, QUEENS STREET, ALAGOMEJI BUS STOP, YABA, LAGOS, Lagos, Lagos","state":"Lagos","description":"Firm of Legal Practitioners and Arbitrators. Practice areas- General Litigation, Intellectual property Law, Immigration law practice, Maritime Law, Commercial and corporate law practice, Energy Law, a...","rating":"","reviews":"","location":{"lat":"6.50728136391842","lng":"3.370622772460936"},"category":"Legal","link":"https://www.businesslist.com.ng/company/267373/bonaccord-solicitors","imageUrl":"https://www.businesslist.com.ng/img/ng/a/1586921873-68-bonaccord-solicitors.jpg","phone":"08034465815","website":""},{"name":"FNB LAW PRACTICE","address":"2 Olufunmilola Okikiolu Street off Toyin Street, Ikeja, Lagos","state":"Lagos","description":"A modern law office equiped to provide solution to all your legal needs and challenges in all legal spectrum including commercial law, Real Estate, Receivership, Inellectual Property, Finance and Loan...","rating":"","reviews":"","location":{"lat":"6.596397163647197","lng":"3.347871984922449"},"category":"Legal","link":"https://www.businesslist.com.ng/company/265828/fnb-law-practice","imageUrl":"https://www.businesslist.com.ng/img/ng/h/1574297719-14-fnb-law-practice.jpg","phone":"08188877400","website":""}]