[{"name":"Dele Oye & Associates","address":"Plot 575 by Livestock House, Off Obafemi Awolowo Way, Life Camp, Abuja","state":"","description":"Dele Oye & Associates is a full-service law firm in Nigeria, with offices in Lagos and Abuja providing expert legal services in criminal law, real estate law, taxation law, mining law, litigation, lab...","rating":"","reviews":"","location":{"lat":"9.0652843","lng":"7.4299054"},"category":"Legal","link":"https://www.businesslist.com.ng/company/164856/dele-oyeassociates","imageUrl":"https://www.businesslist.com.ng/img/ng/x/1555346036_31577.png","phone":"0802 321 1760","website":"deleoye.ng"},{"name":"Okoawo Bluegate and Co","address":"65, Forestry Road, Benin City, Edo State, Benin City, Edo","state":"Edo","description":"We are law firm. our areas of specialization are- litigation, {civil and criminal} solicitors works, ADR, Immigration, Maritime, property management and consultant, company secretary etc We have Four ...","rating":"5.0","reviews":"1 Review","location":{},"category":"Legal","link":"https://www.businesslist.com.ng/company/170751/okoawo-bluegate-and-co","phone":"08036986363","website":"okoawobluegate.yolasite.com"},{"name":"P.O. ATANO & CO","address":"#8 Adeshiyan Street, Off Shyllon Street, Ilupeju-Palmgrove, Lagos, Lagos","state":"Lagos","description":"The Law Firm of P.O. ATANO & CO is made up of seasoned lawyers with expertise in various practice areas of law. Each of these practice areas comprise of very well integrated legal team that can work t...","rating":"","reviews":"","location":{"lat":"6.5243793","lng":"3.379205700000057"},"category":"Legal","link":"https://www.businesslist.com.ng/company/252808/po-atanoco","imageUrl":"https://www.businesslist.com.ng/img/ng/b/1415625590-p-o-atano-co.jpg","phone":"","website":"www.poatanoandco.com"},{"name":"QUEENS ATTORNEYS LP","address":"9, Ibeju Lekki street, Dolphin Estate, Ikoyi, Lagos, Lagos Island, Lagos","state":"Lagos","description":"At Queens Attorneys, we leverage on our broad based competence in offering best legal services within and outside the shores of Africa.","rating":"","reviews":"","location":{"lat":"6.456317671447391","lng":"3.414022922515869"},"category":"Legal","link":"https://www.businesslist.com.ng/company/196514/queens-attorneys-lp","phone":"0803978822708022892324","website":"www.queensattorneys.org"},{"name":"SUN NATHA-ALADE & PARTNERS (SNATHAP)","address":"65, M.K.O Abiola Way, Opp. Dikat House, Ring Road, Ibadan, Ibadan, Oyo","state":"Oyo","description":"Sun Natha-Alade & Partners (SNATHAP) is a fast growing and leading law firm in Nigeria. We do all your legals and give you a remarkable experience","rating":"5.0","reviews":"1 Review","location":{},"category":"Legal","link":"https://www.businesslist.com.ng/company/263083/sun-natha-aladepartners-snathap","phone":"08064961554","website":"www.snathap.com"},{"name":"OBINNA AJOKU & CO.","address":"No. 6A, Goba Close, Off Monrovia Street, Aminu Kano Crescent, Wuse II, Abuja., Abuja, Abuja","state":"Abuja","description":"Obinna Ajoku & Co is a registered firm of Legal Practitioners based in the Federal Capital Territory Abuja. It was incorporated on the 16th day of August, 1991 as a firm of private Legal Practitioners...","rating":"","reviews":"","location":{"lat":"9.073995457009822","lng":"7.471143175792445"},"category":"Legal","link":"https://www.businesslist.com.ng/company/267755/obinna-ajokuco","imageUrl":"https://www.businesslist.com.ng/img/ng/f/1594389431-49-obinna-ajoku-co.png","phone":"08033203976","website":""},{"name":"Wole Ajewole and Company","address":"9A, Ibrahim Onashokun Street, 1st Floor (Suite 1), Ifako, Gbagada, Kosofe, Lagos, Lagos","state":"Lagos","description":"WOLE AJEWOLE & COMPANY is a dynamic and unique firm based in Lagos the commercial capital city of Nigeria and manned by competent hands. An efficient and experienced team of lawyers, recovery agents a...","rating":"","reviews":"","location":{"lat":"6.5587621813633215","lng":"3.388090923309335"},"category":"Legal","link":"https://www.businesslist.com.ng/company/246329/wole-ajewole-and-company","phone":"0808902238808099997602","website":"info@woleajewoleandco.com.ng"},{"name":"ADVANCED CHAMBERS","address":"Advanced Chambers, No: 7 Musa Yaradua Drive Owerri Imo State Nigeria, Owerri, Imo","state":"Imo","description":"ADVANCED CHAMBERS' mission is to provide quality legal services with highest standards of professional integrity and respect for our clients. In doing this, we enjoy and strive to provide our clients ...","rating":"","reviews":"","location":{"lat":"5.489272592737647","lng":"7.013854265051236"},"category":"Legal","link":"https://www.businesslist.com.ng/company/254478/advanced-chambers","phone":"0803 774 4620","website":"www.advancedchambers.org"},{"name":"Princess Legal World limited","address":"1/3,Simpson Street, Opp. High Court,Igbosere, Lagos., Lagos, Lagos","state":"Lagos","description":"We are your one-stop outfit for the law profession. With over 10 years of our dealings on legal materials, we have carved a niche in the sales and supply of all types and ranges of quality law books, ...","rating":"","reviews":"","location":{"lat":"6.45006","lng":"3.40165"},"category":"Legal","link":"https://www.businesslist.com.ng/company/267520/princess-legal-world-limited","phone":"07031918549","website":"princesslegalworld.com/"},{"name":"Global Legal Consults","address":"35, Adekunle Fajuyi Street, Ikeja, Lagos","state":"Lagos","description":"Cross-border full service law firm.","rating":"","reviews":"","location":{"lat":"6.5762301","lng":"3.3438201"},"category":"Legal","link":"https://www.businesslist.com.ng/company/245989/global-legal-consults","phone":"08033159042","website":"www.glc.legal"},{"name":"Okoawo BlueGate & Co.","address":"65, Forestry Road, Benin City, Benin City, Edo","state":"Edo","description":"Law Firm In Benin City, Edo State, We are Lawyers (Solicitors and Advocates, We are consultants in the buying and selling of any property in Nigeria. Immigration Experts.","rating":"3.3","reviews":"3 Reviews","location":{"lat":"6.3405663","lng":"5.628176400000029"},"category":"Legal","link":"https://www.businesslist.com.ng/company/170739/okoawo-bluegateco","phone":"08036986363","website":"www.okoawobluegate.yolasite.com"},{"name":"Rotimi Adeniyi And Company Solicitor","address":"22 Athenaeum Court, , Highbury, Ikeja, Lagos","state":"Lagos","description":"OUR FIRM HAS BEEN IN OPERATION SINCE 2009 WITH SPECIALIZATION IS REAL ESTATE, CORPORATE AND IMMIGRATION LAW","rating":"","reviews":"","location":{"lat":"6.45306","lng":"3.39583"},"category":"Legal","link":"https://www.businesslist.com.ng/company/245900/rotimi-adeniyi-and-company-solicitor","phone":"07534981645","website":"www.robaadgroup.com"},{"name":"ABI LEGAL","address":"Suite 28, In God We Trust Plaza, Old Ife Road, Ibadan, Ibadan, Oyo","state":"Oyo","description":"ABI LEGAL Barristers and Solicitors is one of the best commercial law firms in Ibadan, Oyo State, Nigeria. The firm has dynamic lawyers who are very innovative and knowledginle. The success record of ...","rating":"","reviews":"","location":{"lat":"7.381854875451659","lng":"3.929030078058531"},"category":"Legal","link":"https://www.businesslist.com.ng/company/263664/abi-legal","phone":"07066990315","website":"www.abilegal.com.ng"},{"name":"LEGALHOUSE SOLICITORS","address":"PLOT D80 GAT OBOH DRIVE THE MILLENNIUM HOMES ONIRU ESTATE VICTORIA ISLAND LAGOS, Victoria Island, Lagos","state":"Lagos","description":"We are a firm of commercial lawyers with multi-disciplinary experience in the following areas of law Real Estate Trademark Corporate and Commercial Matrimonial and Family Banking","rating":"","reviews":"","location":{"lat":"6.436125728400012","lng":"3.41899037361145"},"category":"Legal","link":"https://www.businesslist.com.ng/company/254260/legalhouse-solicitors","phone":"+2348023160873","website":"www.legalhouse-ng.com"},{"name":"Selovian Properties Int'l Limited","address":"3, Oliyide Street, off Toyin street, Ikeja, Lagos, Ikeja, Lagos","state":"Lagos","description":"SELOVIAN (PROPERTIES) INTERNATIONAL LIMITED is a fast growing business concern with vast experience in Real Estate Consultancy and Facility Management. The company provides world class services to an ...","rating":"","reviews":"","location":{"lat":"6.596207955613873","lng":"3.3458304405212402"},"category":"Legal","link":"https://www.businesslist.com.ng/company/253113/selovian-properties-intl-limited","imageUrl":"https://www.businesslist.com.ng/img/ng/d/1412278017-selovian-properties-int-l-limited.png","phone":"08024284762","website":"www.selovianproperties.com"}]