[{"name":"Abiodun Adesanya And Company","address":"50/52, Broad Street, Bookshop House, 2nd Floor, Lagos Island, Lagos","state":"Lagos","description":"","rating":"","reviews":"","location":{"lat":"6.4524039","lng":"3.3968535"},"category":"legal","phone":"","website":"","email":""},{"name":"A C E Ezenduka And Company","address":"57/59, Karimu Street, Surulere, Lagos","state":"","description":"","rating":"","reviews":"","location":{"lat":"6.51051","lng":"3.35977"},"category":"legal","phone":"","website":"","email":""},{"name":"Adereti Adegbite And Company","address":"282, Gbagada Expressway, Gbagada, Shomolu, Lagos","state":"","description":"","rating":"","reviews":"","location":{"lat":"6.54777","lng":"3.38237"},"category":"legal","phone":"","website":"","email":""},{"name":"","address":"","state":"","description":"","rating":"","reviews":"","location":{},"category":"legal","phone":"","website":"","email":""},{"name":"Adedeji And Owotomo","address":"38/39, Marina, 18Th Floor, The Bull, Marina, Lagos Island, Lagos","state":"Lagos","description":"","rating":"","reviews":"","location":{"lat":"6.4530556","lng":"3.3958333"},"category":"legal","phone":"","website":"","email":""},{"name":"Adesokan And Adesokan","address":"15B, Joseph Street, Marina, Lagos Island, Lagos","state":"Lagos","description":"","rating":"","reviews":"","location":{"lat":"6.45306","lng":"3.39583"},"category":"legal","phone":"","website":"","email":""},{"name":"Adeola & Associates","address":"47, Isheri Road, Ogba, Ikeja, Lagos","state":"Lagos","description":"","rating":"","reviews":"","location":{"lat":"6.635024681683857","lng":"3.350013345479965"},"category":"legal","phone":"","website":"","email":""},{"name":"Adeyemi-Akisanya Associates","address":"5, Idowu Taylor Street, Eti Osa, Victoria Island, Lagos","state":"Lagos","description":"","rating":"","reviews":"","location":{"lat":"6.4332693","lng":"3.4264563"},"category":"legal","phone":"","website":"","email":""},{"name":"","address":"","state":"","description":"","rating":"","reviews":"","location":{},"category":"legal","phone":"","website":"","email":""},{"name":"Advocaat Barristers And Solicitors","address":"14, Hughes Avenue, Law Union House (1st Floor), Yaba, Lagos Mainland, Lagos","state":"","description":"","rating":"","reviews":"","location":{"lat":"6.5083701","lng":"3.3842473"},"category":"legal","phone":"","website":"","email":""},{"name":"Agabi Sinaba And Company","address":"136, Awolowo Road, Lagos Island, Lagos","state":"Lagos","description":"","rating":"","reviews":"","location":{"lat":"6.4420086","lng":"3.4153442"},"category":"legal","phone":"","website":"","email":""},{"name":"AGADA CHAMBERS","address":"Suite 316, Plot 10999, Adamawa Plaza, By Federal High Court, Central Business District, Abuja., Abuja, Abuja","state":"Abuja","description":"We are Legal Practitioners and Notary Public. Registered and license to practice in Nigeria. We specialize in business and family law, trademark and copyright laws.","rating":"","reviews":"","location":{"lat":"9.0663599","lng":"7.4937733"},"category":"legal","phone":"","website":"","email":""},{"name":"Akabogu And Associates","address":"3/5, Imam Dauda Street, Tapa House, 2nd Floor West Wing, Surulere, Lagos","state":"","description":"","rating":"","reviews":"","location":{"lat":"6.45306","lng":"3.39583"},"category":"legal","phone":"","website":"","email":""},{"name":"Akinboro And Company","address":"Campbell Street, 3rd Floor, Lagos Island, Lagos","state":"Lagos","description":"","rating":"","reviews":"","location":{"lat":"6.45001","lng":"3.3957"},"category":"legal","phone":"","website":"","email":""},{"name":"","address":"","state":"","description":"","rating":"","reviews":"","location":{},"category":"legal","phone":"","website":"","email":""},{"name":"Akinwunmi And Busari (Legal Practitioners)","address":"163/165, Old Niger House, Broad Street, Lagos Island, Lagos","state":"Lagos","description":"","rating":"","reviews":"","location":{"lat":"6.4524039","lng":"3.3968535"},"category":"legal","phone":"","website":"","email":""},{"name":"Alexander payne & Co.Ltd.","address":"Investment house (7th floor) 21/25,broad street,Lagos, Victoria Island, Lagos","state":"Lagos","description":"A private limited liability company located in the commercial city of Lagos. We publish specialized Law Reports and engage in the organization of law-related seminars and conferences. ","rating":"","reviews":"","location":{},"category":"legal","phone":"","website":"","email":""},{"name":"Alfred James And Company Solicitors Llp","address":"5, Idowu Taylor, Ibeju Lekki, Victoria Island, Lagos","state":"Lagos","description":"","rating":"","reviews":"","location":{"lat":"6.43327","lng":"3.42646"},"category":"legal","phone":"","website":"","email":""},{"name":"Allan And Ogunkeye","address":"8/10, Broad Street, 7th Floor, Western House, Lagos Island, Lagos","state":"Lagos","description":"","rating":"","reviews":"","location":{"lat":"6.4530556","lng":"3.3958333"},"category":"legal","phone":"","website":"","email":""},{"name":"Amaechi And Amaechi","address":"9, Fadeyi Aladura Street, Awolowo Way, Ikeja, Lagos","state":"Lagos","description":"","rating":"","reviews":"","location":{"lat":"6.5833333","lng":"3.3333333"},"category":"legal","phone":"","website":"","email":""},{"name":"Anthony Regha And Associates","address":"2, Martin Street, 4rd Floor, Surulere, Lagos","state":"","description":"","rating":"","reviews":"","location":{"lat":"6.45306","lng":"3.39583"},"category":"legal","phone":"","website":"","email":""},{"name":"Anthony Ani And Associates","address":"11A, Hillview Independence Layout, Enugu North, Enugu","state":"","description":"","rating":"","reviews":"","location":{"lat":"6.4320851","lng":"7.5189614"},"category":"legal","phone":"","website":"","email":""},{"name":"Awokoya, Awokoya And Company","address":"76, Adeniyi Jones Avenue, Ikeja, Lagos","state":"Lagos","description":"","rating":"","reviews":"","location":{"lat":"6.61468","lng":"3.3457"},"category":"legal","phone":"","website":"","email":""}]