[{"name":"Serenity Legal Union & Partners","address":"No 7. Jessy and Jenny street off Odili Road, Trans-Amadi Port Harcourt, Port Harcourt, Rivers","state":"Rivers","description":"Serenity Legal Union & Partners is a multifaceted Law Firm, with a bias for Corporate and Commercial Law Practice, Due Diligence, Public Sector Legal Support, Advanced Legal Research, Oil and Gas ...","rating":"","reviews":"","location":{"lat":"4.8155540000000085","lng":"7.049672538623099"},"category":"Legal","link":"https://www.businesslist.com.ng/company/261602/serenity-legal-unionpartners","imageUrl":"https://www.businesslist.com.ng/img/ng/f/1536668206-72-serenity-legal-union-partners.jpg","phone":"08068296028","website":"www.serenitylawoffices.com"},{"name":"LexGius LP (Omenga Chambers)","address":"Cele Bus Stop, King of Glory Plaza, by Lagos-Ibadan Expressway, Magboro Ogun State, Lagos, Ogun","state":"Ogun","description":"LexGius LP is a modern law firm established to offer personalized legal services. We offer professional legal services having regards to modern trends in law and technology. Our core specializations i...","rating":"","reviews":"","location":{"lat":"6.573966003600317","lng":"3.3975927204701293"},"category":"Legal","link":"https://www.businesslist.com.ng/company/265476/lexgius-lp-omenga-chambers","imageUrl":"https://www.businesslist.com.ng/img/ng/j/1571319801-74-lexgius-lp-omenga-chambers.jpg","phone":"+2347036458931","website":"www.lexgius.wordpress.com"},{"name":"Sab Legal ( CAC Registration in Port Harcourt) ","address":"No. 350 Ikwerre Road, Rumuokuta. Port Harcourt, Rivers State, Nigeria., Port Harcourt, Rivers","state":"Rivers","description":"We are CAC expert, the best Accredited CAC Agents in Port Harcourt. Your one stop shop for everything related to registration of Business Name , Company and N.G.O with the Corporate Affairs Commission...","rating":"","reviews":"","location":{"lat":"4.800185254867643","lng":"7.039967055043075"},"category":"Legal","link":"https://www.businesslist.com.ng/company/267753/sab-legalcac-registration-in-port-harcourt","imageUrl":"https://www.businesslist.com.ng/img/ng/g/1594399278-53-sab-legal-cac-registration-in-port-harcourt.jpg","phone":"+2347031149213+2347051748984","website":""},{"name":"Ukiri & Lijadu","address":"ARM Life Building - 8, Kasumu Ekemode Street, Victoria Island, , Victoria Island, Lagos","state":"Lagos","description":"Ukiri & Lijadu is a full service commercial legal practice with its main offices in Lagos, Nigeria with a fresh innovative and creative approach to client care. Our corporate philosophy emphasizes qua...","rating":"","reviews":"","location":{"lat":"6.425245840076139","lng":"3.422117829322815"},"category":"Legal","link":"https://www.businesslist.com.ng/company/258646/ukirilijadu","imageUrl":"https://www.businesslist.com.ng/img/ng/e/1501509717-81-ukiri-lijadu.jpg","phone":"+234 1 700 875 0 - 1","website":"ul-law.com"},{"name":"T & A Legal","address":"48 Opebi Road, Ikeja, Lagos","state":"Lagos","description":"We protect clients’ interests from potential or foreseeable setbacks by providing innovative solutions that solve real business challenges","rating":"","reviews":"","location":{"lat":"6.5895","lng":"3.3605"},"category":"Legal","link":"https://www.businesslist.com.ng/company/260480/ta-legal","imageUrl":"https://www.businesslist.com.ng/img/ng/r/1522768421-14-t-a-legal.png","phone":"08181411811","website":"www.tundeadisa.com"},{"name":"Frank Owhor And Company","address":"5th floor finchley top plaza 6 Aba Road, Port Harcourt, Rivers","state":"Rivers","description":"A broad spectrum law firm. We specialise in civil litigation, document preparation, corporate matters, property managers.","rating":"4.0","reviews":"1 Review","location":{"lat":"4.789631133786622","lng":"7.00285362167358"},"category":"Legal","link":"https://www.businesslist.com.ng/company/246364/frank-owhor-and-company","phone":"08033108464","website":""},{"name":"CHIEF FEMI ODUFOWOKAN & CO","address":"33 ISAAC JOHN STREET, IGBOBI FADEYI, GROUND FLOOR,SUITE ONE,LAGOS,NIGERIA, Lagos, Lagos","state":"Lagos","description":"LAW FIRM WITH EXPERTISE IN DIVORCE,REAL PROPERTY,INTERNATIONAL COMMERCIAL LAW,COMPANY SECRETARIAL PRACTICE, WILL & GENERAL PRACTICE. IN ALL AREAS OF OUR COMPETENCIES,GLOBAL BEST PROFESSIONAL PRACTICE ...","rating":"","reviews":"","location":{"lat":"6.525978200218832","lng":"3.3715238533814045"},"category":"Legal","link":"https://www.businesslist.com.ng/company/261616/chief-femi-odufowokanco","phone":"+2348033085824","website":"chief-femi-odufowokan-co.business.site/"},{"name":"Fola Akinrinsola Ojo & Co","address":"Plot 6, (1, Akin Maryland, Close) Okupe Estate, Maryland, Lagos, Nigeria, Lagos, Lagos","state":"Lagos","description":"Fola Akinrinsola, Ojo & Co is a Law Firm of seasoned corporate and commercial legal experts that delivers exceptional legal services in various areas including, Criminal Law, Labour & Employment Law, ...","rating":"","reviews":"","location":{"lat":"6.5671987027525525","lng":"3.325543210346382"},"category":"Legal","link":"https://www.businesslist.com.ng/company/265897/fola-akinrinsola-ojoco","imageUrl":"https://www.businesslist.com.ng/img/ng/j/1574808083-65-fola-akinrinsola-ojo-co.jpg","phone":"(+234)8023154345","website":"www.faolegal.com.ng/"},{"name":"Law Offices: Alex Scott & Partners","address":"Union Bank Building, 1st Floor, 97 Adeola Odeku Street, Victoria Island Lagos, Lagos Island, Lagos","state":"Lagos","description":"As a fast-growing, international law firm Alex Scott & Partners understands completely the pressures and opportunities facing businesses in the current market. We, therefore, temper our technical expe...","rating":"","reviews":"","location":{"lat":"6.420449805469903","lng":"3.4243527834472616"},"category":"Legal","link":"https://www.businesslist.com.ng/company/265843/law-offices-alex-scottpartners","imageUrl":"https://www.businesslist.com.ng/img/ng/f/1574414569-65-law-offices-alex-scott-partners.jpg","phone":"07088888818","website":"www.alexscottlawoffice.com"},{"name":"Abdulhaleem AMIN & Co.","address":"Suite B3, Ndamela House, Tafawa Balewa Way, Area 3, Garki, Abuja – Nigeria, Abuja, Abuja","state":"Abuja","description":"Abdulhaleem Amin & Co. is a growing legal concern registered with the Corporate Affairs Commission and has its registered office address in Abuja, the Federal Capital Territory of Nigeria. The firm bo...","rating":"","reviews":"","location":{"lat":"9.028195","lng":"7.478543"},"category":"Legal","link":"https://www.businesslist.com.ng/company/260600/abdulhaleem-aminco","imageUrl":"https://www.businesslist.com.ng/img/ng/z/1523876346-34-abdulhaleem-amin-co.png","phone":"+2347064614105","website":"www.aaminchambers.com/"},{"name":"Okechukwu Obinka & Co.","address":"26 Ebitu Ukiwe Street Jabi Abuja, Abuja, Abuja","state":"Abuja","description":"okechukwu obinka & co is a fast growing lawfirm in Nigeraia with vast knowledge in litigation, corporate practice and notary publics","rating":"","reviews":"","location":{"lat":"9.064951651597712","lng":"7.427502360410017"},"category":"Legal","link":"https://www.businesslist.com.ng/company/262484/okechukwu-obinkaco","phone":"2348037075205","website":"obinkalawfirm.com.ng"},{"name":"Nigerian Lawyers Directory","address":"Rumuola Road, Rumuola, Port Harcourt, Rivers State, Nigeria , Port Harcourt, Rivers","state":"Rivers","description":"Nigerian Lawyers Directory (more than merely a list of lawyers in Nigeria) is a unique online gateway to Nigerian legal information: Premium directory of Nigerian legal practitioners (barristers and s...","rating":"","reviews":"","location":{"lat":"4.8342464976528925","lng":"6.995865416990455"},"category":"Legal","link":"https://www.businesslist.com.ng/company/262924/nigerian-lawyers-directory","imageUrl":"https://www.businesslist.com.ng/img/ng/h/1546468955-32-nigerian-lawyers-directory.jpg","phone":"09063975463","website":"nigerianlawyersdirectory.com"},{"name":"Green Quill Solicitors","address":"Adebowale House, 150 Ikorodu Road, Onipanu Lagos State., Lagos","state":"","description":"Green Quill Solicitors is located in Lagos, Nigeria. The law firm is established by a team of committed and dedicated lawyers. Green Quill Solicitors is a medium sized law firm, the firm, however, wor...","rating":"","reviews":"","location":{},"category":"Legal","link":"https://www.businesslist.com.ng/company/267543/green-quill-solicitors","imageUrl":"https://www.businesslist.com.ng/img/ng/b/1588343100-54-green-quill-solicitors.png","phone":"08082109642","website":"greenquillsolicitors.com"},{"name":"Aina Blankson And Company","address":"5/7, Ademola Street, Ikoyi (South West), Eti Osa, Lagos, Lagos","state":"Lagos","description":"At Aina Blankson, our aim is to help clients achieve their objectives efficiently while minimizing the legal and regulatory risks, both within Nigeria and Internationally. Although, first-class legal ...","rating":"","reviews":"","location":{"lat":"6.4415055","lng":"3.4143921"},"category":"Legal","link":"https://www.businesslist.com.ng/company/246140/aina-blankson-and-company","imageUrl":"https://www.businesslist.com.ng/img/ng/f/1446815317_43095.jpg","phone":"01 454498101 4542076","website":"www.ainablankson.com"},{"name":"Bola Ajibola & Co.","address":"4, Gongola Street, Off Moshood Abiola Way, Area2, Garki Abuja, Lagos, Lagos","state":"Lagos","description":"","rating":"","reviews":"","location":{"lat":"6.6013661","lng":"3.3524112"},"category":"Legal","link":"https://www.businesslist.com.ng/company/164773/bola-ajibolaco","phone":"+2348083808450","website":"www.bolaajibolaandco.com"},{"name":"1st Attorneys","address":"2, Ekpenyong Street, (off Wellington Bassey St),, Uyo, Akwa Ibom","state":"Akwa Ibom","description":"1st Attorneys, as a Law Firm, serves clients in Nigeria and worldwide in various aspects of law and provides a wide range of legal and consultancy services. ","rating":"","reviews":"","location":{"lat":"5.036594294701365","lng":"7.931172698736191"},"category":"Legal","link":"https://www.businesslist.com.ng/company/196436/1st-attorneys","imageUrl":"https://www.businesslist.com.ng/img/ng/b/1375677575_98619.jpg","phone":"+234 8023222528","website":"1stattorneys.com"},{"name":"Aekley Solicitors (Ibadan Office)","address":"First Floor, 78/80 Oyo Road, Opposite U.I Second Gate, Ibadan, Ibadan, Oyo","state":"Oyo","description":"Aekley Solicitors is a Corporate/Commercial law firm that provides timely and cost-efficient legal services to meet the distinct needs of its clients. Our approach is to provide legal solutions that a...","rating":"","reviews":"","location":{"lat":"7.476627681703311","lng":"3.9485883250761162"},"category":"Legal","link":"https://www.businesslist.com.ng/company/265372/aekley-solicitors-ibadan-office","imageUrl":"https://www.businesslist.com.ng/img/ng/e/1576217957-77-aekley-solicitors-ibadan-office.jpg","phone":"+2349021627265","website":"www.aekleysolicitors.com"},{"name":"Resolution Law Firm","address":"50/52, Toyin Street, Ikeja, Lagos, Lagos","state":"","description":"Resolution is a top law firm in Lagos, Nigeria internationally recognized for providing efficient, affordable and swift legal solutions and advice across Nigeria. Contact us today.","rating":"","reviews":"","location":{"lat":"6.58877251463974","lng":"3.3543038825256417"},"category":"Legal","link":"https://www.businesslist.com.ng/company/259776/resolution-law-firm","imageUrl":"https://www.businesslist.com.ng/img/ng/f/1515350416-38-resolution-law-firm.jpg","phone":"+2348099223322","website":"www.resolutionlawng.com"},{"name":"SAPPHIRE & BRECKINRIDGE LP","address":"2 Adeboye Solanke Street, First Bank Bus Stop, Allen Avenue , Ikeja, Lagos","state":"Lagos","description":"Sapphire & Breckinridge LP is a law firm composed of and managed by highly dynamic, ethical and experienced lawyers. Located at the heart of Lagos State, we are easily accessible to all kinds of compa...","rating":"","reviews":"","location":{"lat":"6.602682991427077","lng":"3.351891969788994"},"category":"Legal","link":"https://www.businesslist.com.ng/company/253588/sapphirebreckinridge-lp","imageUrl":"https://www.businesslist.com.ng/img/ng/f/1563140273-80-sapphire-breckinridge-lp.jpg","phone":"234 806 154 3657","website":"www.sapphire-legal.com"},{"name":"AAA Chambers","address":"31B HFP Way, Dolphin Estate, Ikoyi, Lagos., Lagos Island, Lagos","state":"Lagos","description":"AAA CHAMBERS is a law firm branded solely for the purpose of providing international standard legal representation and service par excellence to its local and international clientele. At AAA Chambers,...","rating":"","reviews":"","location":{"lat":"6.456925973823323","lng":"3.4157578390869503"},"category":"Legal","link":"https://www.businesslist.com.ng/company/261138/aaa-chambers","imageUrl":"https://www.businesslist.com.ng/img/ng/m/1528711758-70-aaa-chambers.jpg","phone":"08037124434","website":"www.aaachambers.com"},{"name":"A. Olaoye & Co.","address":"46, Akinsoji Street, Fadeyi, Lagos","state":"","description":"A. Olaoye & Co.is a full-service law firm managing the legal needs of corporate and individual clients. We are a team of innovative lawyers assisting clients in the management of conflicts, negotiatio...","rating":"5.0","reviews":"1 Review","location":{},"category":"Legal","link":"https://www.businesslist.com.ng/company/190741/a-olaoyeco","imageUrl":"https://www.businesslist.com.ng/img/ng/r/1383741690_58043.jpg","phone":"01- 466002808055373565","website":"www.aoclawyers.com"},{"name":"Law & Immigrate","address":"Caroline Flats, Ocean Palm Estate, Lekki-Epe Expressway, Ajah, Lagos, Lagos Island, Lagos","state":"Lagos","description":"We are an immigration-service law firm based in Lagos, Nigeria. We here to help our clients make the best immigration decisions, eliminate lags in documentation process, and get by a host of other all...","rating":"","reviews":"","location":{"lat":"6.470177927628433","lng":"3.620295524597168"},"category":"Legal","link":"https://www.businesslist.com.ng/company/258794/lawimmigrate","imageUrl":"https://www.businesslist.com.ng/img/ng/d/1503357625-21-law-immigrate.png","phone":"09092900887","website":"lawandimmigrate.com.ng/"},{"name":"UGOCHUKWU ","address":"PLOT 313 LIFECAMP ABUJA, Abuja, Abuja","state":"Abuja","description":"LEGAL PRACTITIONER, CORPORATE SECRETARY, CORPORATE LAW PRACTITIONER AT THE CORPORATE AFFAIRS COMMISSION(CAC) AND GENERAL LAW PRACTICE","rating":"5.0","reviews":"1 Review","location":{"lat":"9.06679560183048","lng":"7.403460144996643"},"category":"Legal","link":"https://www.businesslist.com.ng/company/252572/ugochukwu","phone":"08030916236","website":""},{"name":"Magna Law Chambers","address":"31 Fatai irawo street Ajao estate , Ikeja, Lagos","state":"Lagos","description":"Magna Law Chambers is a law chambers located Lagos Nigeria. Barristers Solicitors Corporate and properties consultants","rating":"4.0","reviews":"1 Review","location":{"lat":"6.5104929118663515","lng":"3.314480781555176"},"category":"Legal","link":"https://www.businesslist.com.ng/company/259911/magna-law-chambers","phone":"234803303319423480357676362348033566797","website":""},{"name":"Proteux Technologies Ltd","address":"2, Falolu, Street, Surulere, Lagos, Lagos","state":"Lagos","description":"Proteux Technologies Limited is an indigenous IT Startup company headquartered in Lagos, Nigeria. Founded in 2011 as an IT Support company. Over the years we have built a broad range of clientele, ran...","rating":"","reviews":"","location":{"lat":"6.512134494812484","lng":"3.3541131019592285"},"category":"Legal","link":"https://www.businesslist.com.ng/company/260073/proteux-technologies-ltd","imageUrl":"https://www.businesslist.com.ng/img/ng/j/1518457985-11-proteux-technologies-ltd.png","phone":"08098999979","website":"www.chamberslegal.net"},{"name":"AfeBabalola & Co","address":"80 Fajuyi rd , Ibadan, Oyo","state":"Oyo","description":"Afe Babalola & Co. (otherwise called Emmanuel Chambers) was founded in 1965 by a then relatively young legal practitioner now known as Aare Afe Babalola, SAN, after a stint in the then prestigious law...","rating":"","reviews":"","location":{"lat":"7.3945423","lng":"3.8833173"},"category":"Legal","link":"https://www.businesslist.com.ng/company/259508/afebabalolaco","imageUrl":"https://www.businesslist.com.ng/img/ng/b/1511698969-33-afebabalola-co.jpg","phone":"08030541276","website":"www.afebabalola.com"},{"name":"PRINCE JOEL & ASSOCIATES","address":"5A DOZEK CLOSE, ALTERNATIVE ROUTE,CHEVRON DRIVE,LEKKI,LAGOS.,, Lagos, Lagos","state":"Lagos","description":"Prince Joel & Associates is a leading Commercial law Firm based in Lagos, Nigeria. We have been at the forefront of development in Legal practice in Nigeria and have continuously rendered sound techni...","rating":"","reviews":"","location":{"lat":"6.447027085910605","lng":"3.5387154037046002"},"category":"Legal","link":"https://www.businesslist.com.ng/company/254384/prince-joelassociates","imageUrl":"https://www.businesslist.com.ng/img/ng/e/1559694012-15-prince-joel-associates.jpg","phone":"08034869295","website":"www.princejoelandassociates.com"},{"name":"Bola Ajibola & Company","address":"1, Murphy Atsepoyi Close, Plot4, Ramat Ogudu GRA, Ogudu Lagos., Lagos, Lagos","state":"Lagos","description":"The work force of the chambers has been expanding rapidly to meet the volume of work, with the aim of coping with the diversified nature and technologically oriented outlook of modern law practice in ...","rating":"","reviews":"","location":{"lat":"6.6015529","lng":"3.3518927"},"category":"Legal","link":"https://www.businesslist.com.ng/company/102591/bola-ajibolacompany","imageUrl":"https://www.businesslist.com.ng/img/ng/a/1520445825_61102.jpg","phone":"(+234) 8132488432+2348154431535","website":"www.bolaajibolaandco.com"}]