[{"name":"HouseHunt Nigeria","address":"19B Toyin, Ikeja , Lagos, Lagos","state":"Lagos","description":"'HouseHunt Nigeria is a Real Estate Listing site for buying, selling, and renting of properties. The need for this online platform is to help individual and real estate agency in getting the best poss...","rating":"","reviews":"","location":{"lat":"6.603158232002956","lng":"3.351268978559796"},"category":"Real Estate","link":"https://www.businesslist.com.ng/company/266710/househunt-nigeria","imageUrl":"https://www.businesslist.com.ng/img/ng/n/1582000548-11-househunt-nigeria.jpg","phone":"‭+234 702 076 3599‬","website":"http:www.househunt.com.ng"},{"name":"BuildEasy","address":"no 9 chief idowu bale stree, okera kekere, ajah, lagos , Lagos, Lagos","state":"Lagos","description":"Our job is to make sure you get all that’s required, from handymen to building material at one stop. It will be online platform which will enable us reach millions of people, and them us from anywhe...","rating":"","reviews":"","location":{"lat":"6.492653676061715","lng":"3.584184944629669"},"category":"Real Estate","link":"https://www.businesslist.com.ng/company/258383/buildeasy","imageUrl":"https://www.businesslist.com.ng/img/ng/g/1498753731-35-buildeasy.png","phone":"08038619085","website":"buildeasyservices.com"},{"name":"360 Degree EMN Projects","address":"2A, Iyala Street, Alausa, Ikeja, Lagos, Lagos","state":"Lagos","description":"360 DEGREE EMN PROJECT is a Limited Company registered under the Corporate Affairs Commission (CAC) to carry on business as a Real Estate developing Company with registration number 838962. We are est...","rating":"","reviews":"","location":{"lat":"6.612472035035299","lng":"3.356418993314037"},"category":"Real Estate","link":"https://www.businesslist.com.ng/company/262791/360-degree-emn-projects","imageUrl":"https://www.businesslist.com.ng/img/ng/e/1544617651-70-360-degree-emn-projects.jpg","phone":"08028617830","website":"www.360degreeemn.com"},{"name":"Nasi International Concept Nigeria Limited","address":"No 5 kehinde Street, Surulere, Lagos, Lagos, Lagos","state":"Lagos","description":"Nasi international concept Nig Ltd is a full registered company in Nigeria, we are into real estate marketing & consultant, our services includes all agent services, building & sale of residential,com...","rating":"","reviews":"","location":{"lat":"6.495640864499585","lng":"3.3454742394287678"},"category":"Real Estate","link":"https://www.businesslist.com.ng/company/260808/nasi-international-concept-nigeria-limited","imageUrl":"https://www.businesslist.com.ng/img/ng/a/1525681922-93-nasi-international-concept-nigeria-limited.jpg","phone":"07035207064","website":""},{"name":"HouseTag Homes","address":"Suite K121 Ikota Shopping Complex VGC, Lekki, Lagos Island, Lagos","state":"Lagos","description":"HouseTag Homes is a privately held full service real estate development, investment and management firm based in Lagos and managed by a team of experts with over 12 years experience in real estate in ...","rating":"","reviews":"","location":{"lat":"6.464867554746013","lng":"3.5384774208068848"},"category":"Real Estate","link":"https://www.businesslist.com.ng/company/256972/housetag-homes","imageUrl":"https://www.businesslist.com.ng/img/ng/h/1479732686-85-housetag-homes.jpg","phone":"08039609005","website":"www.housetaghomes.com"},{"name":"ColdFire Creative Resources Ltd","address":"Deverlyn Complex, 60 Nouakchott Street, Wuse Zone 1, Abuja, Abuja","state":"","description":"ColdFire Creative Resources is a Limited Liability Company registered and based in Abuja Nigeria, West Africa. We are a team of dedicated professionals focused on providing business services in the Me...","rating":"","reviews":"","location":{},"category":"Real Estate","link":"https://www.businesslist.com.ng/company/266863/coldfire-creative-resources-ltd","imageUrl":"https://www.businesslist.com.ng/img/ng/g/1582930646-13-coldfire-creative-resources-ltd.jpg","phone":"+2347088866620","website":"www.coldfireresources.com"},{"name":"Blessmerp Properties","address":"KM 23, Lekki-Epe Expressway, Ajah, Eti Osa, Lagos state, Lagos, Lagos","state":"Lagos","description":"Blessmerp is a real estate firm based in Lagos state of Nigeria and specializes in: * Property sales and lettings * Construction of residential and commercial properties * Land surveying and registrat...","rating":"","reviews":"","location":{"lat":"6.462586178572907","lng":"3.5567164421081543"},"category":"Real Estate","link":"https://www.businesslist.com.ng/company/253192/blessmerp-properties","imageUrl":"https://www.businesslist.com.ng/img/ng/e/1414606153-blessmerp-properties.jpg","phone":"08033702528","website":"www.blessmerp.com"},{"name":"Hisgrace real estate agent","address":"Baba elero house, beside Anglican Church IJAGUN,via Tasued, ijebu-ode Ogun state Nigeria, Ijebu-Ode, Ogun","state":"Ogun","description":"We offer student/ adult an accommodations/hostel seekers an easy way to find apartment around Ogun state, Ijebu-ode, Ijagun, ijele, imaweje, abapawa, ikofa ogbo area & beyond likes a room, room & parl...","rating":"","reviews":"","location":{"lat":"6.653333028863322","lng":"3.4247732162475586"},"category":"Real Estate","link":"https://www.businesslist.com.ng/company/258310/hisgrace-real-estate-agent","imageUrl":"https://www.businesslist.com.ng/img/ng/h/1497910646-50-hisgrace-real-estate-agent.jpg","phone":"08072213745","website":"Www.ijagunstudenthostel.com"},{"name":"Ayamdie Marketplace","address":"41 Ikpa Road, Uyo, Akwa Ibom","state":"Akwa Ibom","description":"Ayamdie Marketplace is Akwa Ibom's online largest marketplace that enables users post free ads and get buyers faster. Ayamdie has made the buying and selling of shoes, bags, furniture, clothing, prope...","rating":"","reviews":"","location":{"lat":"5.038701464510846","lng":"7.923416047698993"},"category":"Real Estate","link":"https://www.businesslist.com.ng/company/260992/ayamdie-marketplace","imageUrl":"https://www.businesslist.com.ng/img/ng/j/1527392455-48-ayamdie-marketplace.png","phone":"+2349029593434","website":"ayamdie.com"},{"name":"GD Properties and Homes","address":"Suite K159, Ikota Shopping Complex, Lagos, Lagos","state":"Lagos","description":"The real estate industry of the 21st Century will be driven by a ‘customer service culture’ and GdProperties & Homes will lead this evolutionary process. Despite changing cities and new technology...","rating":"","reviews":"","location":{"lat":"6.465136460360579","lng":"3.5578730069000812"},"category":"Real Estate","link":"https://www.businesslist.com.ng/company/261280/gd-properties-and-homes","imageUrl":"https://www.businesslist.com.ng/img/ng/n/1530102771-93-gd-properties-and-homes.jpg","phone":"08135500740","website":"www.gdpropertiesandhomes.com/"},{"name":"Come Homes & Properties Ltd.","address":"17 Bode Thomas Street, Surulere, Lagos, Lagos, Lagos","state":"Lagos","description":"We are a Real Estate company that ensures people achieve their dreams of owing houses through genuine and affordable means. We have the best deals for people seeking for lands to buy in Lagos, Ogun st...","rating":"","reviews":"","location":{},"category":"Real Estate","link":"https://www.businesslist.com.ng/company/263876/come-homesproperties-ltd","imageUrl":"https://www.businesslist.com.ng/img/ng/r/1557259827-85-come-homes-properties-ltd.jpg","phone":"012900901","website":"www.comehomesltd.com"},{"name":"Lavaar Nigeria Limited","address":"5, Olusesi Street, behind Tyse filling station, by Chevron Tollgate lekki-ajah Expressway, Lagos., Lagos Island, Lagos","state":"Lagos","description":"ARCHITECTURE We provide a complete design and consultancy service to clients who desire efficient and sustainable Architectural masterpieces. We operate an Integrated Design System and as such have a ...","rating":"","reviews":"","location":{"lat":"6.441157797850591","lng":"3.5363316535949707"},"category":"Real Estate","link":"https://www.businesslist.com.ng/company/256032/lavaar-nigeria-limited","imageUrl":"https://www.businesslist.com.ng/img/ng/h/1466153796-42-lavaar-nigeria-limited.jpg","phone":"08093577122","website":"lavaar.com"},{"name":"Bright Hasbabs Concepts","address":"31, Alhaji Hammed Karohunwi Street, Ori Okuta, Agric Bus Stop, Ikorodu, Lagos State, Ikorodu, Lagos","state":"Lagos","description":"We are one of the leading Business Service Organization in Nigeria. In all our services, we have successfully integrated multi-modal business services concepts into her day-to-day operations. We provi...","rating":"","reviews":"","location":{"lat":"6.655613531919209","lng":"3.4839749336242676"},"category":"Real Estate","link":"https://www.businesslist.com.ng/company/257290/bright-hasbabs-concepts","imageUrl":"https://www.businesslist.com.ng/img/ng/d/1494242708-51-bright-hasbabs-concepts.jpg","phone":"+2348077515839","website":""},{"name":"Jasondav Realtors Services","address":"2, Deji Brown close, lekki Phase 2, Ajah, Lagos Nigeria, Lagos Island, Lagos","state":"Lagos","description":"We are service oriented Real Estate Company. We help you to do a due diligence service on the property that you want to buy. We also act as a third party to help you in property search and verificatio...","rating":"","reviews":"","location":{"lat":"6.4590703","lng":"3.575379"},"category":"Real Estate","link":"https://www.businesslist.com.ng/company/258626/jasondav-realtors-services","imageUrl":"https://www.businesslist.com.ng/img/ng/f/1501254009-81-jasondav-realtors-services.jpg","phone":"+2349028980331","website":"jasonsdavrealtors.com/"},{"name":"MY HOUSE RENT","address":"Adankolo newlayout, lokoja, Kogi State, Lokoja, Kogi","state":"Kogi","description":"We provide users with the best property search experience both online and offline by connecting them with legitimate and verified real estate agents. In the Nigerian property market, with property lis...","rating":"","reviews":"","location":{"lat":"7.787605249102538","lng":"6.7323640768585165"},"category":"Real Estate","link":"https://www.businesslist.com.ng/company/264906/my-house-rent","imageUrl":"https://www.businesslist.com.ng/img/ng/m/1566696852-17-my-house-rent.jpg","phone":"07068922496","website":"www.myhouserent.com.ng"},{"name":"Landmart","address":"42 Mota Shopping Complex, Gbagada, Lere, Lagos","state":"Lagos","description":"We are a real estate company and sell lands and other real estate properties mainly in the Lagos and adjourning environment","rating":"","reviews":"","location":{"lat":"6.562253482066217","lng":"3.3927369117736816"},"category":"Real Estate","link":"https://www.businesslist.com.ng/company/257696/landmart","imageUrl":"https://www.businesslist.com.ng/img/ng/f/1490962070-71-landmart.jpg","phone":"+2348183626544","website":"www.landsforsale.com.ng"},{"name":"Mic Gerald Properties","address":"No 9, Olatoye Ogundana Street, Graceland Estate, Ajah, Lagos Nigeria, Lagos Island, Lagos","state":"Lagos","description":"We are service oriented Real Estate Company. We help you to do a due diligence service on the property that you want to buy. We also act as a third party to help you in property search and verificatio...","rating":"","reviews":"","location":{"lat":"6.4668747","lng":"3.5831362000000126"},"category":"Real Estate","link":"https://www.businesslist.com.ng/company/258577/mic-gerald-properties","imageUrl":"https://www.businesslist.com.ng/img/ng/j/1500739530-64-mic-gerald-properties.jpg","phone":"08025251121","website":"micgeraldproperties.com/"},{"name":"Ivoto Realty Homes","address":"37 Prince Ademola Eletu Street, Osapa London, Lekki - Lagos, Nigeria, Lagos Island, Lagos","state":"Lagos","description":"We are service oriented Real Estate Company. We help you to do a due diligence service on the property that you want to buy. We also act as a third party to help you in property search and verificatio...","rating":"","reviews":"","location":{"lat":"6.442327","lng":"3.510087"},"category":"Real Estate","link":"https://www.businesslist.com.ng/company/258542/ivoty-realty-homes","imageUrl":"https://www.businesslist.com.ng/img/ng/k/1500450498-44-ivoty-realty-homes.jpg","phone":"+234-7061929492","website":"ivotong.com/"},{"name":"OLUMO Contracting and Real Estate Development ltd","address":"3 Sands Avenue, off Iju Road, Ifako Int'l School B/stop, Ifako, Lagos, Lagos","state":"Lagos","description":"General contractor & supplier to construction companies. Representative of Foreign coy's. Specialist in Vibrated paving stones & concrete floor stamping. ","rating":"","reviews":"","location":{"lat":"6.625816966891895","lng":"3.3350372314453125"},"category":"Real Estate","link":"https://www.businesslist.com.ng/company/257397/olumo-contracting-and-real-estate-development-ltd","imageUrl":"https://www.businesslist.com.ng/img/ng/s/1487590008-14-olumo-contracting-and-real-estate-development-ltd.jpg","phone":"09055559489","website":"olumocontracting.com"},{"name":"Mezue & Associates","address":"No. 9, Ogui Road, P.O. Box1446, Enugu, Enugu, Enugu","state":"Enugu","description":"Find Cash Advance, Debt Consolidation and more at Mdcn.org. Get the best of Insurance or Free Credit Report, browse our section on Cell Phones or learn about Life Insurance. Mdcn.org is the site for C...","rating":"","reviews":"","location":{"lat":"6.437449278187389","lng":"7.492272250915676"},"category":"Real Estate","link":"https://www.businesslist.com.ng/company/159020/mezueassociates","imageUrl":"https://www.businesslist.com.ng/img/ng/s/1480677960_42307.jpg","phone":"042-254218","website":"www.mdcn.org"},{"name":"Heritage Homes and Properties","address":"121 Obafemi Awolowo Road, Akeja via AIT link Road, Ota, Ota, Ogun","state":"Ogun","description":"Our firm, HERITAGE HOMES AND PROPERTIES: Estate Surveyors, Property Managers and Real Estate Consultants is a firm with a focus to provide “World Class” Services in the Real Estate Industry. We pr...","rating":"","reviews":"","location":{"lat":"6.69166578627352","lng":"3.2394766965464896"},"category":"Real Estate","link":"https://www.businesslist.com.ng/company/265572/heritage-homes-and-properties","imageUrl":"https://www.businesslist.com.ng/img/ng/k/1572147761-93-heritage-homes-and-properties.jpg","phone":"08163154120","website":"www.mypropertiesweekly.blogspot.com"},{"name":"Demola Adetola & Co","address":"3A, Force Road, opposite TBS Onikan , Lagos Island, Lagos","state":"Lagos","description":"Chartered Estate Surveyors and Valuers Property Brokerage Asset Valuations Property Management Facilities Management Project Management ","rating":"","reviews":"","location":{"lat":"6.449971475931656","lng":"3.4228078310546834"},"category":"Real Estate","link":"https://www.businesslist.com.ng/company/262759/demola-adetolaco","imageUrl":"https://www.businesslist.com.ng/img/ng/z/1544224621-97-demola-adetola-co.gif","phone":"01-227252001-227252101-2272522","website":"www.dac-ng.com"},{"name":"Inspirited Real Estate Services","address":"block B, Suite 231, Sura Complex, Simpson Street, Lagos Island, Lagos Island, Lagos","state":"Lagos","description":"Inspirited Real Estate Services is a professional firm of Estate Surveyors and property consultants with proven experience and competence in real estate practice, offering wholesale property services ...","rating":"","reviews":"","location":{"lat":"6.4537271","lng":"3.3895625"},"category":"Real Estate","link":"https://www.businesslist.com.ng/company/244209/inspirited-real-estate-services","imageUrl":"https://www.businesslist.com.ng/img/ng/f/1457522515-77-inspirited-real-estate-services.jpg","phone":"08126637033","website":"inspiritedrealestate.com"},{"name":"Boing Luxury Estates","address":"10 , Ohaeto Street Port Harcourt Local Government, 500272, Port Harcourt, Port Harcourt, Rivers","state":"Rivers","description":"Boing LUXURY ESTATES LTD is a Developer and Innovator Company that presents the opportunity for Nigerians to own their dream homes in their dream ...It is a business enterprise that buys and sells lan...","rating":"","reviews":"","location":{},"category":"Real Estate","link":"https://www.businesslist.com.ng/company/262849/boing-luxury-estates","imageUrl":"https://www.businesslist.com.ng/img/ng/h/1545225493-37-boing-luxury-estates.png","phone":"090 90001953","website":"www.boingestates.com"},{"name":"Edge point shelters limited","address":"ikota villa estate, Victoria Island, Lagos","state":"Lagos","description":"owning a home is a key stone of wealth both financial affluence and emotional security... we assist investors in investing in the right assets which is real estate and landed properties.","rating":"","reviews":"","location":{},"category":"Real Estate","link":"https://www.businesslist.com.ng/company/263695/edge-point-shelters-limited","imageUrl":"https://www.businesslist.com.ng/img/ng/b/1554898117-58-edge-point-shelters-limited.jpg","phone":"08098372238","website":"www.edgepointng.com"},{"name":"Eugy Consults","address":"Ikota Housing Estate, Lagos, Lagos","state":"Lagos","description":"Real estate consultant farm, help realtors learn techniques of real estate marketing and sales in this 21st-century learning how to work stress-free and smatter.","rating":"","reviews":"","location":{"lat":"6.451328076946767","lng":"3.560490984207152"},"category":"Real Estate","link":"https://www.businesslist.com.ng/company/266618/eugy-consults","imageUrl":"https://www.businesslist.com.ng/img/ng/c/1581163968-30-eugy-consults.png","phone":"08163190815","website":"www.eugyconsults.com"},{"name":"Fow World","address":"Main Office Address: Address: Block 47, Flat 2, Bendel Street, Area 2, Garki, FCT, Abuja., Abuja, Abuja","state":"Abuja","description":"Fow World is a global diversified Organisation with strategic investments in key international economic, real estate, trade, education, training (human capacity development), entertainment, media and ...","rating":"","reviews":"","location":{"lat":"9.076711578848755","lng":"7.398831492065483"},"category":"Real Estate","link":"https://www.businesslist.com.ng/company/261716/fow-world","imageUrl":"https://www.businesslist.com.ng/img/ng/a/1533822686-49-fow-world.png","phone":"08118073074","website":"www.fowworld.org"},{"name":"Marvel Realtor","address":"10/12 Orlando Martins St, Lagos Island, Lagos","state":"Lagos","description":"Marvel Realtor is the home of the best real estate realtors in Lagos. Our services cuts across Property management, Renting, Buying, Selling of Residential & Commercial property in Lagos, Nigeria. Mar...","rating":"","reviews":"","location":{},"category":"Real Estate","link":"https://www.businesslist.com.ng/company/263768/marvel-realtor","imageUrl":"https://www.businesslist.com.ng/img/ng/c/1556007427-67-marvel-realtor.jpg","phone":"+2348081268886","website":"www.marvelrealtor.com"},{"name":"GIDEON ELE & PARTNERS ","address":"8 Ebony/Orazi Road, Port Harcourt, Rivers, Nigeria, Port Harcourt, Rivers","state":"Rivers","description":"At GIDEON ELE & PARTNERS, Our Services Covers a variety of Services in the Real Estate & Built industry. We are Confident in our Capacity to deliver on Client’s Request within Client’s Specificati...","rating":"","reviews":"","location":{},"category":"Real Estate","link":"https://www.businesslist.com.ng/company/254945/gideon-elepartners","imageUrl":"https://www.businesslist.com.ng/img/ng/d/1540252178-21-gideon-ele-co.jpg","phone":"07063249904","website":"www.gideonele.com"}]