[{"name":"Heroizu Technology Services Ltd","address":"#3 Nwankpa Close, Off Okporo Road, by Artillary Junction, Ph, Nigeria, Port Harcourt, Rivers","state":"Rivers","description":"Heroizu Technology Services Limited is located at #3 Nwankpa Close, Off Okporo Road, by Artillary Junction, Ph, Nigeria 4°50'47.8\"N 7°02'16.9\"E 4.846614, 7.038015. Our company is mainly into Land Su...","rating":"","reviews":"","location":{"lat":"3.9995050636758704","lng":"7.003161907196045"},"category":"Real Estate","link":"https://www.businesslist.com.ng/company/257625/heroizu-technology-services-ltd","imageUrl":"https://www.businesslist.com.ng/img/ng/x/1538942836-33-heroizu-technology-services-ltd.jpg","phone":"+2347064649087","website":"www.heroizutech.com.ng"},{"name":"Bino Real Estate","address":"Suite H56/57 Ikota Shopping Complex, VGC Lekki, Lagos, Nigeria, Lagos Island, Lagos","state":"Lagos","description":"We help you to do a due diligence service on the property that you want to buy or invest in. We also act as a third party to help you in property search and verification in order to ensure that you do...","rating":"","reviews":"","location":{"lat":"6.4642202","lng":"3.5554299000000356"},"category":"Real Estate","link":"https://www.businesslist.com.ng/company/260028/bino-real-estate","imageUrl":"https://www.businesslist.com.ng/img/ng/f/1518007015-22-bino-real-estate.jpg","phone":"(+234) 808 642 8537","website":"binorealestateconsult.com"},{"name":"Ovalaux Mall","address":"KM 1 Eku/Osubi Road, Osubi, Warri, Warri, Delta","state":"Delta","description":"Visit Ovalaux Mall Warri, Osubi for all your shopping. Buy your clothes, baby's clothes, food, drugs and other items at our exquisite shopping complex.","rating":"","reviews":"","location":{"lat":"5.587212030836192","lng":"5.814447778945919"},"category":"Real Estate","link":"https://www.businesslist.com.ng/company/265158/ovalaux-mall","imageUrl":"https://www.businesslist.com.ng/img/ng/g/1568800975-34-ovalaux-mall.jpg","phone":"08033748858","website":"www.ovalauxmall.com.ng"},{"name":"Kwaba.ng","address":"18 Odunlami street Anthony village , Lagos, Lagos","state":"Lagos","description":"Kwaba is a property platform that helps working class professionals find properties and access rental finance.","rating":"","reviews":"","location":{"lat":"6.5611739843521395","lng":"3.3901921694335897"},"category":"Real Estate","link":"https://www.businesslist.com.ng/company/259075/kwabang","imageUrl":"https://www.businesslist.com.ng/img/ng/x/1522060571-25-kwaba-international.jpg","phone":"+2348179580734","website":"www.kwaba.ng"},{"name":"Decade Real Estate","address":"8, Ita oboho street, Uyo, Akwa Ibom","state":"Akwa Ibom","description":"DECADE is an independent Real Estate luxury company in Uyo, Akwa Ibom State involved in Real Estate Sales, Marketing,Development and Management","rating":"","reviews":"","location":{"lat":"5.0377","lng":"7.9128"},"category":"Real Estate","link":"https://www.businesslist.com.ng/company/257585/decade-real-estate","imageUrl":"https://www.businesslist.com.ng/img/ng/g/1489923853-85-decade-real-estate.jpg","phone":"0708744855308094358936","website":"www.decadehousing.com"},{"name":"METRO FRANK GROUP LIMITED","address":"Plot No: 547 House No 9B Mike Okiro Close, Metro Command Esate, Beside Wuye District FCT Abuja, Abuja, Abuja","state":"Abuja","description":"We have the idea and concept to deliver mass housing at affordable rates which reflect our technological ingenuity in which we can generate what is called the slurry. This slurry is pumped into molds ...","rating":"","reviews":"","location":{"lat":"9.051243184104754","lng":"7.441906929016113"},"category":"Real Estate","link":"https://www.businesslist.com.ng/company/264876/metro-frank-group-limited","imageUrl":"https://www.businesslist.com.ng/img/ng/s/1566482896-67-metro-frank-group-limited.jpg","phone":"08061119534","website":"www.metrofrankgroup.com.ng"},{"name":"Hodisol Limited","address":"47 alake house Ogudu ojota, Ojota, Lagos","state":"Lagos","description":"Hodisol Limited is a diversified company that offers Real Estate and ICT solutions with over 5 years experience consultation for both companies and individuals with customer satisfaction as our core ...","rating":"","reviews":"","location":{"lat":"6.6118081589445","lng":"3.410033506588661"},"category":"Real Estate","link":"https://www.businesslist.com.ng/company/259246/hodisol-limited","imageUrl":"https://www.businesslist.com.ng/img/ng/e/1508584348-44-hodisol-limited.jpg","phone":"07068861004","website":"www.hodisol.com"},{"name":"Cantagali Headquarters","address":"36, Turnbull Road, Ikoyi., Lagos Island, Lagos","state":"Lagos","description":"Cantagali Limited is a full-service real estate company specializing in property management, sales and rentals, project management and procurement. Established in 2007, Cantagali has been committed to...","rating":"","reviews":"","location":{"lat":"6.456968616939343","lng":"3.446249191168249"},"category":"Real Estate","link":"https://www.businesslist.com.ng/company/261514/cantagali-headquarters","imageUrl":"https://www.businesslist.com.ng/img/ng/m/1532091851-91-cantagali-headquarters.png","phone":"07063462511","website":"www.cantagali.com"},{"name":"Lad-White Ventures Ltd/Lad-White Real Properties","address":"Suite 53 Phase 2, LSDPC Complex, Oba Ogunji Road, Pen-Cinema, Agege, Lagos , Lagos, Lagos","state":"Lagos","description":"Lad-White Ventures Ltd is a Company incorporated in Nigeria under the relevant laws of the Country. It was incorporated on 11th May 2001. We are engaged in Real Estate and Property Consultants busines...","rating":"","reviews":"","location":{"lat":"6.530594982955801","lng":"3.3818472712487164"},"category":"Real Estate","link":"https://www.businesslist.com.ng/company/262708/lad-white-ventures-ltdlad-white-real-properties","imageUrl":"https://www.businesslist.com.ng/img/ng/r/1543515265-94-lad-white-ventures-ltd-lad-white-real-properties.jpg","phone":"0802318940308055957900","website":"www.ladwhiterealproperties.com"},{"name":"BNH ESTATES LIMITED","address":"Trinity Plaza, 109 Upper New Market Road, Onitsha, Anambra State., Onitsha, Anambra","state":"Anambra","description":"BNH Estate limited which is a fully integrated civil Engineering Company. Our services includes Real Estate Development, Land And Property Acquisition, Valuation And Sales, Construction And Re-Modelin...","rating":"","reviews":"","location":{"lat":"6.15341936561137","lng":"6.78831160068512"},"category":"Real Estate","link":"https://www.businesslist.com.ng/company/257567/bnh-estates-limited","imageUrl":"https://www.businesslist.com.ng/img/ng/d/1497544709-54-bnh-estates-limited.jpg","phone":"+2347030215506","website":"www.brandnewhomes.com.ng"},{"name":"Kaga Movers","address":"8 Ayinde Giwa Street, Off Ogunlana Drive, Surulere, Lagos, Lagos, Lagos","state":"Lagos","description":"We are a relocation/moving company in Lagos that provides professional moving/relocation services for households and offices. We live up to this philosophy by offering all of our customers exceptional...","rating":"","reviews":"","location":{"lat":"6.5031410315632066","lng":"3.351417682590636"},"category":"Real Estate","link":"https://www.businesslist.com.ng/company/260716/kaga-movers","imageUrl":"https://www.businesslist.com.ng/img/ng/l/1524807223-97-kaga-movers.jpg","phone":"0907406730207062551624","website":"www.kagamovers.com"},{"name":"17Three Digital Realtors","address":"14, Kasumu Street, Shangisha, Kosofe, Lagos, Lagos, Lagos","state":"Lagos","description":"17Three Digital Realtors is a digital marketing business that connects individuals with interest in buying real estate portfolios like lands, houses and rent with such available properties across Lago...","rating":"","reviews":"","location":{"lat":"6.613760888362411","lng":"3.3749350905418396"},"category":"Real Estate","link":"https://www.businesslist.com.ng/company/258778/17three-digital-realtors","imageUrl":"https://www.businesslist.com.ng/img/ng/s/1502982341-35-17three-digital-realtors.png","phone":"08068958046","website":"kehindebuari.com"},{"name":"The Just path investment.","address":"No 3 office , chemist bus/stop Alaba int'l, Lagos, Lagos","state":"Lagos","description":"we are real estate consultants. we consult with the following companies, Sentinel Resources and capital investment, Edge homes , Medorf solution and Red Bricks.","rating":"","reviews":"","location":{"lat":"6.444513052445071","lng":"3.24119009423828"},"category":"Real Estate","link":"https://www.businesslist.com.ng/company/266856/the-just-path-investment","imageUrl":"https://www.businesslist.com.ng/img/ng/n/1583334906-71-the-just-path-investment.jpg","phone":"08084907899","website":"www.thejustpath.com.ng"},{"name":"ArkView Properties and Real Estate","address":"Plot 13 Kelly John Infinity Estate Ado Rd., Ajah, Lagos, Lagos, Lagos","state":"Lagos","description":"We are real estate agents dedicated to assisting investors with the right choice of homes, properties, lands. Looking for a realtor? We are your number one real estate investment company. ","rating":"","reviews":"","location":{"lat":"6.4677109460110636","lng":"3.597902435546871"},"category":"Real Estate","link":"https://www.businesslist.com.ng/company/265282/arkview-properties-and-real-estate","imageUrl":"https://www.businesslist.com.ng/img/ng/c/1569773428-37-arkview-properties-and-real-estate.jpg","phone":"07016766761","website":"www.arkviewproperty.com"},{"name":"Homerealityconcept","address":"14 Tiawo Kolawale Street unity estate badore, Lagos Island, Lagos","state":"Lagos","description":"Home Reality Concept is well known for leading the development of environmentally sustainable surface coatings of any kind. We are experts when it comes to painting, we specialize in both commercial a...","rating":"","reviews":"","location":{"lat":"6.474533653424403","lng":"3.843034881835936"},"category":"Real Estate","link":"https://www.businesslist.com.ng/company/267120/homerealityconcept","imageUrl":"https://www.businesslist.com.ng/img/ng/f/1584539758-12-homerealityconcept.jpg","phone":"08023762629","website":"www.homerealityconcept.com"},{"name":"MDS Properties Limited","address":"Ikoyi, Lagos Island, Lagos state, Lagos Island, Lagos","state":"Lagos","description":"MDS Properties Limited is a full-service Real Estate consulting firm that provides research and strategic advisory services to real estate developers and investors.","rating":"","reviews":"","location":{"lat":"6.449289176209745","lng":"3.429674286132811"},"category":"Real Estate","link":"https://www.businesslist.com.ng/company/267441/mds-properties-limited","imageUrl":"https://www.businesslist.com.ng/img/ng/z/1587541068-51-mds-properties-limited.jpg","phone":"0909387306008094700008","website":"www.mdsproperties.ng/"},{"name":"Pirotti Projects Limited","address":"5,Asa Street,Maitama,Abuja., Abuja, Abuja","state":"Abuja","description":"Pirotti Projects limited is an architectural,engineering and real estate development company,We have been in operation since 2011 and we have been doing bespoke design and talk of town real estate des...","rating":"","reviews":"","location":{"lat":"9.086131642119907","lng":"7.423517659277422"},"category":"Real Estate","link":"https://www.businesslist.com.ng/company/257880/pirotti-projects-limited","imageUrl":"https://www.businesslist.com.ng/img/ng/e/1505125302-39-pirotti-projects-limited.jpg","phone":"08020690678","website":"www.pirottiprojects.com"},{"name":"Roofingplus Int.Ltd","address":"49,Bamgboye Street, Alafia-Mushin,Lagos, Mushin, Lagos","state":"Lagos","description":"Roofingplus is one of the major Marketers of DECRA Stone coated roofs in Nigeria.DecraRoofs feature on some of the country's finest commercial and residential properties.Decra roofs shares a larger pe...","rating":"","reviews":"","location":{"lat":"6.525128051569499","lng":"3.345212007379132"},"category":"Real Estate","link":"https://www.businesslist.com.ng/company/130408/decra","imageUrl":"https://www.businesslist.com.ng/img/ng/c/1455714223_79812.jpg","phone":"01-743066308033604132","website":"www.decraafrica.com"},{"name":"Jooda And Associates","address":"55, Ijemo Agbadu Ake Centinary Road Ijemo Agbadu Abeokuta Ogun State 7k, Abeokuta, Lagos","state":"Lagos","description":"Building Designers & Architectural Technologists in United Kingdom London Building Designers & Architectural Technologists · Manchester Building Designers & Architectural Technologists · Birmingham ...","rating":"5.0","reviews":"1 Review","location":{"lat":"6.61982","lng":"3.30159"},"category":"Real Estate","link":"https://www.businesslist.com.ng/company/243949/jooda-and-associates","phone":"080602232720806335638109078830502","website":""},{"name":"GedeProperties LTD (REAL ESTATE)","address":"#83 Ogurugu road., Nsukka, Enugu","state":"Enugu","description":"GedeProperties ltd is a giant Real Estate firm that mainly operate within Nsukka / Enugu environs. Our website: www.gedegede.com is an online platform where thousands of SELLERS of landed property mee...","rating":"","reviews":"","location":{"lat":"6.847719781555305","lng":"7.376934761932375"},"category":"Real Estate","link":"https://www.businesslist.com.ng/company/260883/gedeproperties-ltd-real-estate","imageUrl":"https://www.businesslist.com.ng/img/ng/b/1526654327-17-gedeproperties-ltd-real-estate.jpg","phone":"08030412732","website":"www.gedegede.com"},{"name":"FIPS Multilinks","address":"KM 25, Lekki-Epe Expressway, Royal Office Building, Vatebra Tech Hub, Ajiwe, Ajah, Lagos, Lagos","state":"Lagos","description":"FIPS Multilinks Limited is a real estate company in Nigeria duly incorporated under the Laws of the Cooperate Affairs Commission with RC 1252602. We provides services encompassing Facilities Managemen...","rating":"","reviews":"","location":{"lat":"6.554936897621931","lng":"3.9352427894185666"},"category":"Real Estate","link":"https://www.businesslist.com.ng/company/265657/fips-multilinks","imageUrl":"https://www.businesslist.com.ng/img/ng/l/1572966998-72-fips-multilinks.jpg","phone":"0807 147 9557","website":"www.fipsmultilinks.com"},{"name":"BIMAJ TOP GROUP","address":"150, Ikorodu Road,Adebowale House, block C, Second Floor. Onipanu, Lagos, Lagos","state":"Lagos","description":"Bimaj Top Realties Limited is a seasoned and professional Real Estate Investment, Development and Marketing Company whose principals and staff have vast knowledge and experience in real estate marketi...","rating":"","reviews":"","location":{"lat":"6.5344474895643625","lng":"3.3681229970075037"},"category":"Real Estate","link":"https://www.businesslist.com.ng/company/261788/bimaj-top-group","imageUrl":"https://www.businesslist.com.ng/img/ng/n/1534455633-63-bimaj-top-group.jpg","phone":"08155569992","website":"www.bimajtopgroup.com"},{"name":"Naic property investment limited","address":"114 Junction along Rukpokwu Eneka road Port Harcourt,Nigeria., Port Harcourt, Rivers","state":"Rivers","description":"Naic Property Limited is Nigeria's No. 1 real estate solution providers. We are committes to bringing the best property deals with appreciable ROI to your doorsteps at affordable pricea. Naic property...","rating":"","reviews":"","location":{"lat":"6.530575284649578","lng":"3.4074783325195312"},"category":"Real Estate","link":"https://www.businesslist.com.ng/company/259751/naic-property-investment-limited","imageUrl":"https://www.businesslist.com.ng/img/ng/c/1515018973-57-naic-property-investment-limited.jpg","phone":"+2348131905078","website":"httl://facebook.com/Naicpropertyinvestmemtlimited"},{"name":"CasaSolida Limited","address":"34 Admiralty way Lekki Phase 1, Lagos Island, Lagos","state":"Lagos","description":"CasaSolida Limited is a multifaceted service provider to the property development sector and a full service real estate firm specializing in Marketing, Consulting, Project Management and high quality ...","rating":"","reviews":"","location":{"lat":"6.446784994346873","lng":"3.461906388401985"},"category":"Real Estate","link":"https://www.businesslist.com.ng/company/258324/casasolida-limited","imageUrl":"https://www.businesslist.com.ng/img/ng/h/1503055255-53-casasolida-limited.jpg","phone":"08023136645","website":"www.casasolidaltd.com"},{"name":"Property Deal Zone","address":"KM 23, Lekki-Epe Expressway, Ajah, Eti Osa, Lagos state , Lagos, Lagos","state":"Lagos","description":"Property Deal Zone is Nigeria's property marketplace showcasing houses, Land, flats, shops/offices/warehouses for sale, rent or joint venture.","rating":"","reviews":"","location":{"lat":"6.470133869777722","lng":"3.5884952545166016"},"category":"Real Estate","link":"https://www.businesslist.com.ng/company/253188/property-deal-zone","imageUrl":"https://www.businesslist.com.ng/img/ng/e/1478610699-46-property-deal-zone.jpg","phone":"07035097220","website":"www.propertydealzone.com"},{"name":"Asmab Pro Properties And Service LTD","address":"Olaribiro Street, Ikeja, Lagos","state":"Lagos","description":"ASMAB Pro is a Real Estate Management & Service Company, we are positioned to provide our clients with affordable properties and deliver on our promises.","rating":"","reviews":"","location":{"lat":"6.605759752730485","lng":"3.353877067565918"},"category":"Real Estate","link":"https://www.businesslist.com.ng/company/259237/asmab-pro-properties-and-service-ltd","imageUrl":"https://www.businesslist.com.ng/img/ng/h/1508364431-11-asmab-pro-properties-and-service-ltd.jpg","phone":"08162754911","website":"www.asmabpro.com"},{"name":"FEMI GILBET LTD","address":"SUITE B8 SHM PLAZA NEAR VIO OFFICE MABUSHI, Abuja, Abuja","state":"Abuja","description":"FEMI GILBET LTD is a building solution and creative interior and exterior design company. The company was incorporated as a Limited liability company in 2012 and has been strategically re-engineered t...","rating":"","reviews":"","location":{"lat":"9.082942746505381","lng":"7.452056407928467"},"category":"Real Estate","link":"https://www.businesslist.com.ng/company/255568/femi-gilbet-ltd","imageUrl":"https://www.businesslist.com.ng/img/ng/g/1459433534-70-femi-gilbet-ltd.jpg","phone":"08037162444","website":""},{"name":"Biolkaz Nigeria Limited","address":"614 Lagos-Abeokuta expressway, Ijaye. , Lagos, Lagos","state":"Lagos","description":" Biolkaz Nigeria Limited is a company that provides general real estate services with offices in Lagos, Ogun, Oyo, Rivers states and the FCT. Bisi Oluwole & Co is a sister company specializing in inve...","rating":"","reviews":"","location":{"lat":"6.710460925011038","lng":"3.2332834432287427"},"category":"Real Estate","link":"https://www.businesslist.com.ng/company/261588/biolkaz-nigeria-limited","imageUrl":"https://www.businesslist.com.ng/img/ng/h/1535122181-70-biolkaz-nigeria-limited.png","phone":"09063232912","website":""},{"name":"Megat and Partners Estate Ltd","address":"Suite 14, Second floor, Block B Alausa Shopping complex 131 Obafemi Awolowo Way Ikeja., Ikeja, Lagos","state":"Lagos","description":"Megat and Partners Estate Limited is a leading Real Estate Company, with the objective of facilitating land acquisition, developing and managing properties of the highest quality and standard across t...","rating":"3.0","reviews":"2 Reviews","location":{"lat":"6.611637389463392","lng":"3.3543840050697327"},"category":"Real Estate","link":"https://www.businesslist.com.ng/company/256620/megat-and-partners-estate-ltd","imageUrl":"https://www.businesslist.com.ng/img/ng/g/1475155112-64-megat-and-partners-estate-ltd.jpg","phone":"08023119092","website":"www.megatandpartners.com"},{"name":"PropertyBox Nigeria LTD","address":"Support@propertybox.com.ng, Abuja, Abuja","state":"Abuja","description":"PropertyBox is a Free web-based software package for rental property management. PropertyBox provides a full package of online property management tools, providing users flexible access to their prope...","rating":"","reviews":"","location":{"lat":"9.062691512795984","lng":"7.483127117156982"},"category":"Real Estate","link":"https://www.businesslist.com.ng/company/255454/propertybox-nigeria-ltd","imageUrl":"https://www.businesslist.com.ng/img/ng/s/1457364557-21-propertybox-nigeria-ltd.jpg","phone":"+2348099447018","website":"propertybox.com.ng"}]