[{"name":"Goodness Homes & Properties","address":"Last Born Plaza New Garage off Akala expressway, Ibadan, Oyo","state":"Oyo","description":"Goodness Homes & Properties RC: 2896713 WE ARE A REPUTABLE REAL ESTATE COMPANY THAT SPECIALIZES IN SALES,LETTING,LEASING AND MANAGEMENT OF PROPERTIES WITHIN IBADAN METROPOLIS IN PARTICULAR AND THE COU...","rating":"","reviews":"","location":{"lat":"7.376958826460003","lng":"3.947535753250122"},"category":"Real Estate","link":"https://www.businesslist.com.ng/company/260703/goodness-homesproperties","imageUrl":"https://www.businesslist.com.ng/img/ng/d/1559373666-47-goodness-homes-properties.jpg","phone":"08073632203","website":"web.facebook.com/goodnesshomes"},{"name":"Chartered Design Consulting Limited","address":"22B, Femi Okunnu Estate, Lekki, Lagos, Lagos, Lagos","state":"Lagos","description":"Chartered Design Consulting Limited is a Building Services Engineering Company with dealings in Architectural Design, Plumbing Design, Ventilation and Air-conditioning Design, Electrical Design and St...","rating":"","reviews":"","location":{"lat":"6.436620500862315","lng":"3.5059934481562323"},"category":"Real Estate","link":"https://www.businesslist.com.ng/company/260921/chartered-design-consulting-limited","imageUrl":"https://www.businesslist.com.ng/img/ng/m/1533642014-55-chartered-design-consulting-limited.jpg","phone":"+2348032481308","website":"chartereddesign.com"},{"name":"Rightway Consults","address":"4 Broad street, Igbopa-London, Abule-Eko Bus Stop, Ijede, Ikorodu, Lagos, Ikorodu, Lagos","state":"Lagos","description":"We are real estate agents. We have over 20years experience in property management, sales and letting. ","rating":"4.0","reviews":"1 Review","location":{"lat":"6.581758234610909","lng":"3.6012840270996094"},"category":"Real Estate","link":"https://www.businesslist.com.ng/company/258688/rightway-consults","phone":"0805506670307030753875","website":"www.rightwayconsults.com.ng"},{"name":"Fourtnee Realtors","address":"The Garnet Building, Igbo-efon off lekki epe expressway, Lagos Island, Lagos","state":"Lagos","description":"We are a real estate brokerage company. We sell Lands and houses in Ibeju Lekki, Sangotedo, Ogombo, Lakowe Golf Course, Ajah, Lekki, Mowe-Sagamu, Imota-Agbowa ikorodu, Magboro, Imo, Abuja. We have sev...","rating":"","reviews":"","location":{"lat":"6.437022243941152","lng":"3.5206577996541455"},"category":"Real Estate","link":"https://www.businesslist.com.ng/company/259328/fourtnee-realtors","imageUrl":"https://www.businesslist.com.ng/img/ng/k/1509562286-56-fourtnee-realtors.png","phone":"+2348103934156+2348060020301","website":"fourtnee.estateagentsng.com/"},{"name":"Baje Global Investment Limited (BGI)","address":"4, Jibowu street, SECOND FLOOR- RIGHT wing, Lagos","state":"","description":"At Baje Global Invest Limited, our uniqueness and strength is our exceptional customer relationship management with partners and clients based on integrity, effective communication and professionalism...","rating":"","reviews":"","location":{"lat":"6.518993674047476","lng":"3.368639188386851"},"category":"Real Estate","link":"https://www.businesslist.com.ng/company/262615/baje-global-investment-limited-bgi","imageUrl":"https://www.businesslist.com.ng/img/ng/e/1547338803-53-baje-global-investment-limited-bgi.png","phone":"08064738620","website":"www.bgiltd.com"},{"name":"Pine Group Nigeria","address":"Plot J100A, Close 13, VGC, Lekki Peninsula, Ajah, Lagos Island, Lagos","state":"Lagos","description":"Establishes in 2005, Pine Group Nigeria is a group of Utility Service Provider Companies dedicated to offering value and value adding services, enhanced with technology application with a focus of enh...","rating":"","reviews":"","location":{"lat":"6.451923494274102","lng":"3.3902804932852177"},"category":"Real Estate","link":"https://www.businesslist.com.ng/company/261765/pine-group-nigeria","imageUrl":"https://www.businesslist.com.ng/img/ng/k/1534323292-77-pine-group-nigeria.jpg","phone":"09030002194090300021950903000219609030002197","website":"www.pinegroup.com.ng"},{"name":"FEMI GILBET LTD","address":"SUITE B8 SHM PLAZA CLOSE TO VIO OFFICE MABUSHI ABUJA. , Abuja, Abuja","state":"Abuja","description":"FEMI GILBET LTD was incorporated in 2012 as a limited liability company and has grown from a modest beginning to become a major company that provide services that exceeds the expectations of our custo...","rating":"","reviews":"","location":{"lat":"9.064126766278852","lng":"7.464920282363892"},"category":"Real Estate","link":"https://www.businesslist.com.ng/company/257254/femi-gilbet-ltd","imageUrl":"https://www.businesslist.com.ng/img/ng/k/1485437683-83-femi-gilbet-ltd.jpg","phone":"08172141058","website":"www.femigilbet.com"},{"name":"Triakot Properties","address":"Plot 101B Furo Ezimora street, Marwa buss top, Lekki Phase 1, Lagos., Lagos, Lagos","state":"Lagos","description":"Welcome to Triakot Properties. We are a legitimate real estate marketing company aimed at connecting YOU with amazing, affordable and safe properties. Is your desire A good land in a respectable resid...","rating":"","reviews":"","location":{"lat":"6.459281363064719","lng":"3.6292648315429688"},"category":"Real Estate","link":"https://www.businesslist.com.ng/company/258470/triakot-properties","imageUrl":"https://www.businesslist.com.ng/img/ng/b/1499810039-57-triakot-properties.jpg","phone":"08033133331","website":"www.triakotproperties.com.ng"},{"name":"New Creations Properties Limited","address":"Block B8, Plot 2, CMD Road, Magodo, Ikeja, Lagos","state":"Lagos","description":"New Creations Properties limited offers full scale real estate solutions- affordable and peace of mind Land and housing with objective of providing value, choice and satisfaction","rating":"","reviews":"","location":{"lat":"6.626328511114162","lng":"3.3656787872314453"},"category":"Real Estate","link":"https://www.businesslist.com.ng/company/258797/new-creations-properties-limited","imageUrl":"https://www.businesslist.com.ng/img/ng/b/1503398406-34-new-creations-properties-limited.jpg","phone":"2348076262682","website":"www.ncplnig.com"},{"name":"RyteGate","address":"52 Ogudu Rd, Ojota, Ojota, Lagos","state":"Lagos","description":"RyteGate provides consulting and information technology advisory services to a wide range of local and international clients. We are specialists in Building and Construction and Real Estate Developmen...","rating":"","reviews":"","location":{"lat":"6.58694481865849","lng":"3.3830675045073804"},"category":"Real Estate","link":"https://www.businesslist.com.ng/company/261073/rytegate","imageUrl":"https://www.businesslist.com.ng/img/ng/c/1528125825-43-rytegate.jpg","phone":"08149906811","website":"www.rytegate.com"},{"name":"Vafiero International Limited","address":"No. 1C Pascal Offiah Close, Off Tony Azuya Street, Jakande First Gate, Lekki, Lagos, Lagos Island, Lagos","state":"Lagos","description":"To engage responsibly and profitably in Real Estate. We develop properties to meet evolving client's needs and the country's growing demand for properties","rating":"","reviews":"","location":{"lat":"6.434338638770794","lng":"3.4918421879410744"},"category":"Real Estate","link":"https://www.businesslist.com.ng/company/257457/vafiero-international-limited","imageUrl":"https://www.businesslist.com.ng/img/ng/k/1491568256-61-vafiero-international-limited.jpg","phone":"014531189","website":"www.vafiero.com"},{"name":"RyteGate","address":"Area H, Opposite Isopadec, New Owerri, Owerri, Owerri, Imo","state":"Imo","description":"RyteGate provides consulting and information technology advisory services to a wide range of local and international clients. We are also specialists in Building and Construction as well as Real Estat...","rating":"","reviews":"","location":{"lat":"5.465016157074775","lng":"7.009981155233731"},"category":"Real Estate","link":"https://www.businesslist.com.ng/company/260951/rytegate","imageUrl":"https://www.businesslist.com.ng/img/ng/f/1527067597-17-rytegate.jpg","phone":"+234-814-990-6811","website":"www.rytegate.com"},{"name":"Boing Luxury Estates","address":"09090001953  10 Ohaeto st, D-line, Port Harcourt askme@boingestates.com FacebookTwitterInstagram, Port Harcourt, Rivers","state":"Rivers","description":"For over five years, Boing Luxury Estates has been providing luxurious accommodations for homeless Nigerians whose hopes of owning their own houses have been dashed. ","rating":"","reviews":"","location":{"lat":"4.815799892137036","lng":"7.050723964556937"},"category":"Real Estate","link":"https://www.businesslist.com.ng/company/263655/boing-luxury-estates","imageUrl":"https://www.businesslist.com.ng/img/ng/f/1554237235-48-boing-luxury-estates.jpg","phone":"09090001953","website":"www.boingestste.com"},{"name":"BUILT MAGNATE LIMITED","address":"95 Ago palace Okota, Oshodi, Lagos","state":"Lagos","description":"Built Magnate (RC 1570844) is an Architectural firm with a team of Architects, Engineers, Surveyors and Builders established in March 2019 and led by Arc. Eziuche Emmanuel. Specializes in Architectura...","rating":"","reviews":"","location":{"lat":"6.514322734500968","lng":"3.316761772119765"},"category":"Real Estate","link":"https://www.businesslist.com.ng/company/266682/built-magnate-limited","imageUrl":"https://www.businesslist.com.ng/img/ng/e/1581757061-49-built-magnate-limited.jpg","phone":"08038601428","website":"www.builtmagnate.com"},{"name":"DestinyKing Home of Global Properties & Invest Ltd","address":"No 1 Road 3, Michelangelo Avenue, by White House Abijo G. R. A, Lekki, Lagos Island, Lagos","state":"Lagos","description":"Destiny king Home of Global Properties and Investment Limited in abbreviation DESTINY KING HOMES LIMITED, is No. #1 Real Estate Marketing and Investment Firm in Nigeria with our Head office located in...","rating":"","reviews":"","location":{"lat":"6.461914186939968","lng":"3.6889282611446106"},"category":"Real Estate","link":"https://www.businesslist.com.ng/company/258205/destinyking-home-of-global-propertiesinvest-ltd","imageUrl":"https://www.businesslist.com.ng/img/ng/l/1558770199-23-destinyking-home-of-global-properties-invest-ltd.jpg","phone":"+2348038182095","website":"www.destinykinghomes.com.ng"},{"name":"Bodelon Homes Limited","address":"Badejo Ajinyemi House, 17/19 Badejo Akinyemi Crecent Off Fatai Atere Way, Matori Industial Scheme, Matori Mushin, Lagos, Lagos","state":"Lagos","description":"Bodelon Homes is a leading housing solutions provider/real estate firm in Nigeria. Bodelon Homes Limited is registered as a real estate development firm, a wholly owned Nigerian company with registere...","rating":"","reviews":"","location":{"lat":"6.539633","lng":"3.350134"},"category":"Real Estate","link":"https://www.businesslist.com.ng/company/267151/bodelon-homes-limited","imageUrl":"https://www.businesslist.com.ng/img/ng/g/1584708072-58-bodelon-homes-limited.jpg","phone":"+234 80222 24769","website":"bodelonholdings.com"},{"name":"ROICOMSAT GLOBAL SERVICES","address":"24 ETT AGBOR ROAD, Calabar, Cross River","state":"Cross River","description":"ROICOMSAT GLOBAL SERVICES is located, Cross River, Calabar . Our company is a dynamic company and a multidimensional work place,we are into Monogramers, Photo Processing Labs and offering Digital Prin...","rating":"","reviews":"","location":{"lat":"4.950769931265047","lng":"8.338001334368073"},"category":"Real Estate","link":"https://www.businesslist.com.ng/company/262856/roicomsat-global-services","imageUrl":"https://www.businesslist.com.ng/img/ng/l/1545286513-97-roicomsat-global-services.jpg","phone":"+2348138067160","website":"roicomsat-global-services.business.site"},{"name":"Chogon Properties Limited","address":"Road 2 Suit F83/118 Ikota Shopping Complex V.G.C Ajah, Lagos, Lagos","state":"Lagos","description":"Chogon properties limited is a Real estate firm, also they are the preferred properties company in Lagos. Learning about the area? Ready to buy or sell? We're here for your family, ready to help. Find...","rating":"","reviews":"","location":{"lat":"6.524336618306518","lng":"3.3802358095703084"},"category":"Real Estate","link":"https://www.businesslist.com.ng/company/264955/chogon-properties-limited","imageUrl":"https://www.businesslist.com.ng/img/ng/m/1572003435-53-chogon-properties-limited.png","phone":"08072292381","website":"www.chogonproperties.com"},{"name":"Logan Davex Elevators and Escalators","address":"120B, Association Road, Dolphin Estate, Ikoyi, Ikeja, Lagos","state":"Lagos","description":"Logan Davex is the leading elevator and escalator company in Nigeria. We are committed to quality and excellence and this shows in our approach in meeting the needs of our clients. We combine quality ...","rating":"","reviews":"","location":{"lat":"6.4577121","lng":"3.4172046"},"category":"Real Estate","link":"https://www.businesslist.com.ng/company/264968/logan-davex-elevators-and-escalators","imageUrl":"https://www.businesslist.com.ng/img/ng/e/1567087011-59-logan-davex-elevators-and-escalators.jpg","phone":"08105522451","website":"www.logan-davex.com"},{"name":"BlocHaus Africa","address":"Suite E148, Ikota Shopping Complex VGC, Ajah, Lagos, Lagos","state":"Lagos","description":"blocHaus Africa is one of the leading Real Estate Developers in Lagos, Nigeria. We aspire to provide the ultimate real estate experience for today’s modern investor. We are not confined by the tradi...","rating":"","reviews":"","location":{"lat":"6.463723883722507","lng":"3.5553411428985555"},"category":"Real Estate","link":"https://www.businesslist.com.ng/company/265976/blochaus-africa","imageUrl":"https://www.businesslist.com.ng/img/ng/g/1575636239-57-blochaus-africa.jpg","phone":"07057633333","website":"www.blochausafrica.com"},{"name":"Landpreneurs Limited","address":"Block 3, Flat 1, Mubende Street, off custom, Wamba, Abuja","state":"Abuja","description":"Whether you are looking to buy, rent, or sell, you can be conﬁdent that Landpreneurs can fulﬁlled your requirements through our comprehensive understanding of the market and the wide range of prop...","rating":"","reviews":"","location":{"lat":"9.058172404943383","lng":"7.469329833984375"},"category":"Real Estate","link":"https://www.businesslist.com.ng/company/259081/landpreneurs-limited","imageUrl":"https://www.businesslist.com.ng/img/ng/x/1506508762-10-landpreneurs-limited.jpg","phone":"08060374414","website":"www.landpreneurs.com"},{"name":"More Than Trendy Nig. Ltd","address":"3. 2nd floor 37, Diya Street, Ifako Gbagada Lagos State Suite 35, Prime Shopping Mall, Muri Okunola Street, Victoria Island , Lagos, Lagos","state":"Lagos","description":"More Than Trendy Properties is a subsidiary of More than trendy Nigeria. Limited. We are real estate professionals, creative, innovative and people-oriented organization providing individual opportuni...","rating":"","reviews":"","location":{"lat":"6.550731","lng":"3.391771"},"category":"Real Estate","link":"https://www.businesslist.com.ng/company/257543/more-than-trendy-nig-ltd","imageUrl":"https://www.businesslist.com.ng/img/ng/h/1489423767-65-more-than-trendy-nig-ltd.jpg","phone":"+234 808 247 7733","website":"properties.morethantrendy.com"},{"name":"Aniibol Group","address":"260c Muritala Mohammed Way, Yaba, Lagos , Lagos, Lagos","state":"Lagos","description":"ANIIBOL GROUP is a multi business conglomerate, with interests across diverse industry sectors in Nigeria and the United Kingdom. Our group of companies include Anibol Consulting, Aniibol Training Ins...","rating":"5.0","reviews":"1 Review","location":{},"category":"Real Estate","link":"https://www.businesslist.com.ng/company/262202/aniibol-group","imageUrl":"https://www.businesslist.com.ng/img/ng/a/1538391151-69-aniibol-group.jpg","phone":"07013075824","website":"www.consultaniibol.com"},{"name":"Bedspace.net.ng","address":"Online service, hence nationwide, Ikeja, Lagos","state":"Lagos","description":"Bedspace.net.ng is a property advertising website/agency. We specialise in helping property sellers market their wares to help them boost sales. We do this basically by allowing them list their proper...","rating":"","reviews":"","location":{"lat":"6.602029838454547","lng":"3.351443384655795"},"category":"Real Estate","link":"https://www.businesslist.com.ng/company/260905/bedspacenetng","imageUrl":"https://www.businesslist.com.ng/img/ng/c/1526648800-61-bedspace-net-ng.jpg","phone":"08071943039","website":"www.bedspace.net.ng"},{"name":"CHAMAN LAW FIRM","address":"31, Afolabi Aina Street, Allen Ikeja, Lagos, Ikeja, Lagos","state":"Lagos","description":"CHAMAN LAW FIRM is a world class and one of the leading and top law firms in Nigeria. In Support of clients on substantial matters, we deploy well-configured attorney teams with domestic and internati...","rating":"","reviews":"","location":{"lat":"6.68906350636082","lng":"3.41474351740726"},"category":"Real Estate","link":"https://www.businesslist.com.ng/company/263550/chaman-law-firm","imageUrl":"https://www.businesslist.com.ng/img/ng/l/1589409730-41-chaman-law-firm.jpg","phone":"08065553671","website":"www.chamanlawfirm.com"},{"name":"Campusvilla Global Services","address":"Ibadan, Ibadan, Oyo","state":"Oyo","description":"CampusVilla.com.ng is a reliable online property website that connects students seeking off-campus accommodation with homeowners who have vacant apartments. We aim to reduce the stress of searching fo...","rating":"","reviews":"","location":{"lat":"7.366734302499679","lng":"3.9475250244140625"},"category":"Real Estate","link":"https://www.businesslist.com.ng/company/258582/campusvilla-global-services","imageUrl":"https://www.businesslist.com.ng/img/ng/k/1500822578-29-campusvilla-global-services.jpg","phone":"08168693597","website":"www.campusvilla.com.ng"},{"name":"Beracah Works Limited","address":"144 Akpakpava Road, Benin City, Edo State, Nigeria., Benin City, Edo","state":"Edo","description":"Beracah works limited is a construction company established in 2014 and is currently one of the leading Building & Civil Engineering Contractors in Nigeria. As an active player in the building constru...","rating":"","reviews":"","location":{"lat":"6.345160205479452","lng":"5.637818276882172"},"category":"Real Estate","link":"https://www.businesslist.com.ng/company/259400/beracah-works-limited","imageUrl":"https://www.businesslist.com.ng/img/ng/c/1535360851-30-beracah-works-limited.jpg","phone":"07067412301","website":"www.beracahworks.com.ng"},{"name":"Invent Alliance Limited Warehouse","address":"KM 29, Lekki-Epe Expressway, Alasia Bus Stop (Behind Forte Oil Filling Station), Ajah, Lagos, Nigeria, Lagos Island, Lagos","state":"Lagos","description":"Invent Alliance Warehouse is a secured and highly mechanized state-of-the-art commercial warehousing facility covering a total area of 575 square metres. Palletized materials are carefully stored in p...","rating":"","reviews":"","location":{"lat":"6.469457566452395","lng":"3.6022067070007324"},"category":"Real Estate","link":"https://www.businesslist.com.ng/company/260041/invent-alliance-limited-warehouse","imageUrl":"https://www.businesslist.com.ng/img/ng/j/1538987025-92-invent-alliance-limited-warehouse.jpg","phone":"07063928215","website":"http//eokoro.wixsite.com/inventwarehouse"},{"name":"Sweetsuinix Real Estate Investment Ltd","address":"Our Contact Suite 29A West Pavillons, TBS Complex, Lagos Island, Lagos","state":"Lagos","description":"SWEETSUINIX REAL ESTATE AND INVESTMENTS is a Real Estate Investment organization fully incorporated in Nigeria to handle holistic real estate transactions with a strong base in Lagos and is made up of...","rating":"","reviews":"","location":{"lat":"5.993465495670307","lng":"3.5066096228393917"},"category":"Real Estate","link":"https://www.businesslist.com.ng/company/261966/sweetsuinix-real-estate-investment-ltd","imageUrl":"https://www.businesslist.com.ng/img/ng/a/1536246729-25-sweetsuinix-real-estate-investment-ltd.jpg","phone":"0902 766 2403","website":"www.sweetairpadise.com.ng"},{"name":"PERFECT AGES INTERNATIONAL LIMITED","address":"Annex: 2, Mekunwen Road, Ikoyi, Lagos., Lagos Island, Lagos","state":"Lagos","description":"Perfect Ages Real Estate/Property brokers provide opportunities for property, real estate and land acquisition across the globe, with a bias in Nigeria, UK, USA & Canada. For instance, the Abuja and L...","rating":"","reviews":"","location":{"lat":"6.454218128560862","lng":"3.4236971777710323"},"category":"Real Estate","link":"https://www.businesslist.com.ng/company/261027/perfect-ages-international-limited","imageUrl":"https://www.businesslist.com.ng/img/ng/b/1527762370-91-perfect-ages-international-limited.jpg","phone":"08028880669","website":"www.perfectageslimited.com"}]