[{"name":"Soft nation's Properties","address":"No 25,olori mojisola Avenue onikoyi ikoyi lagos, Lagos, Lagos","state":"Lagos","description":"Soft nations Properties|Digital Marketer| social media Consultant| professional Dancing Entertainer It's a real estate company base in lagos state our services to prospective customers is to provide t...","rating":"","reviews":"","location":{"lat":"85.05112877980659","lng":"-180"},"category":"Real Estate","link":"https://www.businesslist.com.ng/company/267635/soft-nations-properties","imageUrl":"https://www.businesslist.com.ng/img/ng/a/1589209175-95-soft-nation-s-properties.jpg","phone":"+2348039434624","website":""},{"name":"Lagos Finder","address":"81 forsythe street, Lagos Island, Lagos","state":"Lagos","description":"We are a real estate sales, rental, investigation, financing and investment solution company providing consulting and marketing services to clients","rating":"","reviews":"","location":{"lat":"6.452053336525681","lng":"3.403111696243286"},"category":"Real Estate","link":"https://www.businesslist.com.ng/company/258710/lagos-finder","imageUrl":"https://www.businesslist.com.ng/img/ng/r/1502284146-24-lagos-finder.png","phone":"07062223999","website":"www.Lagosfinder.com"},{"name":"Green Light Access Ltd","address":"A16 Chrisvan Filling Station By Jesus Save At Summit Roas Asaba, , Asaba, Delta","state":"Delta","description":"Greenlightaccessltd is one of the top real estate in nigeria with over 10years experience. You can Buy or sell your genuine properties in few seconds with Greenlightaccessltd. ","rating":"","reviews":"","location":{"lat":"5.759864174072415","lng":"5.823377325972685"},"category":"Real Estate","link":"https://www.businesslist.com.ng/company/266876/green-light-access-ltd","imageUrl":"https://www.businesslist.com.ng/img/ng/r/1583075257-48-green-light-access-ltd.png","phone":"08169660426","website":"greenlightaccessltd.com/"},{"name":"Holmes Viu Properties","address":"49, Ago Palace Way, Opp. Skye Bank, Okota, Lagos, Lagos, Lagos","state":"Lagos","description":"ESTATE MANAGEMENT, Facilitator,Brokers","rating":"1.0","reviews":"1 Review","location":{"lat":"6.508755386407423","lng":"3.3119380474090576"},"category":"Real Estate","link":"https://www.businesslist.com.ng/company/169282/holmes-viu-properties","imageUrl":"https://www.businesslist.com.ng/img/ng/m/1447416611_80834.jpg","phone":"0803305477008059474003","website":"holmesviuproperties@yahoo.com"},{"name":"Libra Reliance Properties","address":"73 Allen Avenue Ikeja Lagos, Lagos, Lagos","state":"Lagos","description":"Libra Reliance Properties provides effective and efficient Facility Management, Real Estate, Construction and Project Management solutions in Nigeria. Our mission is to fill the growing need for compe...","rating":"","reviews":"","location":{"lat":"6.601838","lng":"3.3515077576721524"},"category":"Real Estate","link":"https://www.businesslist.com.ng/company/253793/libra-reliance-properties","imageUrl":"https://www.businesslist.com.ng/img/ng/a/1427282514-10-libra-reliance-properties.jpg","phone":"07011881000","website":"property.librareliance.com"},{"name":"Ziddacx Realtors","address":"Adenugba str., Oregun, Ikeja, Lagos","state":"Lagos","description":"We are a legitimate Real Estate Marketing Company aimed at connecting YOU with amazing, affordable and safe properties (Lands or Houses). OUR PROMISE TO YOU! We don't just sell you properties, we make...","rating":"","reviews":"","location":{"lat":"6.603372442436679","lng":"3.367829918861389"},"category":"Real Estate","link":"https://www.businesslist.com.ng/company/258429/ziddacx-realtors","imageUrl":"https://www.businesslist.com.ng/img/ng/s/1499368315-79-ziddacx-realtors.jpg","phone":"09056300278","website":"www.ziddacxrealtors.com.ng"},{"name":"Gtext Homes","address":"16, Babatunde Ladega, Ikeja, Lagos","state":"Lagos","description":"Gtext Homes is a highly respected, solution providing real Estate Firm. We believe in providing premium personal service now, and well into the future. We are innovative Trailblazers light years ahead...","rating":"","reviews":"","location":{"lat":"6.629765061029279","lng":"3.361157275694268"},"category":"Real Estate","link":"https://www.businesslist.com.ng/company/265730/gtext-homes","imageUrl":"https://www.businesslist.com.ng/img/ng/z/1573548641-12-gtext-homes.jpg","phone":"0809 307 5999","website":"www.gtexthomes.com"},{"name":"Ihotelvest","address":"128, Abuja Keffi Express, Karu Nasarawa State, via Abuja, Abuja, Abuja","state":"Abuja","description":"IHotel Investment and Management is a hotel company owned by Eddy Mega Grand Ltd. Since the creation of iHotelVest we have partnered with investors to Crowd Fund hotel and real Estate Lease all over t...","rating":"","reviews":"","location":{"lat":"9.072264","lng":"7.491302"},"category":"Real Estate","link":"https://www.businesslist.com.ng/company/267658/ihotelvest","imageUrl":"https://www.businesslist.com.ng/img/ng/r/1589356079-50-ihotelvest.png","phone":"+234 8138536689","website":"ihotelvest.com"},{"name":"Classic Attorneys","address":"4, Sule Abuka Street, Opebi, Ikeja, Ikeja, Lagos","state":"Lagos","description":"Classic Attorneys is a Real Estate and Property Law Firm in Lagos, Nigeria. We specialize in Conveyancing of Land and Developed Property assisting clients in acquisition and disposal of real estate as...","rating":"","reviews":"","location":{"lat":"6.425321747696884","lng":"3.4206460415324536"},"category":"Real Estate","link":"https://www.businesslist.com.ng/company/262320/classic-attorneys","imageUrl":"https://www.businesslist.com.ng/img/ng/g/1539503590-78-classic-attorneys.jpg","phone":"08168504153","website":"www.classic-attorneys.com"},{"name":"Gracemade Homes and Property Company Limited","address":"Plot 384, Block 12, suite 3, Odua shopping complex(Opp Famad), New Garage, Ojota, Lagos., Lagos, Lagos","state":"Lagos","description":"Comprises of conceptualization, design, implementation and renovation of various residential,commercial or retail development plans. The development we conceptualize are driven by the desire to enrich...","rating":"","reviews":"","location":{"lat":"6.588587062638347","lng":"3.3806220476684556"},"category":"Real Estate","link":"https://www.businesslist.com.ng/company/267218/gracemade-homes-and-property-company-limited","imageUrl":"https://www.businesslist.com.ng/img/ng/k/1585238040-35-gracemade-homes-and-property-company-limited.jpg","phone":"+2348144124524+234812367769","website":"gracemadeproperties.com/"},{"name":"Bamah Nissi Multilinks Limited","address":"Suite I, 122/123 Ikota Shopping Complex, Road 5,, V.G.C, Lekki- Ajah,, Lagos, Lagos","state":"Lagos","description":"Bamah Nissi Multilinks Limited is an indigenous and versatile real estate development, investment and management solutions provider with a global focus. Our company is in the business of providing wor...","rating":"1.0","reviews":"1 Review","location":{"lat":"6.465756453280164","lng":"3.551861566820426"},"category":"Real Estate","link":"https://www.businesslist.com.ng/company/261848/bamah-nissi-multilinks-limited","imageUrl":"https://www.businesslist.com.ng/img/ng/e/1535100324-38-bamah-nissi-multilinks-limited.jpg","phone":"+234-01-4530866","website":"www.bamahnissi.co.uk/"},{"name":"MARKTIME GLOBAL HOMES LTD","address":"Apo District, Aba, Abuja","state":"Abuja","description":"MarkTime Global Homes is a Real Estate Developing firm and Realtors, we deal with Houses urban and Ruler development. We build,we sell, we buy and we lease. ","rating":"","reviews":"","location":{"lat":"9.079974651305445","lng":"7.401193530878345"},"category":"Real Estate","link":"https://www.businesslist.com.ng/company/261214/marktime-global-homes-ltd","imageUrl":"https://www.businesslist.com.ng/img/ng/d/1529403451-23-marktime-global-homes-ltd.jpg","phone":"08025441077","website":"Marktimehomes.com"},{"name":"Shadop International Properties","address":"22B LIGALI AYORINDE, Victoria Island, Lagos","state":"Lagos","description":"Our Company operates in Nigeria, Ghana, Dubai and USA we provide services and consultation ranging from planning, design, approvals, construction, renovation, sales, letting and property facility mana...","rating":"","reviews":"","location":{"lat":"6.425273733390637","lng":"3.441424009595721"},"category":"Real Estate","link":"https://www.businesslist.com.ng/company/262022/shadop-international-properties","imageUrl":"https://www.businesslist.com.ng/img/ng/r/1536755874-56-shadop-international-properties.jpg","phone":"+234-1-453-6554","website":"www.shadopproperties.com.ng"},{"name":"Cypress Leasing & Investment Limited","address":"Investment House, Third Floor, 21-25 Broad Street, Marina, Lagos, Lagos, Lagos","state":"Lagos","description":"CYPRESS LEASING AND INVESTMENT NIG. LTD is a leasing firm which specialises in leasing and short loans where companies and individuals that lack a significant asset base can purchase machinery, equipm...","rating":"","reviews":"","location":{"lat":"6.451976045123936","lng":"3.3906240016222"},"category":"Real Estate","link":"https://www.businesslist.com.ng/company/260963/cypress-leasinginvestment-limited","imageUrl":"https://www.businesslist.com.ng/img/ng/l/1527170129-50-cypress-leasing-investment-limited.jpg","phone":"01-4605403","website":"www.cypress-finance.com"},{"name":"GODWILL USELU INVESTMENT COMPANY LTD","address":"19 USELU LAGOS ROAD, Benin City, Edo","state":"Edo","description":"The company has increased in working capital and thereby increasingly meeting up with customers needs. Godwill uselu is planning to open more branches to facilitate operations and to reduce cost of op...","rating":"","reviews":"","location":{"lat":"6.356721041974401","lng":"5.6185030102508335"},"category":"Real Estate","link":"https://www.businesslist.com.ng/company/170693/godwill-uselu-investment-company","imageUrl":"https://www.businesslist.com.ng/img/ng/k/1334411030_70460.jpg","phone":"+2348023330337+393516666486","website":"godwilluseluinvest.com"},{"name":"Landhouse","address":"2B Oristse Street, Ikeja, Lagos","state":"Lagos","description":"Landhouse builds affordable, beautifully crafted, and unique apartment houses, and allows you to pay in installments for upto 36 months, so you can own your dream home and stop paying rents.","rating":"","reviews":"","location":{"lat":"6.601854207314686","lng":"3.345515480485119"},"category":"Real Estate","link":"https://www.businesslist.com.ng/company/262082/landhouse","imageUrl":"https://www.businesslist.com.ng/img/ng/k/1537362128-18-landhouse.jpg","phone":"08033925373","website":"www.landhouse.ng"},{"name":"Fow world properties","address":"Block 47, Flat 2, Bendel street, Area 2, FCT ABUJA, Abuja, Abuja","state":"Abuja","description":"Fow world properties and real estate development company is a reputable company offering services on Property Management, Real Estate Development, Sales and Services, Estate Valuers and Brokers, Advis...","rating":"","reviews":"","location":{"lat":"9.113561235517457","lng":"7.39202350717585"},"category":"Real Estate","link":"https://www.businesslist.com.ng/company/262288/fow-world-properties","imageUrl":"https://www.businesslist.com.ng/img/ng/f/1539258448-61-fow-world-properties.jpg","phone":"08178292250","website":"www.fowworldproperties.com"},{"name":"UGETPROPERTIES NIGERIA","address":"2 oba close area 2 garki 1 abuja, Abuja, Abuja","state":"Abuja","description":"UGETPROPERTIES is Nigeriaâ€™s most comprehensive and user-friendly REAL ESTATE MARKET-PLACE portal, fully registered with the Corporate Affairs Commission. We help our users find properties in their d...","rating":"","reviews":"","location":{"lat":"9.098600894744195","lng":"7.491960186024471"},"category":"Real Estate","link":"https://www.businesslist.com.ng/company/261755/ugetproperties-nigeria","imageUrl":"https://www.businesslist.com.ng/img/ng/l/1534239777-11-ugetproperties.jpg","phone":"+234 803 574 4037","website":"ugetproperties.com"},{"name":"Magnum Homes Property","address":"Owopetu Abayomi Awoaya KM 35 Lekki Epe Expressway Lagos , Lagos, Lagos","state":"Lagos","description":"Magnum homes property is a real estate consultancy company located in Lagos. At magnum homes we discover that shelter is a major necessity of humanity and we strive to partner with you to ensure a tru...","rating":"","reviews":"","location":{"lat":"6.5876201690891785","lng":"3.358168601989746"},"category":"Real Estate","link":"https://www.businesslist.com.ng/company/257549/magnum-homes-property","imageUrl":"https://www.businesslist.com.ng/img/ng/k/1523038783-83-magnum-homes-property.jpg","phone":"08032565849","website":""},{"name":"Forbes Hagares Global PROPERTIES Ltd","address":"3/9 Olu Koleosho Streeg Off Medical Road Ikeja , Ikeja, Lagos","state":"Lagos","description":"We Are A Real Estate/Property Solutions Firm. At Forbes Homes & Properties We Work Assiduously Daily To Put Smiles On Yoir Face On Your Property Asset Acquisition. This Is Because We Want To Make Sure...","rating":"","reviews":"","location":{"lat":"6.5921281999382435","lng":"3.3380529901363643"},"category":"Real Estate","link":"https://www.businesslist.com.ng/company/267127/forbes-hagares-global-properties-ltd","imageUrl":"https://www.businesslist.com.ng/img/ng/g/1584555021-26-forbes-hagares-global-properties-ltd.jpg","phone":"08027390046","website":"www.forbespropertiesng.com"},{"name":"Primex Planet Properties","address":"b304 Soar plaza, first avenue Gwarimpa FCT Abuja, Abuja, Abuja","state":"Abuja","description":"At Primexplanet Properties, we offer our expertise and personalized techniques of managing your property. Our management concept is founded on professionalism, integrity, accountability, and quality s...","rating":"","reviews":"","location":{"lat":"9.106694391785892","lng":"7.416565418243408"},"category":"Real Estate","link":"https://www.businesslist.com.ng/company/266820/primex-planet-properties","imageUrl":"https://www.businesslist.com.ng/img/ng/e/1582730507-43-primex-planet-properties.jpg","phone":"0703168141807019502207","website":"primexplanet.com.ng"},{"name":"Sunglad Property Management","address":"No. 1 Station Road, Opp NRC, Off Okpara Avenue, GRA, Enugu, Enugu","state":"Enugu","description":"Sunglad Property Management is a subsidiary of Sunglad Global Services Limited (RC. 469,112). We are into the business of Property Sales, Lease and Development; including Building and Management of In...","rating":"5.0","reviews":"1 Review","location":{"lat":"6.444730073463136","lng":"7.491666264959349"},"category":"Real Estate","link":"https://www.businesslist.com.ng/company/260585/sunglad-property-management","imageUrl":"https://www.businesslist.com.ng/img/ng/k/1534256515-79-sunglad-property-management.jpg","phone":"08037197695","website":""},{"name":"Freehold facilities management","address":"Facility office Goodluck Jonathan Estate Lagos, Lagos, Lagos","state":"Lagos","description":"Facilities Management, sales letting. Construction, valuations. THE COMPANY Freehold facilities management Ltd is registered in Nigeria as an engineering Company. We are into Road construction, Buildi...","rating":"","reviews":"","location":{"lat":"6.587513589080301","lng":"3.3617520332336426"},"category":"Real Estate","link":"https://www.businesslist.com.ng/company/258013/freehold-facilities-management","imageUrl":"https://www.businesslist.com.ng/img/ng/n/1494680877-33-freehold-facilities-management.jpg","phone":"08112993777","website":"Www.freeholdfacilitymanagement.com"},{"name":"ODINGA E PROPERTY LTD ","address":"4 tende avenue off aeroplane drive .Peter Odili r road, Port Harcourt, Rivers","state":"Rivers","description":"ODINGA E PROPERTY LTD IS REAL ESTATE MANAGEMENT COMPANY BASED IN PORT HARCOURT RIVERS STATE OF NIGERIA. DUELY REGISTERED WITH CAC CORPORATE AFFAIRS COMMISSION OF NIGERIA. WITH REGISTRATION NUMBER RC13...","rating":"","reviews":"","location":{"lat":"4.896292343652771","lng":"7.165623895758358"},"category":"Real Estate","link":"https://www.businesslist.com.ng/company/254676/odinga-e-property-ltd","imageUrl":"https://www.businesslist.com.ng/img/ng/b/1544048886-42-odinga-e-property.jpg","phone":"08032662547","website":""},{"name":"Frandom Real Estate & Property Management Nig Ltd ","address":"Victory plaza egbelu by udara junction port harcourt, Port Harcourt, Rivers","state":"Rivers","description":"Frandom Real Estate & Property Management Nig Ltd: Located At Victory Plaza Egbelu by Odara Junction Port Harcourt. We are pleased to announce to you today that we have beautiful properties within por...","rating":"","reviews":"","location":{"lat":"4.8460275643349195","lng":"6.952972412109375"},"category":"Real Estate","link":"https://www.businesslist.com.ng/company/255447/kevink-properties-associates-rivers-state-port-harcourt-nigeria-","imageUrl":"https://www.businesslist.com.ng/img/ng/b/1457159959-40-kevink-properties-associates-rivers-state-port-harcourt-nigeria.jpg","phone":"+2348137261694","website":"www.facebook.com/riverstateportharcourtproperties/"},{"name":"Mordencity Investment Ltd","address":"CT014 commissioner lodge way, GRA ilorin Kwara State , Ilorin, Kwara","state":"Kwara","description":"Morden City Investments Limited is a Nigerian based Real Estate and business company, with the headquarter in Ilorin, the capital of Kwara state. We specialize in the following services; Real Estate M...","rating":"","reviews":"","location":{"lat":"8.481254214479003","lng":"4.569687704332296"},"category":"Real Estate","link":"https://www.businesslist.com.ng/company/260175/mordencity-investment-ltd","imageUrl":"https://www.businesslist.com.ng/img/ng/d/1519584584-22-mordencity-investment-ltd.jpg","phone":"2348034307945+2348127021808","website":"www.mordencity.com"},{"name":"Neostruct bliss homes","address":"suite 155 farouk bahadad complex garki international market garki11, Abuja, Abuja","state":"Abuja","description":"neostruct bliss home is a branch of neostruct group and we are in the business of giving our client execellent services on the sales and renting out of houses,lands,duplexes,and building of houses to ...","rating":"","reviews":"","location":{"lat":"9.0765","lng":"7.3986"},"category":"Real Estate","link":"https://www.businesslist.com.ng/company/258790/neostruct-bliss-homes","imageUrl":"https://www.businesslist.com.ng/img/ng/k/1503313478-78-neostruct-bliss-homes.png","phone":"08172651595","website":"neostruct-bliss-homes.business.site/"},{"name":"PRAISE CITY GLOBAL SERVICES LIMITED","address":"Suite 114, Sunrise Industrial Complex, Galadima Bus Stop, Kubwa Express Way FCT Abuja ABUJA-GWARIMPA Federal Capital Territory, Abuja, Abuja","state":"Abuja","description":"WE represent Buyers and Sellers in the execution of real estate transactions involving fine, luxury properties while consistently upholding the highest ethical and professional standards of the real e...","rating":"","reviews":"","location":{"lat":"9.130023567471826","lng":"7.366204261779785"},"category":"Real Estate","link":"https://www.businesslist.com.ng/company/253272/praise-city-global-services-limited","imageUrl":"https://www.businesslist.com.ng/img/ng/c/1551898165-72-praise-city-global-services-limited.jpg","phone":"+2348080827009","website":""},{"name":"GOD'S GRACE MULTIPLEX INT'L LIMITED","address":"32 Omotayo Orisan Street, Agric, Ikorodu, Lagos | Property House, Ikorodu, Lagos","state":"Lagos","description":"We focused on providing a comprehensive services platform that encompasses development, management, leasing and marketing to numerous private and institutional property owners throughout Nigeria. Whet...","rating":"","reviews":"","location":{"lat":"6.62772573578749","lng":"3.4837174405395217"},"category":"Real Estate","link":"https://www.businesslist.com.ng/company/261316/gods-grace-multiplex-intl-limited","imageUrl":"https://www.businesslist.com.ng/img/ng/l/1530529141-15-god-s-grace-multiplex-int-l-limited.jpg","phone":"08076695516","website":"multiplexng.blogspot.com/"},{"name":"Cross and Churchill Group","address":"10 Amadasun Street, Behind SPG Plaza, Off KM 21 Lekki -Epe Expressway, Lagos, Lagos","state":"Lagos","description":"The Cross and Churchill Group principally comprising of Cross and Churchill Estates Limited (\"C & C Estates\") [RC No.776998] and Cross and Churchill Realtors Limited (\"C & C Realtors\") [RC No. 676542]...","rating":"","reviews":"","location":{"lat":"6.437170526583141","lng":"3.519970178604126"},"category":"Real Estate","link":"https://www.businesslist.com.ng/company/255189/cross-and-churchill-group","imageUrl":"https://www.businesslist.com.ng/img/ng/m/1452598236-32-cross-and-churchill-group.png","phone":"08092564444","website":"www.crossandchurchillgroup.com"}]