[{"name":"Deep-Delve Concepts","address":"Km 14, Lekki-Epe Express, Igbo-Efon, Lekki, Lagos., Lagos, Lagos","state":"Lagos","description":"Who we are Deep-Delve Concepts is an outsourcing firm conceptualized solely to handle your day-to-day activities. Bringing it right to your doorstep. Saddled with handling project development, managem...","rating":"4.7","reviews":"3 Reviews","location":{"lat":"6.460731220268038","lng":"3.60701322555542"},"category":"Real Estate","link":"https://www.businesslist.com.ng/company/190182/deep-delve-research-concepts","imageUrl":"https://www.businesslist.com.ng/img/ng/b/1510934594-97-deep-delve-research-concepts.png","phone":"+2347030880015","website":"www.deepdelve.wordpress.com"},{"name":"DessyDee Consortium","address":"10, Ohaeto Street, Behind Ecobank, D-Line, Port Harcourt, Rivers","state":"Rivers","description":"DessyDee Consortium is a full-service real estate and property management company, specializing in managing commercial & residential properties. We strive to provide exceptional customer service while...","rating":"5.0","reviews":"1 Review","location":{"lat":"4.799631","lng":"30512"},"category":"Real Estate","link":"https://www.businesslist.com.ng/company/264712/dessydee-consortium","imageUrl":"https://www.businesslist.com.ng/img/ng/a/1565176106-89-dessydee-consortium.jpg","phone":"+2349093236856","website":"www.dessydeeconsortium.com.ng"},{"name":"Trinitino Consult Nig Ltd (RC 1452745)","address":"42D Eligbolo Road,Rumudumaya,Port Harcourt,Rivers State,Nigeria., Port Harcourt, Rivers","state":"Rivers","description":"Civil works(high rise,basements,swimming pools of various types,piling,drainage,highway construction, buildings,geotechnical, seismic, reconstruction, demolition works etc Architectural designs(2D,3D,...","rating":"5.0","reviews":"2 Reviews","location":{"lat":"6.33908","lng":"5.62648"},"category":"Real Estate","link":"https://www.businesslist.com.ng/company/244111/trinitino-consult","imageUrl":"https://www.businesslist.com.ng/img/ng/n/1524211561_76547.jpg","phone":"08182782975","website":""},{"name":"LANSAR AGHAJI & CO. (Estate Surveyors & Valuers)","address":"Suite 23, God’s Own Plaza, No 4 Takum Close, Behind Unity house, Area 11, Abuja , Abuja, Abuja","state":"Abuja","description":"Lansar Aghaji & Co. Is a professional firm of Estate Surveyors and Valuers registered with The Nigerian Institution of Estate Surveyors and Valuers (NIESV). With 5 branches located at Abuja, Enugu, La...","rating":"5.0","reviews":"2 Reviews","location":{},"category":"Real Estate","link":"https://www.businesslist.com.ng/company/261826/lansar-aghajico-estate-surveyorsvaluers","imageUrl":"https://www.businesslist.com.ng/img/ng/b/1534776885-44-lansar-aghaji-co-estate-surveyors-valuers.jpg","phone":"+2348037082245","website":"www.lansaraghajiandco.com"},{"name":"Online Realtors Agent Enterprise","address":"42B, Ile Ogbo Street New Oko Oba, Lagos, Lagos","state":"Lagos","description":"Online Realtor Agent Enterprise is a Real Estate firm based in Lagos, Nigeria. We are focused on driving Sales and leads for prime real estate companies. ","rating":"4.5","reviews":"2 Reviews","location":{},"category":"Real Estate","link":"https://www.businesslist.com.ng/company/262818/online-realtors-agent-enterprise","imageUrl":"https://www.businesslist.com.ng/img/ng/e/1544804597-59-online-realtors-agent-enterprise.jpg","phone":"+2348149906156","website":""},{"name":"Imhoagene enterprises","address":"Mobolaji Johnson estate, Lekki phase1 Lagos,, Lagos, Lagos","state":"Lagos","description":"Imhoagene enterprises is a registered business enterprise. we are into services in real estate marketing, we provide you with lands,accommodations and duplexes in Vi,Lekki,Ajah, down to Ibeju Lekki ax...","rating":"4.0","reviews":"2 Reviews","location":{"lat":"6.430752603153079","lng":"3.4677654985994195"},"category":"Real Estate","link":"https://www.businesslist.com.ng/company/253504/imhoagene-enterprises","imageUrl":"https://www.businesslist.com.ng/img/ng/k/1566043124-97-imhoagene-enterprises.jpg","phone":"08186148370","website":"www.distributeinc.blogspot.com"},{"name":"BBS NIGERIA","address":"No 5, Admiralty Road, Lekki Phase 1, Lagos, Lagos Island, Lagos","state":"Lagos","description":"BBS NIGERIA was founded with clients’ satisfaction as its foundation. Our vision is to be the reliable solution services for businesses and individuals in Nigeria. Having always believed that we are...","rating":"5.0","reviews":"1 Review","location":{"lat":"6.439708","lng":"3.462463"},"category":"Real Estate","link":"https://www.businesslist.com.ng/company/255420/bbs-nieria","imageUrl":"https://www.businesslist.com.ng/img/ng/r/1568893939-45-bbs-nigeria.jpg","phone":"08124791998","website":"www.bbsnigeria.org"},{"name":"FUNDAY TECHNOLOGIES LIMITED","address":"19,Alhaja Sifawu street,Off Dopemu Road, Dopemu,Lagos, Lagos, Lagos","state":"Lagos","description":"Funday Track ​is one of the leading Automated Car Tracking company in Nigeria today introducing the latest technologies in the GPS-GPRS tracking system, CCTV, GPS navigation system etc. Our services...","rating":"5.0","reviews":"1 Review","location":{"lat":"6.617409093216439","lng":"3.314700722694397"},"category":"Real Estate","link":"https://www.businesslist.com.ng/company/253586/funday-technologies-limited","imageUrl":"https://www.businesslist.com.ng/img/ng/a/1459854335-19-funday-technologies-limited.jpg","phone":"08174698123","website":"www.fundaytechnologies.com"},{"name":"BLUEHEDGE REALTORS","address":"Km 35, Lekki-Epe Expressway, Lagos, Lagos, Lagos","state":"Lagos","description":"Bluehedge Realtors is your one-stop firm for your property dealings.","rating":"5.0","reviews":"2 Reviews","location":{},"category":"Real Estate","link":"https://www.businesslist.com.ng/company/190568/bluehedge-realtors","phone":"234-1-760514808023224585","website":"www.bluehedgerealtors.com"},{"name":"Must-Do Properties ","address":"Oak Building, County B/Stop, Ogba, Lagos, Lagos","state":"Lagos","description":"Real estate in all ramifications, including legal, finance, properties management, leasing, backward integrations, sales and development in Nigeria.","rating":"5.0","reviews":"3 Reviews","location":{"lat":"6.506868618824733","lng":"3.37705135345459"},"category":"Real Estate","link":"https://www.businesslist.com.ng/company/253384/must-do-properties","phone":"0812516076107093278261","website":""},{"name":"Giselle Homes Limited","address":"Plot 9,Block 113, Beaulah Land Plaza, 3rd Round About, Lekki Epe Expressway,Lekki phase 1 , Lagos, Lagos","state":"Lagos","description":"Giselle Homes LTD is a Real Estate Organisation that provides high level expertise in Real estate Services. Our Areas of specialization includes property Development, Sales and Services, Consulting & ...","rating":"5.0","reviews":"3 Reviews","location":{"lat":"6.382503662145008","lng":"3.605862121300902"},"category":"Real Estate","link":"https://www.businesslist.com.ng/company/265505/giselle-homes-limited","imageUrl":"https://www.businesslist.com.ng/img/ng/e/1588680105-82-giselle-homes-limited.jpg","phone":"+2348023102481","website":"www.gisellehomes.com"},{"name":"Success Tamuno & Partners","address":"Success Centre,Mile1 Police Park,PortHarcourt, Port Harcourt, Rivers","state":"Rivers","description":"CALL US TODAY +2348030971843 Our Mission To be a dependable partner, providing our clients best service delivery through efficient, realistic and cost effective professional services and creating supe...","rating":"5.0","reviews":"1 Review","location":{"lat":"4.7879474193187885","lng":"7.000583037980505"},"category":"Real Estate","link":"https://www.businesslist.com.ng/company/265911/success-tamunopartners","imageUrl":"https://www.businesslist.com.ng/img/ng/m/1574891472-49-success-tamuno-partners.jpg","phone":"08030971843","website":"success-tamuno-parners.business.site/"},{"name":"Success Property Managers","address":"3,Circular Road,Presidential Estate,PortHarcourt,Branch:Success Center,Mile1 Police Barracks ., Port Harcourt, Rivers","state":"Rivers","description":"Success Property Managers is Nigeria’s number one real estate and Property Company with property listings for sale, rent and lease. We offer Nigerian property seekers an easy way to find details of ...","rating":"5.0","reviews":"2 Reviews","location":{"lat":"4.829430730100338","lng":"7.003409797534232"},"category":"Real Estate","link":"https://www.businesslist.com.ng/company/262840/success-property-managers","imageUrl":"https://www.businesslist.com.ng/img/ng/j/1546828549-29-success-property-managers.png","phone":"08030971843","website":"/www.facebook.com/successpropertymanagers"},{"name":"Grandiose Homes and Investment Limited","address":"110, Ipaja road, Alimosho bus-stop, iyana-ipaja, Lagos, Lagos","state":"Lagos","description":"Grandiose Homes Ltd is established purposely to solve problems relating to real estate, investment and finance on a global scale with operational base in Nigeria. We have created very unique brands of...","rating":"5.0","reviews":"1 Review","location":{"lat":"6.601998909107596","lng":"3.2364418288943675"},"category":"Real Estate","link":"https://www.businesslist.com.ng/company/266234/grandiose-homes-and-investment-limited","imageUrl":"https://www.businesslist.com.ng/img/ng/c/1578265365-28-grandiose-homes-and-investment-limited.jpg","phone":"08090530155080599044520808567030108100133010","website":"www.grandiosegroupng.com"},{"name":"Oparah Realty","address":"No 16A, Sule Abuka Close off Opebi Road by GTBank, Ikeja, Lagos","state":"Lagos","description":"The team at Oparah Realty are more than real estate agents looking for real estate listings. We are a dedicated team of truly passionate, property professionals who understand our clients’ needs and...","rating":"4.0","reviews":"7 Reviews","location":{"lat":"6.603649804661631","lng":"3.349736158617816"},"category":"Real Estate","link":"https://www.businesslist.com.ng/company/263302/oparah-realty","imageUrl":"https://www.businesslist.com.ng/img/ng/e/1571935873-98-oparah-realty.png","phone":"+234 803 773 6973","website":"www.oparahrealty.com"},{"name":"Gracias Global Property Ltd","address":"KM46,Lekki Epe Expressway, Corner Bus-stop Sangotedo, Lagos Island, Lagos","state":"Lagos","description":"Gracias Global Property Limited, is a real estate firm which specialises in Property management, Construction and sales. Gracias Global Property Estates are located at renowned areas and they are know...","rating":"4.0","reviews":"1 Review","location":{"lat":"6.470667","lng":"3.638532"},"category":"Real Estate","link":"https://www.businesslist.com.ng/company/263637/gracias-global-property-ltd","imageUrl":"https://www.businesslist.com.ng/img/ng/m/1553969782-35-gracias-global-property-ltd.jpg","phone":"09062547002","website":"graciasglobalproperty.com/"},{"name":"Nekta Group","address":"Yinka Bello Street, Lekki Phase !, Lagos, Lagos","state":"Lagos","description":"Nekta is a consultancy and construction company, offering highly integrated services in Project management, Consultancy, Procurement & Construction, Property Services & Exterior Maintenance","rating":"5.0","reviews":"3 Reviews","location":{"lat":"6.4439009","lng":"3.475083600000062"},"category":"Real Estate","link":"https://www.businesslist.com.ng/company/197011/nekta-group","imageUrl":"https://www.businesslist.com.ng/img/ng/f/1393435129_38046.jpg","phone":"+2347046123111","website":"www.nektagroup.com"},{"name":"PAINT PLUS","address":" INTERNATIONAL AIRPORT ROAD LAGOS, Ikeja, Lagos","state":"Lagos","description":"1. Manufacturing of Paints.{Silk, POP, Texcoat, Flexcoat, Gloss, Emulsion, Marble trowel, Putty, Epoxy/Marine coatings, Gravitex, Cellulose enamel, Stoven enamel, Permoglazze, Tarolin, Varnish, Wood f...","rating":"4.0","reviews":"1 Review","location":{"lat":"6.5834862","lng":"3.3338689"},"category":"Real Estate","link":"https://www.businesslist.com.ng/company/190289/emissaries-empire","imageUrl":"https://www.businesslist.com.ng/img/ng/h/1491235191-39-paint-plus.png","phone":"07034884553","website":"www.emissariesempire.com"},{"name":"Porch Integrated Services Limited","address":"Adedoyin’s Place, 8A Abiola Bolaji Street, Praise Hill Estate, Arepo., Lagos, Ogun","state":"Ogun","description":"Porch integrated Services Ltd, is an indigenous real estate investment and portfolio Management Company, duly incorporated in the year 2012 under the Nigerian constitutional Act of 1975 with RC1051539...","rating":"4.0","reviews":"1 Review","location":{"lat":"6.700418119539127","lng":"3.41826659918479"},"category":"Real Estate","link":"https://www.businesslist.com.ng/company/243425/porch-integrated-services-limited","imageUrl":"https://www.businesslist.com.ng/img/ng/e/1524640197_87093.png","phone":"+2348026895535+2348099868604","website":"www.porchintegratedltd.com"},{"name":"Chazze Building Nigeria Limited","address":"12 E Admiralty way lekki lagos, Lagos Island, Lagos","state":"Lagos","description":"Chazze is a renowned name in real estate circles, was established in 2010 offering you comprehensive real estate solutions in Nigeria","rating":"5.0","reviews":"1 Review","location":{"lat":"6.4451953585941455","lng":"3.4626332705078084"},"category":"Real Estate","link":"https://www.businesslist.com.ng/company/258009/chazzebuilding-nigeria-limited","imageUrl":"https://www.businesslist.com.ng/img/ng/c/1494624625-83-chazzebuilding-nigeria-limited.jpg","phone":"+2347061647638","website":"www.chazzeproperty.com"},{"name":"Delson Aluminium Concepts","address":"1, Abundance avenue, Victory estate,off Idimu road, Ejigbo, Lagos","state":"Lagos","description":"Delson Aluminium Concepts is an organization that deals with all kinds of aluminium practice. We are an organization that deals with production and supply of Aluminium Systems & Glass. covering a wide...","rating":"5.0","reviews":"2 Reviews","location":{"lat":"6.5540864836780175","lng":"3.2979583740234375"},"category":"Real Estate","link":"https://www.businesslist.com.ng/company/196630/delson-aluminium-concepts","imageUrl":"https://www.businesslist.com.ng/img/ng/g/1398265023_51820.jpg","phone":"09037705058","website":"www.delconcepts.com"},{"name":"Riozpet Integrated Services","address":"23 Ahmed Olabode Street, Ikotun, Lagos., Lagos, Lagos","state":"Lagos","description":"Our services includes the following: *Supply of Lubricants Raw materials Such as: 1) Mineral Base Oils (Group-1 & 1+ (High VI products), Group-2, Group-3), Origin: Korea, USA, Europe, KSA. 2) Poly Alp...","rating":"5.0","reviews":"1 Review","location":{"lat":"6.531926516559276","lng":"3.2373404502868652"},"category":"Real Estate","link":"https://www.businesslist.com.ng/company/254134/henrios-international-company","imageUrl":"https://www.businesslist.com.ng/img/ng/e/1507915653-14-henrios-international-company.jpg","phone":"08089816201","website":""},{"name":"PropertyGuru Nigeria","address":"Lekki, Lagos, Lagos","state":"Lagos","description":"As your trusted advisor we provide you with relevant content and actionable insights to make a confident property decision PropertyGuru Nigeria is a top real estate consultancy firm partnering with to...","rating":"5.0","reviews":"1 Review","location":{"lat":"6.514103535249979","lng":"3.375772613769527"},"category":"Real Estate","link":"https://www.businesslist.com.ng/company/264547/propertyguru-nigeria","imageUrl":"https://www.businesslist.com.ng/img/ng/g/1583315155-96-propertyguru-nigeria.jpg","phone":"08066552986","website":"propertygurunigeria.com"},{"name":"Brit Property Nigeria Ltd","address":"Suite I106,Ikota Shopping Complex, Ajah, Lagos Island, Lagos","state":"Lagos","description":"Brit Property Nigeria Ltd RC1404978 is a property development company incorporated in Nigeria by Companies and Allied Matters Act 1990 and that the Company is limited by Shares. Our primary business i...","rating":"5.0","reviews":"1 Review","location":{"lat":"6.46493","lng":"3.557134"},"category":"Real Estate","link":"https://www.businesslist.com.ng/company/258918/brit-property-nigeria-ltd","imageUrl":"https://www.businesslist.com.ng/img/ng/k/1507824939-14-brit-property-nigeria-ltd.jpg","phone":"08077789898","website":"www.britpropertynigerialtd.com"},{"name":"Winners Properties (Nig) Ltd","address":"10 Danube Close Off Danube Street Maitama Abuja, Abuja, Abuja","state":"Abuja","description":"Winners Properties (Nig) Ltd is one of the leading commercial,residential property services group.We are registered company under the Companies and Allied Matters Act of 1990. The Groups affiliation w...","rating":"5.0","reviews":"2 Reviews","location":{"lat":"9.066485979696923","lng":"7.482013452317915"},"category":"Real Estate","link":"https://www.businesslist.com.ng/company/253685/winners-properties","imageUrl":"https://www.businesslist.com.ng/img/ng/j/1431175494-63-winners-properties-nig-ltd.jpg","phone":"+2348038390534+2348137196385","website":"www.winnerspropertiesng.com"},{"name":"LEVITICUS PROPERTIES","address":"block 19, flat 5 New diary Far Estate, AgegeI1aye Road Lagos, Lagos, Lagos","state":"Lagos","description":"Leviticus property, we offer professional and affordable services in the area as follow, Real estate, Development, Management And consultancy, to individuals and corporate organizations in Nigeria, we...","rating":"5.0","reviews":"1 Review","location":{"lat":"9.123717053427054","lng":"8.534621959259084"},"category":"Real Estate","link":"https://www.businesslist.com.ng/company/252927/leviticus-properties","imageUrl":"https://www.businesslist.com.ng/img/ng/h/1407698850_94532.jpg","phone":"08035113616","website":"www.facebook.com/LeviticusProperties"},{"name":"Aobatel links Nig Ltd.","address":"Road 3, ikota shopping complex, VGC,Ajah, Lagos , Lagos, Lagos","state":"Lagos","description":"The name of the Company (Aobatel Links Nig Ltd) was established on the 15th November, 2008 with a vision to becoming one of Nigeria’s foremost Limited company with a view to ultimately becoming a co...","rating":"4.0","reviews":"1 Review","location":{"lat":"6.456897788961931","lng":"3.6079789062569034"},"category":"Real Estate","link":"https://www.businesslist.com.ng/company/256395/aobatel-links-nig-ltd","imageUrl":"https://www.businesslist.com.ng/img/ng/d/1504604579-14-aobatel-links-nig-ltd.jpg","phone":"+234 8189278121","website":"www.aobatellinksnigltd.com"},{"name":"PRIMELOCATION NIGERIA","address":"9 MUFU LOGUNLEKO RD,PORO AGBAJE ESTATE,CELE B/STOP IJEDE RD IKORODU, Ikorodu, Lagos","state":"Lagos","description":"About us Welcome to www.primelocationestate.com. We have developed this site to provide highly competent professional consultancy services: in the fields of facility Management, property management, s...","rating":"5.0","reviews":"1 Review","location":{"lat":"70","lng":"0"},"category":"Real Estate","link":"https://www.businesslist.com.ng/company/196374/primelocation-nigeria","imageUrl":"https://www.businesslist.com.ng/img/ng/x/1586609392-54-primelocation-nigeria.jpg","phone":"09085086493","website":"wwww.primelocationestate.com"},{"name":"Taiwo Salam & Co. Properties LTD","address":"Asunle Bust-Stop beside Jike Plaza Bodija Ibadan, Ibadan, Oyo","state":"Oyo","description":"TAIWO SALAM AND CO. PROPERTIES LIMITED RC:1460722 is a surveyor and Land Agent Company registered in Nigeria under the companies and allied matters act with affiliates in Real Estate. We are pending a...","rating":"5.0","reviews":"1 Review","location":{"lat":"7.436285770373422","lng":"3.909789081201211"},"category":"Real Estate","link":"https://www.businesslist.com.ng/company/262854/taiwo-salamco-properties-ltd","imageUrl":"https://www.businesslist.com.ng/img/ng/l/1545266688-97-taiwo-salam-co-properties-ltd.png","phone":"08065558146","website":"www.taiwosalamandco.com"}]