[{"name":"MoveGround","address":"54 Aiyetoro Street, Ajah, Lekki Lagos, Lagos, Lagos","state":"Lagos","description":"MoveGround helps you to rent your next home efficiently, without charging you the 10% Agency Fee. We provide you with crucial information to assist in deciding the best apartment/office that suits you...","rating":"","reviews":"","location":{"lat":"6.464910197193314","lng":"3.5591626167297363"},"category":"Real Estate","link":"https://www.businesslist.com.ng/company/257433/moveground","imageUrl":"https://www.businesslist.com.ng/img/ng/c/1487926699-35-moveground.png","phone":"07081769083","website":"www.moveground.com"},{"name":"A-Cube Logistics Services Ltd","address":"8th Floor, Western House, 8/10, Broad Street,, Lagos, Lagos","state":"Lagos","description":"A-Cube Logistics & Services is a limited liability company incorporated in 2006 with RC 676572 under the Companies and Allied Matters Act of 1990 to provide real estate support services in Nigeria . A...","rating":"","reviews":"","location":{"lat":"6.448876","lng":"3.394343"},"category":"Real Estate","link":"https://www.businesslist.com.ng/company/259361/a-cube-logistics-services-ltd","imageUrl":"https://www.businesslist.com.ng/img/ng/z/1509963297-57-a-cube-logistics-services-ltd.png","phone":"012703910","website":"www.acubegroup.com.ng"},{"name":"Zafiro Homes and Events","address":"9 Faith street, Asaaju estate Odo Ona Elewe off Akala Express, Ibadan, Oyo","state":"Oyo","description":"We are one of the few real estate firms that handle our clients with utmost professionalism, deliver as promised and give the best all the time. A trial will surely convince you","rating":"","reviews":"","location":{"lat":"7.291684930896623","lng":"3.799871494818376"},"category":"Real Estate","link":"https://www.businesslist.com.ng/company/264610/zafiro-homes-and-events","phone":"08056241958","website":"zafirohomes.estateagentsng.com"},{"name":"CAPITALPLUS","address":"2nd Floor Ds Breakthrough Plaza Opp. Muslim Community Loongoma Lokoja , Lokoja, Kogi","state":"Kogi","description":"At CapitalPlus we focused on improving the lives of business by providing credit facility in any capacity. We focus on business expansion, contract execution, LPO Financing etc. Our track records over...","rating":"","reviews":"","location":{},"category":"Real Estate","link":"https://www.businesslist.com.ng/company/260519/capitalplus","imageUrl":"https://www.businesslist.com.ng/img/ng/e/1523163198-55-capitalplus.jpg","phone":"08095767928","website":"www.capitalplusgroupng.com"},{"name":"ExclusiveResults NIGERIA LTD","address":"70, Ayangburen Palace Road, Beside GTBank, Ikorodo, Ikorodu, Lagos","state":"Lagos","description":"exclusiveResults NIGERIA LTD (ERNL) is a business support and consultancy service company. It is uniquely positioned to give a socially, friendly and acceptable service with wealth of experience in th...","rating":"","reviews":"","location":{"lat":"6.613014548235117","lng":"3.506235260253905"},"category":"Real Estate","link":"https://www.businesslist.com.ng/company/266737/exclusiveresults-nigeria-ltd","imageUrl":"https://www.businesslist.com.ng/img/ng/h/1582194597-60-exclusiveresults-nigeria-ltd.png","phone":"08170333300","website":"exclusiveresultsltd.com"},{"name":"L&T Edenpark","address":"Phase 2, Near PSBB School, M R Radha Main Road,, Alagbado, Kebbi","state":"Kebbi","description":"Are you interested in buying ready to occupy apartments, villas, and premium flats in Chennai? Then Eden Park LT offers you apartments for sale in Siruseri, Chennai at lowest prices! L&T Eden Park als...","rating":"","reviews":"","location":{"lat":"12.83499","lng":"80.2026945"},"category":"Real Estate","link":"https://www.businesslist.com.ng/company/263079/lt-edenpark","imageUrl":"https://www.businesslist.com.ng/img/ng/j/1547919154-80-l-t-edenpark.jpg","phone":"8088048804","website":"edenpark.net/"},{"name":"Reallion Multiventures","address":"52, Ijaiye Road, Ogba, Ikeja, Lagos","state":"Lagos","description":"Reallion Multiventures provides professional domestic helps such as: experienced Cooks, Cleaners, Home Tutors, Gardeners, Gate guards, Drivers, Nannies, Baby sitters and house helps to homes and offic...","rating":"","reviews":"","location":{},"category":"Real Estate","link":"https://www.businesslist.com.ng/company/263165/reallion-multiventures","imageUrl":"https://www.businesslist.com.ng/img/ng/g/1554915815-44-reallion-multiventures.jpg","phone":"07019577875","website":"www.reallionmultiventures.com"},{"name":"Anrex limited","address":"No: 82 Peter ordili by Amadi ama around about, Port Harcourt, Rivers","state":"Rivers","description":"At Anrex our purpose is to empower people by making real estate investment and property simple, efficient and stress free. Whether you’re just beginning your real estate journey or have had years of...","rating":"","reviews":"","location":{"lat":"4.815618145783466","lng":"7.049844200000052"},"category":"Real Estate","link":"https://www.businesslist.com.ng/company/262672/anrex-limited","imageUrl":"https://www.businesslist.com.ng/img/ng/e/1543063820-64-anrex-limited.png","phone":"08036683700","website":"www.anrexgroup.com"},{"name":"Delvs Services","address":"1st Floor No 6 Azikiwe Road, Port Harcourt, Rivers","state":"Rivers","description":"Delvs Services is a multi faceted company that’s into Real Estate, Car Sales and Printing. We’ve been in operation since 2000 and have worked along side with various Top Estate Agencies","rating":"","reviews":"","location":{"lat":"4.7765522465650205","lng":"7.010791236743216"},"category":"Real Estate","link":"https://www.businesslist.com.ng/company/263537/delvs-services","imageUrl":"https://www.businesslist.com.ng/img/ng/e/1552878788-90-delvs-services.jpg","phone":"07039213542","website":"delvservices.com.ng"},{"name":"De-GraceLand Home Consults®️","address":"No 38 Willie Obiano Street New Friends Estate Obinagu Awka, Awka, Anambra","state":"Anambra","description":"De-GraceLand Homes Consults®️ RC- 3075508 The De-GraceLand Home Consults is a Commercial Real Estate Agency establishment in Awka - Anambra State, Registered with the Federal Republic of Nigeria's ...","rating":"","reviews":"","location":{},"category":"Real Estate","link":"https://www.businesslist.com.ng/company/267098/de-graceland-home-consults","imageUrl":"https://www.businesslist.com.ng/img/ng/c/1584441329-52-de-graceland-home-consults.jpg","phone":"08063394115","website":"gracelandhomes.business.site"},{"name":"Castles Lifestyle Magazine","address":"285A Corporation Drive, Dolphin Estate, Ikoyi, Lagos, Lagos","state":"Lagos","description":"Castles Nigeria’s Trusted Property Source Castles Lifestyle is Nigeria’s premier property magazine and has been published weekly since October 1999. It has become the trusted source for real estat...","rating":"","reviews":"","location":{"lat":"6.461506510784073","lng":"3.417765136798266"},"category":"Real Estate","link":"https://www.businesslist.com.ng/company/262219/castles-lifestyle-magazine","imageUrl":"https://www.businesslist.com.ng/img/ng/r/1538508189-20-castles-lifestyle-magazine.jpg","phone":"+234 (0)8025246401+234 (0)8096637428","website":"castles.com.ng"},{"name":"A-Cube Logistics Services Ltd","address":"8th Floor, Western House, 8/10, Broad Street,, Lagos Island, Lagos","state":"Lagos","description":"A-Cube Logistics & Services is a limited liability company incorporated in 2006 with RC 676572 under the Companies and Allied Matters Act of 1990 to provide real estate support services in Nigeria . A...","rating":"1.0","reviews":"1 Review","location":{"lat":"6.45372","lng":"3.389563"},"category":"Real Estate","link":"https://www.businesslist.com.ng/company/259250/a-cube-logistics-services-ltd","imageUrl":"https://www.businesslist.com.ng/img/ng/r/1508427950-71-a-cube-logistics-services-ltd.png","phone":"012703910","website":"www.acubegroup.com.ng"},{"name":"CONSTRUCT NIGERIA EXPO ABUJA 2020","address":"International Convention and Trade Fair Centre of Abuja Chamber of Commerce and Industry, Km8, Airport Road, Abuja., Abuja, Abuja","state":"Abuja","description":"CONSTRUCT NIGERIA EXPO – (Formerly ABUJA INVESTMENT EXPO) is organised by Shelter Aid Organisation (SAO) and Business Aid Group (BAG) in collaboration with Abuja Chamber of Commerce and Industry (AC...","rating":"","reviews":"","location":{"lat":"9.0431493","lng":"7.4921142"},"category":"Real Estate","link":"https://www.businesslist.com.ng/company/266378/construct-nigeria-expo-abuja-2020","imageUrl":"https://www.businesslist.com.ng/img/ng/k/1579316188-54-construct-nigeria-expo-abuja-2020.png","phone":"+2348095492959","website":"constructnigeriaexpo.com"},{"name":"Amassive Nigeria Limited","address":"30, Akintunde Street, Onike, Lagos Mainland, Lagos, Lagos","state":"Lagos","description":"The Amassive Construction and Realty Nigeria Limited, with office located in Onike, Sabo area of Lagos State is dedicated to providing commercial property management services across the State and Abuj...","rating":"","reviews":"","location":{"lat":"6.510508901336527","lng":"3.3869902789592743"},"category":"Real Estate","link":"https://www.businesslist.com.ng/company/244362/amassive-nigeria-limited","imageUrl":"https://www.businesslist.com.ng/img/ng/e/1440155127_55594.jpg","phone":"0809300844308024796064","website":"amassive.estateagentsng.com"},{"name":"Creating Landlords","address":"22A William Onoh Street, off Chevron Drive, Chevyview Estate, Lekki, Lagos Island, Lagos","state":"Lagos","description":"Presently, Nigeria has a population of over 180 million people. Apart from the need for feeding and clothing, there will always be need for shelter either for Residential or Commercial purposes. Inves...","rating":"","reviews":"","location":{"lat":"6.445052641995493","lng":"3.524343970930204"},"category":"Real Estate","link":"https://www.businesslist.com.ng/company/259744/creating-landlords","imageUrl":"https://www.businesslist.com.ng/img/ng/f/1514908738-95-creating-landlords.png","phone":"08033291297","website":"www.creatinglandlords.com/"},{"name":"Aimartinternational Nigeria Limited","address":"Pent House B, Adenekan Mega Plaza, Okota Road, Isolo, Lagos, Ikeja, Lagos","state":"Lagos","description":"Aimart International Nigeria Limited is a registered and reliable company that has its head office in Lagos. Aimart International has two arms of operation: Logistics and real Estate. Aimart Internati...","rating":"","reviews":"","location":{"lat":"6.637882026223371","lng":"3.356170700000007"},"category":"Real Estate","link":"https://www.businesslist.com.ng/company/257799/aimartinternational-nigeria-limited","imageUrl":"https://www.businesslist.com.ng/img/ng/e/1492096706-39-aimartinternational-nigeria-limited.png","phone":"08128079457","website":"www.aimartinternational.com"},{"name":"Favour Estate Mgt LTD","address":"C 36 Anambra Plaza, BBA Trade fair complex, along Badagry Express road Lagos , Lagos, Lagos","state":"Lagos","description":"Favour Estate Management Limited was founded for development of our environment in order to make accommodation available for people that need it The company is duly incorporated in Nigeria under Corpo...","rating":"","reviews":"","location":{},"category":"Real Estate","link":"https://www.businesslist.com.ng/company/259686/favour-estate-mgt-ltd","imageUrl":"https://www.businesslist.com.ng/img/ng/j/1513785379-56-favour-estate-mgt-ltd.jpg","phone":"0701661377709091629000","website":"www.favourestatemanagementltd.com"},{"name":"DuKAN George Limited","address":"Plot 110, Ogombo Road Ajah Lagos , Lagos, Lagos","state":"Lagos","description":"DuKAN George Limited is a servicing company with operations ranging from Real Estate, IT Solutions, Oil and Gas, Unconventioanl Resources, Hydro Resources and Specialised/Consultancy service. We opera...","rating":"","reviews":"","location":{"lat":"6.451649700000001","lng":"3.608359899999982"},"category":"Real Estate","link":"https://www.businesslist.com.ng/company/260599/dukan-george-limited","imageUrl":"https://www.businesslist.com.ng/img/ng/h/1523867578-74-dukan-george-limited.png","phone":"08050579321","website":"www.dukangroup.com"},{"name":"Zeada Global Investment","address":"39 castle rock avenue osapa Lekki lagos, Lagos, Lagos","state":"Lagos","description":"At Zeada Global Investment we are propelled with a passion of bringing taste with living. specialized in Properties Sale & Lease, Property Valuation, Sale of Luxury Art work, Interior and Exterior Fin...","rating":"","reviews":"","location":{"lat":"6.4698","lng":"3.5852"},"category":"Real Estate","link":"https://www.businesslist.com.ng/company/262125/zeada-global-investment","imageUrl":"https://www.businesslist.com.ng/img/ng/r/1537664390-37-zeada-global-investment.jpg","phone":"08032761591","website":"www.zeadaglobalinvestment.com/"},{"name":"Faonrealties Ltd","address":"173 Zik Avenue Street Uwani Enugu , Enugu, Enugu","state":"Enugu","description":"Foanrealties ltd is a real estate agents and property consultants in Enugu and in other major cities in Nigeria. We are here to help you get the desired property such as lands, building at the place o...","rating":"","reviews":"","location":{"lat":"6.425532736526911","lng":"7.490681393685903"},"category":"Real Estate","link":"https://www.businesslist.com.ng/company/267375/faonrealties-ltd","imageUrl":"https://www.businesslist.com.ng/img/ng/r/1586896188-81-faonrealties-ltd.jpg","phone":"08061338211","website":"www.foanrealties.com"},{"name":"Buy House","address":"3 George Street, off Second Avenue, Ikoyi., Lagos Island, Lagos","state":"Lagos","description":"We help people buy property, sell property, or rent a property. This could be single family homes, land, condos, or businesses.","rating":"","reviews":"","location":{"lat":"6.436325307096299","lng":"3.424867767578121"},"category":"Real Estate","link":"https://www.businesslist.com.ng/company/264300/buy-house","imageUrl":"https://www.businesslist.com.ng/img/ng/s/1561453675-28-buy-house.png","phone":"09013615974","website":"buyhouse.ng/northwind-court-ikoyi/"},{"name":"Zero616 Realty Ltd","address":"Suite H173/184, Road 3, Ikota shopping Complex, VGC-Ajah, Lagos, Lagos, Lagos","state":"Lagos","description":"Zero616 realty is Nigeria’s foremost family friendly estate developer and property management company built on excellence, xenial, transparency, reliability and accountability. We create communities...","rating":"","reviews":"","location":{"lat":"6.464907257266614","lng":"3.556553360064754"},"category":"Real Estate","link":"https://www.businesslist.com.ng/company/262156/zero616-realty-ltd","imageUrl":"https://www.businesslist.com.ng/img/ng/m/1537981102-55-zero616-realty-ltd.jpg","phone":"09086046628","website":"www.zero616.com"},{"name":"Bino Real Estate","address":"No. 10 Sule street Wera Estate Ikorodu, Lagos, Ikeja, Lagos","state":"Lagos","description":"At Bino real estate consult, we dont only get client but we give our client customer satisfaction service to always give them the best and also add value to the property they invest in, with the help ...","rating":"","reviews":"","location":{"lat":"6.616058","lng":"3.4977724999999964"},"category":"Real Estate","link":"https://www.businesslist.com.ng/company/258124/bino-real-estate","imageUrl":"https://www.businesslist.com.ng/img/ng/b/1495790781-44-bino-real-estate.jpg","phone":"+2348086428537","website":"binorealestateconsult.com/"},{"name":"Amazing Property Nigeria","address":"Ikotun egbe road, Ikeja, Lagos","state":"Lagos","description":"Commercial And Residential Real estate Agency. It is our commitment to ensure a smooth and a professional new home buying and selling experience for you .","rating":"","reviews":"","location":{"lat":"6.5478557577945224","lng":"3.2688865810632706"},"category":"Real Estate","link":"https://www.businesslist.com.ng/company/254594/victor-benson","imageUrl":"https://www.businesslist.com.ng/img/ng/m/1520718451-83-amazing-property-nigeria.png","phone":"08131389646","website":"www.amazingproperty.com.ng"},{"name":"Kings Court Realtors","address":"321, Akin Ogunlewwe Street, V/Island Annex, Victoria Island, Lagos, Lagos","state":"Lagos","description":"Kings Court Realtors is a sister company of Emeka Okoronkwo Associates, a professional firm of Estate Surveyors and valuers on the local and International Real Estate Market, with a mix of young and s...","rating":"","reviews":"","location":{"lat":"6.432274074398407","lng":"3.423151012500057"},"category":"Real Estate","link":"https://www.businesslist.com.ng/company/112420/kings-court-realtors","imageUrl":"https://www.businesslist.com.ng/img/ng/h/1457095395_15135.jpg","phone":"234 1 270578927149658763023(0)803 300 8013802 678 8718","website":"www.kingscourtrealtors.com"},{"name":"Kenrock Realtors and Property Ltd ","address":"28, Riliwan Street, Off Jerry Farm, Ikorodu, Lagos, Lagos","state":"Lagos","description":"Kenrock Realtors and Property is a real estate consult which make luxury home investment of lands and houses available. We are in business to make GENUINE lands and houses available to all in a most d...","rating":"","reviews":"","location":{},"category":"Real Estate","link":"https://www.businesslist.com.ng/company/263610/kenrock-realtors-and-property-ltd","imageUrl":"https://www.businesslist.com.ng/img/ng/g/1562771243-76-kenrock-realtors-and-property-ltd.jpg","phone":"08029628383","website":"kenrockrealtors.estateagentsng.com"},{"name":"Novarick Homes","address":"43b Emina Crescent, Off Toyin street Ikeja, 100128, Lagos, Lagos Island, Lagos","state":"Lagos","description":"Novarick Homes and Properties Limited is a real estate development company, dedicated to providing remarkable housing and investment solutions across the real estate spectrum. We pride ourselves with ...","rating":"","reviews":"","location":{"lat":"6.471804581517568","lng":"3.5889760439453084"},"category":"Real Estate","link":"https://www.businesslist.com.ng/company/264934/novarick-homes","imageUrl":"https://www.businesslist.com.ng/img/ng/b/1566896557-18-novarick-homes.jpg","phone":"08105140514","website":""},{"name":"Gongola Homes","address":" PURI MALL BUILDING km 25, Lekki Epe Expressway Opposite Lagos State University(LASU), Oko Ado, Ajah, Lagos State., Lagos Island, Lagos","state":"Lagos","description":"Gongola Homes LTD is a property marketing and information company located in Lekki, Lagos. We are into making home ownership dream a reality for all. We discover where affordable and fast developing l...","rating":"","reviews":"","location":{"lat":"6.439595807704783","lng":"3.430862485371904"},"category":"Real Estate","link":"https://www.businesslist.com.ng/company/262248/gongola-homes","imageUrl":"https://www.businesslist.com.ng/img/ng/n/1538782886-73-gongola-homes.png","phone":"08123162871","website":"gongolahomes.com"},{"name":"E-Housing.Biz Limited","address":"16 Karaye Street, Off Akintola Boulevard, Garki 2, Abuja - FCT , Abuja, Abuja","state":"Abuja","description":"E-Housing.Biz Limited is a real estate development and investment company. We buy, sell, develop and manage property. We are also into arbitrage as we advise and source for best real estate property f...","rating":"","reviews":"","location":{"lat":"9.023217615407138","lng":"7.4941011931671255"},"category":"Real Estate","link":"https://www.businesslist.com.ng/company/264707/e-housingbiz-limited","phone":"+2348038877166","website":"www.e-housing.biz"},{"name":"Real Estate Finder NG","address":"2/4 Medical, Road Off Computer Village, Ikeja Lagos, Ikeja, Lagos","state":"Lagos","description":"Real estate Finder is an online application and a platform that promotes real estate in the area of apartment or property location. So we take your real estate business to the world at large. We bring...","rating":"","reviews":"","location":{"lat":"6.592642903626817","lng":"3.338996171951294"},"category":"Real Estate","link":"https://www.businesslist.com.ng/company/257708/real-estate-finder-ng","imageUrl":"https://www.businesslist.com.ng/img/ng/f/1491204629-96-real-estate-finder-ng.png","phone":"08162704359","website":"www.realestatefinderng.com/"}]