[{"name":"New Beach Restaurant","address":"No.5 Bank Road, Plateau, Jos, Plateau","state":"Plateau","description":"The New Beach Restaurant is a place where the best continental dishes and cold drinks are served on the Plateau","rating":"","reviews":"","location":{},"category":"Restuarants","link":"https://www.businesslist.com.ng/company/169547/new-beach-restaurant","imageUrl":"https://www.businesslist.com.ng/img/ng/m/1447416746_38902.png","phone":"0803450379508034062282","website":"www.thenewbeachrestaurant.com"},{"name":"GmotyShop","address":"Block 277 Flat 2 Amuwo Odofin Estate Mile 2, Lagos, Lagos","state":"Lagos","description":"Gmoty Shop is an errand running service primarily serving the untapped corporate market in Lagos, Nigeria. The company is able to do almost any errand the clients need, providing fast and reliable del...","rating":"","reviews":"","location":{"lat":"9.070811209353964","lng":"8.723342185546926"},"category":"Restuarants","link":"https://www.businesslist.com.ng/company/190584/gmotyshop","imageUrl":"https://www.businesslist.com.ng/img/ng/x/1373662519_71026.jpg","phone":"","website":"www.gmotyshop.com"},{"name":"bridgegapmarket.com","address":"lagos, Lagos Island, Lagos","state":"Lagos","description":"Nigeria No.1 village market E commerce website, for your village market needs visit www.bridgegapmarket.com ... we are bringing market to your door step. ","rating":"","reviews":"","location":{},"category":"Restuarants","link":"https://www.businesslist.com.ng/company/258075/bridgegapmarketcom","imageUrl":"https://www.businesslist.com.ng/img/ng/k/1495188905-21-bridgegapmarket-com.jpg","phone":"08034991420","website":"www.bridgegapmarket.com"},{"name":"Runize Enterprise","address":"Mr Williams compound, Ebi festus close, otiotio yenegoa, Yenagoa, Bayelsa","state":"Bayelsa","description":"Runize Enterprise is an Bussiness solutions firm and service provider for resturants, fast food and event services.","rating":"","reviews":"","location":{},"category":"Restuarants","link":"https://www.businesslist.com.ng/company/264996/runize-enterprise","imageUrl":"https://www.businesslist.com.ng/img/ng/e/1567451337-66-runize-enterprise.jpg","phone":"+2348150704628","website":""},{"name":"HungryMan Nigeria","address":"Lokoja, Nigeria, Lokoja, Kogi","state":"Kogi","description":"Order Meals online from your favorite Restaurant and fast food Center and Get it Delivered to your door step. free delivery same price as in your favorite restaurant","rating":"","reviews":"","location":{},"category":"Restuarants","link":"https://www.businesslist.com.ng/company/258292/hungryman-nigeria","imageUrl":"https://www.businesslist.com.ng/img/ng/a/1497680566-57-hungryman-nigeria.png","phone":"08145467267","website":"hungryman.com.ng"},{"name":"KEN'S PLACE","address":"Edeghon Street, off Ihumudumu road {G1 ROAD}, Ekpoma, Edo","state":"Edo","description":"","rating":"","reviews":"","location":{"lat":"6.745162820197273","lng":"6.10889196395874"},"category":"Restuarants","link":"https://www.businesslist.com.ng/company/253318/kens-place","phone":"08149663759","website":""},{"name":"FWC INTERNATIONAL HOTEL NIG.LTD","address":"MCC ROAD/URATTA ,UMUNAHU, Owerri, Imo","state":"Imo","description":"A luxury hotel with comfort all the way from start to finish line.Exceptional services for every guests.15minutes drive from Wethdral junction by MCC road.","rating":"","reviews":"","location":{"lat":"4.61592588718742","lng":"7.792805280712628"},"category":"Restuarants","link":"https://www.businesslist.com.ng/company/265069/fwc-international-hotel-nigltd","phone":"0818096979007061526800","website":""},{"name":"Yum Yum","address":"125 Iju Road, Lagos, Lagos","state":"Lagos","description":"Yum Yum is a new and vibrant African Fast Food Restaurant along jiu road offeriing quality food and services. We also have a efficient delivery service.","rating":"","reviews":"","location":{},"category":"Restuarants","link":"https://www.businesslist.com.ng/company/261364/yum-yum","imageUrl":"https://www.businesslist.com.ng/img/ng/h/1530818771-43-yum-yum.jpg","phone":"08069472546","website":""},{"name":"Beeburger","address":"Ground floor, leisure mall, Adeniran Ogunsanya surulere , Lagos, Lagos","state":"Lagos","description":"BeesBurger is a take-out a restaurant that predominantly sells burgers, various types of shawarma, Grills, French fries soft drinks, breakfast items, and desserts. We are the Number 1 House of burger ...","rating":"","reviews":"","location":{},"category":"Restuarants","link":"https://www.businesslist.com.ng/company/262664/beeburger","imageUrl":"https://www.businesslist.com.ng/img/ng/s/1565305092-45-beeburger.jpg","phone":"08026735470","website":""},{"name":"Mamba Energy Drink","address":"Plot 24, Gate 2, Ladipo Oluwole Street, off Adeniyi Jones, Ikeja, Lagos","state":"Lagos","description":"Mamba energy drink is a premium tasting non-alcoholic beverage manufactured by Rebel Drinks (London) in the UK exclusively for Africa.","rating":"","reviews":"","location":{},"category":"Restuarants","link":"https://www.businesslist.com.ng/company/256637/mamba-energy-drink","imageUrl":"https://www.businesslist.com.ng/img/ng/j/1474568623-74-mamba-energy-drink.jpg","phone":"07026064458","website":"drinkmamba.com"},{"name":"Linton Host Hotels","address":"19 Banana Close, Off Lateef Salami Street, Ajao Estate, Lagos, Lagos","state":"Lagos","description":"Let Linton Host Hotel be your Lagos host and you will come to the conclusion that living away from home has never brought so much comfort and pleasure! As one of the latest additions to the luxury hot...","rating":"","reviews":"","location":{},"category":"Restuarants","link":"https://www.businesslist.com.ng/company/252693/linton-host-hotels","imageUrl":"https://www.businesslist.com.ng/img/ng/b/1401822741_22067.jpg","phone":"2348129989500","website":"www.lintonhost.com"},{"name":"Changs Takeout","address":"Shop 36d, Ikorodu Crescent, Dolphin Estate, Lagos, Lagos","state":"Lagos","description":" What is your definition of food? Is it something to feel your tummy? Is it something to give you energy? Is it something that makes you happy? Whatever your definition of food is, Chang's Kitchen coo...","rating":"","reviews":"","location":{},"category":"Restuarants","link":"https://www.businesslist.com.ng/company/256254/changs-takeout","phone":"07037716998","website":"changstakeout.com"},{"name":"Pizza Hut Ikeja City Mall","address":"Ikeja City Mall, Obafemi Awolowo Way, Ikeja, Lagos","state":"Lagos","description":"Pizza Hut Ikeja City Mall, located in Ikeja, Lagos, is a family friendly pizza restaurant. We have a wide range of delicious pizza for you to enjoy from the comfort of your home/office with our free d...","rating":"","reviews":"","location":{"lat":"6.614182120059927","lng":"3.3575775966728543"},"category":"Restuarants","link":"https://www.businesslist.com.ng/company/263401/pizza-hut-ikeja-city-mall","imageUrl":"https://www.businesslist.com.ng/img/ng/r/1551252693-58-pizza-hut-ikeja-city-mall.png","phone":"0809 020 3836","website":"www.pizzahutafrica.com/"},{"name":"FAVOURS STOMACH DELIGHT(De Mart)","address":"40 ORODU STREET,BOUNDARY,AJEGUNLE APAPA, Apapa, Lagos","state":"Lagos","description":"Favour's Stomach Delight(De Mart) is a place for quality and delicious home made food,meeting the needs of her customer in a conducive and neat environment. Home and office delivery,book-a-pot,caterin...","rating":"","reviews":"","location":{"lat":"6.45399855506576","lng":"3.3467593649818355"},"category":"Restuarants","link":"https://www.businesslist.com.ng/company/261945/favours-stomach-delightde-mart","phone":"0802676070608161236143","website":""}]