[{"name":"Chopcity Nig","address":"chopcity@gmail.com, Abuja, Abuja","state":"Abuja","description":"The best in small chops and Shawarma, For your Home or Office Delivery, including Outdoor services like weddings Parties ,Dinner parties, Church meetings/ programs, Naming parties (all kind of celebra...","rating":"","reviews":"","location":{"lat":"9.029278362255985","lng":"7.387851734806986"},"category":"Restuarants","link":"https://www.businesslist.com.ng/company/261980/chopcity-nig","imageUrl":"https://www.businesslist.com.ng/img/ng/a/1536318245-15-chopcity-nig.jpg","phone":"08137380029","website":""},{"name":"MEAT WORLD","address":"70c, Allen Avenue, Ikeja, Lagos, Lagos, Lagos","state":"Lagos","description":"","rating":"","reviews":"","location":{},"category":"Restuarants","link":"https://www.businesslist.com.ng/company/147099/meat-world","phone":"01-3422232","website":"www.MeatWorld.ng"},{"name":"Asters Lounge","address":"Express, yenezue gene, Yenagoa, Yenagoa, Bayelsa","state":"Bayelsa","description":"Asters Lounge is your a bar, lounge and restaurant. Its the best place to be for relaxation and comfort.","rating":"","reviews":"","location":{},"category":"Restuarants","link":"https://www.businesslist.com.ng/company/263000/asters-lounge","imageUrl":"https://www.businesslist.com.ng/img/ng/g/1547067584-67-asters-lounge.jpg","phone":"+234 802 663 3666","website":""},{"name":"Samantha's Bistro & Grill","address":"2 Webb Road, Off Kingsway Rd, Ikoyi, Lagos, Lagos","state":"Lagos","description":"","rating":"","reviews":"","location":{},"category":"Restuarants","link":"https://www.businesslist.com.ng/company/254507/samanthas-bistrogrill","phone":"","website":"www.getchefdish.com"},{"name":"Bigger Bite","address":"53 School Rd, Block 3, Stadium Shopping Complex , Umuahia, Abia","state":"Abia","description":"The home of 'home made' tasty shawarma and more. Our shawarma is the best you will get in umuahia without a doubt. We leave it to you to taste and confirm for yourself. thanks ","rating":"","reviews":"","location":{"lat":"-26.1691733","lng":"27.7109498"},"category":"Restuarants","link":"https://www.businesslist.com.ng/company/149783/bigger-bite","imageUrl":"https://www.businesslist.com.ng/img/ng/a/1330181775_32696.jpg","phone":"0803699542808034179478","website":""}]