[{"name":"Mama Ladi Fast Food Restaurant","address":"63, Eleshin Street, Obalende-Ikoyi, Lagos, Lagos, Lagos","state":"Lagos","description":"We are a small business unit committed to customer satisfaction and building relationship. For over 15 years, our business affords us the opportunity to serve humanity and do this in the best possible...","rating":"","reviews":"","location":{"lat":"6.44856721606162","lng":"3.413926362991333"},"category":"Restuarants","link":"https://www.businesslist.com.ng/company/255079/mama-ladi-fast-food-restaurant","imageUrl":"https://www.businesslist.com.ng/img/ng/d/1450402481-83-mama-ladi-fast-food-restaurant.png","phone":"09056877496","website":"www.mamaladifastfood.blogspot.com.ng/"},{"name":"Karma Hotel Ltd.","address":"17, Burma Road, Apapa, Lagos","state":"Lagos","description":"KARMA Hotel has a multi cuisine restaurant with the capacity of 90 seats with bar serving Indian, Chinese. Nigerian and Continental cuisine which highlights the hospitality arena in lagos.","rating":"","reviews":"","location":{"lat":"6.438225923501288","lng":"3.3700720291137714"},"category":"Restuarants","link":"https://www.businesslist.com.ng/company/170715/karma-hotel-ltd","imageUrl":"https://www.businesslist.com.ng/img/ng/r/1362400022_64780.jpg","phone":"+234 1 2770235","website":"karma-hotel.wix.com/karma"},{"name":"Bristol Palace Hotel","address":"54 Guda Abdullahi Street, Farm Center, Nassarawa, Kano, Kano","state":"Kano","description":"Have a getaway that’s in Kano, 5-Stars Luxury, so far from the usual, which is the product of over 18 years experience in the Hospitality industry, The Bristol Palace Hotel. Bristol Palace is an est...","rating":"","reviews":"","location":{"lat":"11.971985711696302","lng":"8.548595416207945"},"category":"Restuarants","link":"https://www.businesslist.com.ng/company/257745/bristol-palace-hotel","imageUrl":"https://www.businesslist.com.ng/img/ng/f/1491574283-90-bristol-palace-hotel.png","phone":"+2348111353535","website":"www.bristolpalacehotel.com"},{"name":"House of Suya","address":"KM 14 Lekki-Ajak Expressway (Near Lekki County Homes Estate), Lagos Island, Lagos","state":"Lagos","description":"House of Suya International is the best Suya establishment on the Lagos Island, which offers Chicken, Beef and Ram Suya, Beef and Ram Kebabs, Grilled Catfish and Croaker Fish, as well as Habib Yoghurt...","rating":"","reviews":"","location":{"lat":"6.448800424409864","lng":"3.5499271005392075"},"category":"Restuarants","link":"https://www.businesslist.com.ng/company/257373/house-of-suya","imageUrl":"https://www.businesslist.com.ng/img/ng/e/1487242485-42-house-of-suya.jpg","phone":"+2347063462268","website":""},{"name":"Pentagram Entertainment Co. Ltd","address":"15, First Avenue, Festac town , Lagos, Lagos","state":"Lagos","description":"The Pentagram is a hospitality company situated in the heart of festac. It has a very unique and serene ambiance.","rating":"","reviews":"","location":{"lat":"6.469487","lng":"3.296154"},"category":"Restuarants","link":"https://www.businesslist.com.ng/company/265095/pentagram-entertainment-co-ltd","imageUrl":"https://www.businesslist.com.ng/img/ng/k/1583277891-61-pentagram-entertainment-co-ltd.jpg","phone":"09038000939","website":"www.pentagram.com.ng"},{"name":"Existence-ok","address":"1 Sakete Close, off Cairo Street, Wuse 2, Abuja, Abuja","state":"Abuja","description":"Existence-ok is an Acupuncture, Website Design, Metaphysics business firm that caters for patients and customers. We started in 1987 as a printing business. Then upgraded to add other disciplines as t...","rating":"","reviews":"","location":{"lat":"9.22523263306301","lng":"7.218586209898947"},"category":"Restuarants","link":"https://www.businesslist.com.ng/company/260283/existence-ok","imageUrl":"https://www.businesslist.com.ng/img/ng/a/1582934227-40-existence-ok.jpg","phone":"+2348057326941","website":"www.existence-ok.com"},{"name":"C'zars Lounge and Restaurant","address":"22 Kusenla Street By Conoil Filling Station Off Lekki-Epe Expressway,Ikate,Lekki,Lagos, Lagos Island, Lagos","state":"Lagos","description":"Czars Lounge and Restaurant.We are hospitality based in Ikate area of Lekki. We deal with Bar,Grill,Restaurant,Dance club,Karaoke,Snooker,Eat In and Take away. Come lounge with us weeks days. Breakfas...","rating":"","reviews":"","location":{"lat":"6.4385778023713955","lng":"3.490884304046631"},"category":"Restuarants","link":"https://www.businesslist.com.ng/company/266258/czars-lounge-and-restaurant","imageUrl":"https://www.businesslist.com.ng/img/ng/h/1578422270-21-c-zars-lounge-and-restaurant.jpg","phone":"08174428799","website":""},{"name":"eetsumore restaurant and bakery","address":"307, The Kings, Ahmadu Bello Way, adjacent NAF Conference Center, Kado Kuchi, Abuja, Abuja","state":"Abuja","description":"Eetsumore Restaurant & Bakery is wholly Nigerian. It is conceived to introduce a new vista to the hospitality industry in Nigeria as it is involved in the now traditional fast food service as well as ...","rating":"","reviews":"","location":{"lat":"9.089205338906973","lng":"7.422804236412048"},"category":"Restuarants","link":"https://www.businesslist.com.ng/company/190524/eetsumore-restaurant-and-bakery","imageUrl":"https://www.businesslist.com.ng/img/ng/n/1433893280-54-eetsumore-restaurant-and-bakery.jpg","phone":"092914454","website":"twitter.com/eetsumore/media"},{"name":"Celia's Suites","address":"No 1 Wole Soyinka Road, Ibara GRA, Abeokuta, Ogun","state":"Ogun","description":"For guests who value peace and quiet and a relaxing atmosphere to unwind after a busy day, Celia’s Suites is for you. Simple in its modern & innovative design, Celia’s Suites welcomes you to exper...","rating":"","reviews":"","location":{"lat":"7.1286","lng":"3.3416"},"category":"Restuarants","link":"https://www.businesslist.com.ng/company/264519/celias-suites","imageUrl":"https://www.businesslist.com.ng/img/ng/s/1563380248-29-celia-s-suites.jpg","phone":"08099913500","website":"www.celiasuites.com"},{"name":"Titanic Ocean View Hotel","address":"76 Marwa Road, Satellite Town, Ijegun Waterside, Badagry, Lagos","state":"Lagos","description":"We are preferred destination of choice offering professional, personalised, flexible hospitality and service to the discerning business and leisure market. ","rating":"","reviews":"","location":{"lat":"6.435400765132336","lng":"3.259270191192627"},"category":"Restuarants","link":"https://www.businesslist.com.ng/company/265706/titanic-ocean-view-hotel","imageUrl":"https://www.businesslist.com.ng/img/ng/j/1573322731-72-titanic-ocean-view-hotel.jpg","phone":"09090893459","website":""},{"name":"Buffalo Lounge","address":"Baale Way, Adetokun Junction, Ologuneru Road, Ibadan, Ibadan, Oyo","state":"Oyo","description":"Buffalo lounge is a bar/lounge strategically located away from centre of the Ibadan city to bring entertainment/ recreation to the door steps of people who often want to dissociate themselves from the...","rating":"","reviews":"","location":{"lat":"7.416601807423135","lng":"3.8542914390563965"},"category":"Restuarants","link":"https://www.businesslist.com.ng/company/253294/buffalo-lounge","imageUrl":"https://www.businesslist.com.ng/img/ng/h/1416057416-buffalo-lounge.jpg","phone":"","website":"www.thebuffaloentertainment.com"},{"name":"LadyFrank's bar","address":"4 & 5 Ohuru road, Umuohia, Aba, Abia","state":"Abia","description":"LadyFrank's Bar is a place wholly made for her honoured customers. Located in a peaceful environment with the bliss of nature, we offer our customers delicious meals and good drinks with excellent cus...","rating":"","reviews":"","location":{"lat":"5.269965055560173","lng":"7.476725918377156"},"category":"Restuarants","link":"https://www.businesslist.com.ng/company/264948/ladyfranks-bar","imageUrl":"https://www.businesslist.com.ng/img/ng/d/1566950922-69-ladyfrank-s-bar.jpg","phone":"07030161494","website":"ugofrank-restaurant-and-beer-palour.business.site/"},{"name":"Highcrest Astro Project Limited","address":"190 Aba Road, Rumuola Junction, Port Harcourt, Port Harcourt, Rivers","state":"Rivers","description":"We are operators in the weighing Scales/equipment segment of the industrial sector. Our products include, weighbridges, weighbridge software, heavy duty Platform Scales, Bench Scales, Laboratory Scale...","rating":"","reviews":"","location":{"lat":"4.8323921689808955","lng":"7.004744441232901"},"category":"Restuarants","link":"https://www.businesslist.com.ng/company/255536/highcrest-astro-project-limited","imageUrl":"https://www.businesslist.com.ng/img/ng/z/1458774681-94-highcrest-astro-project-limited.jpg","phone":"+2348123263662","website":""},{"name":"Scotch Bonnet Restaurant","address":"Plot 1713B Chartered Bank Close 101001 Victoria Island, Victoria Island, Lagos","state":"Lagos","description":"Scotch Bonnet Restaurant located at Plot 1713B Chartered Bank Close, off Idejo Street by Stanbic IBTC Bank, Victoria Island, Lagos State. We are a leading hospitality brand, offering African, Continen...","rating":"","reviews":"","location":{"lat":"6.429577700041385","lng":"3.4127408266067505"},"category":"Restuarants","link":"https://www.businesslist.com.ng/company/265448/scotch-bonnet-restaurant","imageUrl":"https://www.businesslist.com.ng/img/ng/l/1571121569-31-scotch-bonnet-restaurant.jpg","phone":"0907 000 0504","website":"www.scotchbonnet.com.ng"},{"name":"Astro Vera Global Limited","address":"190 Aba Road, Rumuola Junction, Port Harcourt, Rivers","state":"Rivers","description":"We are operators in the weighing Scales/equipment segment of the industrial sector. Our products include, weighbridges, weighbridge software, heavy duty Platform Scales, Bench Scales, Laboratory Scale...","rating":"","reviews":"","location":{"lat":"4.832245224602631","lng":"7.004726709158831"},"category":"Restuarants","link":"https://www.businesslist.com.ng/company/264141/astro-vera-global-limited","imageUrl":"https://www.businesslist.com.ng/img/ng/c/1585941853-86-astro-vera-global-limited.jpg","phone":"+2348123263662","website":""},{"name":"Table Ng","address":"244A Ikorodu crescent. Dolphin estate,Ikoyi, Lagos, Lagos","state":"Lagos","description":"Table.ng is an end-to-end restaurant research and booking service. We help you find the perfect restaurant for your requirements by providing information about the best quality restaurants. From pictu...","rating":"","reviews":"","location":{"lat":"6.524379","lng":"3.379206"},"category":"Restuarants","link":"https://www.businesslist.com.ng/company/262152/table-ng","imageUrl":"https://www.businesslist.com.ng/img/ng/b/1537945490-30-table-ng.png","phone":"08141842903","website":"table.ng/"},{"name":"O-Nat Foods","address":"813, 9th Avenue. 91 Road. FESTAC, PPhase II. Abule Ado. Lagos, Ikeja, Lagos","state":"Lagos","description":"O-Nat Food is an online market hub for buyers and sellers of wholesome food products. Our product list avail varieties to meet our customer's needs. They include organic food produce, nutraceuticals, ...","rating":"","reviews":"","location":{"lat":"6.601965892311313","lng":"3.3512502656067227"},"category":"Restuarants","link":"https://www.businesslist.com.ng/company/261960/o-nat-foods","imageUrl":"https://www.businesslist.com.ng/img/ng/m/1536223653-49-o-nat-foods.png","phone":"08161360046","website":"www.onat.com.ng"},{"name":"Bridals,Cakes,Smallchops,Catering by Vivica","address":"42 Onitsha Crescent, Area 11, Garki, FCT, Abuja, Abuja, Abuja","state":"Abuja","description":"We do various sizes of Yummy Cakes for all Occasions. We make delicious Smallchops (finger-foods) and Amazing Pastries, Smoothies and Fresh juice. Indoor and outdoor catering. We also offer Event Deco...","rating":"","reviews":"","location":{"lat":"9.043559009050037","lng":"7.516968433238276"},"category":"Restuarants","link":"https://www.businesslist.com.ng/company/260514/bridalscakessmallchopscatering-by-vivica","imageUrl":"https://www.businesslist.com.ng/img/ng/m/1523047715-51-bridals-cakes-smallchops-catering-by-vivica.png","phone":"08181070136","website":""},{"name":" BONSAI RESTAURANT","address":"Plot 1303 Akin Adesola Street, Victoria Island, Lagos","state":"Lagos","description":"A refined and sophisticated cuisine offering amazing sushi, sashimi, salads, hot plates and scrumptious desserts in an exquisite and modern environment.","rating":"","reviews":"","location":{"lat":"6.42627466848759","lng":"3.4242475032806396"},"category":"Restuarants","link":"https://www.businesslist.com.ng/company/146872/bonsai-restaurant","imageUrl":"https://www.businesslist.com.ng/img/ng/b/1460111376_55247.jpg","phone":"+2341 792 0157","website":"www.bonzai-restaurant.com"},{"name":"Protea Hotel Victoria Island","address":"Protea Hotel Victoria Island, Violet Yough Close, off Adetokunbo Ademola, Victoria Island, Lagos, Lagos","state":"Lagos","description":"Protea Hotel Victoria Island, by BON Hotels, is conveniently located in the heart of the business district and offers arguably the finest accommodation in downtown Lagos. Perfectly situated in secure ...","rating":"","reviews":"","location":{"lat":"6.430304670617182","lng":"3.4295153617858887"},"category":"Restuarants","link":"https://www.businesslist.com.ng/company/258874/protea-hotel-victoria-island","imageUrl":"https://www.businesslist.com.ng/img/ng/c/1504094223-55-protea-hotel-victoria-island.jpg","phone":"014485693","website":"www.bonhotels.com/protea-hotel-victoria-island"},{"name":"Bamboo Kitchen & Grill","address":"No. 7 Rhine Street, off Ibrahim Babangida Boulevard Maitama, Abuja, Abuja","state":"Abuja","description":"A restaurant in the swanky area of Maitama with a taste of Nigerian street food we can plan and help host your birthday parties, bridal showers, corporate meetings, work do and all events ","rating":"","reviews":"","location":{"lat":"9.104059885550326","lng":"7.488945499062538"},"category":"Restuarants","link":"https://www.businesslist.com.ng/company/258966/bamboo-kitchengrill","imageUrl":"https://www.businesslist.com.ng/img/ng/e/1505327004-50-bamboo-kitchen-grill.jpg","phone":"08077433636","website":""},{"name":"Da Chimney Restaurant & Bar","address":"2 Aminu Kano Crescent, Abuja, Abuja","state":"Abuja","description":"Da Chimney is an exquisite Indian restaurant in Abuja. It's Abuja's newest and only 24-hour non-hotel restaurant which serves gourmet dishes from culinary experts imported from around the globe. We ha...","rating":"","reviews":"","location":{"lat":"9.073672609303477","lng":"7.470585107803345"},"category":"Restuarants","link":"https://www.businesslist.com.ng/company/253462/da-chimney-restaurantbar","imageUrl":"https://www.businesslist.com.ng/img/ng/e/1420017223-da-chimney-restaurant-bar.jpg","phone":"08050779933","website":"www.dachimney.com"},{"name":"Shaunz Nigeria Limited","address":"27 Sanusi Fafunwa, Victoria Island, Lagos., Lagos, Lagos","state":"Lagos","description":"Shaunz bar and Lounge is one of the top destination in Lagos for Karaoke + Live Band + Events + Video Games and Club Nites. They offer you a venue to relax and have fun with your friends after work. Y...","rating":"","reviews":"","location":{"lat":"6.431200222308285","lng":"3.4275734424591064"},"category":"Restuarants","link":"https://www.businesslist.com.ng/company/254817/shaunz-barlounge","imageUrl":"https://www.businesslist.com.ng/img/ng/s/1445694697-45-shaunz-bar-lounge.jpg","phone":"08038077536","website":"www.shaunzbar.co.uk"},{"name":"Halal Meat Resto Cafe","address":"47 Hospital Road, Nassarawa, Shop C04, Kano, Kano","state":"Kano","description":"A beautiful way to relax, get your excellent quality food at Halal Meat Resto Cafe. Well known fo its quality halal food , Halal meats brings a new addition to its collection, Halal meat resto cafe, w...","rating":"","reviews":"","location":{"lat":"12.001533143141522","lng":"8.544659614562988"},"category":"Restuarants","link":"https://www.businesslist.com.ng/company/257998/halal-meat-resto-cafe","imageUrl":"https://www.businesslist.com.ng/img/ng/s/1495612036-89-halal-meat-resto-cafe.jpg","phone":"08099402999","website":""},{"name":"Dixie Suites","address":"12 Ayinde Akinmade Rd, Lekki Phase 1, Lagos, Lagos","state":"Lagos","description":"Welcome to Dixie Suites. Your alternative to a 5* hotel in the heart of Lagos. Dixie Suites is a luxury guesthouse that offers private and spacious accommodation in Lekki Phase 1. We offer tastefully ...","rating":"","reviews":"","location":{"lat":"6.443503236905336","lng":"3.4810030460357666"},"category":"Restuarants","link":"https://www.businesslist.com.ng/company/254332/dixie-suites","imageUrl":"https://www.businesslist.com.ng/img/ng/d/1437486526-94-dixie-suites.jpg","phone":"+2347004634943","website":"dixiesuites.com.ng/"},{"name":"Curzon & Jones","address":"191 B, Victoria Island, Lagos","state":"Lagos","description":"Curzon & Jones is a Hospitality and Business Consulting Company based in Nigeria. Our team is made up of millennials who understand the importance of the digital space to emerging and established busi...","rating":"","reviews":"","location":{"lat":"6.426477712400276","lng":"3.439078351187163"},"category":"Restuarants","link":"https://www.businesslist.com.ng/company/261391/curzonjones","imageUrl":"https://www.businesslist.com.ng/img/ng/j/1531126288-36-curzon-jones.png","phone":"08027400844","website":"www.curzonandjones.com/"},{"name":"Phadsly Grills","address":"179 Okporo road, , Port Harcourt, Rivers","state":"Rivers","description":"We offer quality services in barbecue and grills, we are the best you can ever get in Port Harcourt. You can never get barbecue and grilling services better elsewhere. ","rating":"5.0","reviews":"1 Review","location":{},"category":"Restuarants","link":"https://www.businesslist.com.ng/company/262361/phadsly-grills","imageUrl":"https://www.businesslist.com.ng/img/ng/b/1540244555-99-phadsly-grills.jpg","phone":"09020002888","website":""},{"name":"Chillas Garden & Hotels","address":"7, Pastor Olusola Street, Agric Road, Igando, Lagos - Nigeria., Lagos, Lagos","state":"Lagos","description":"Chillas Garden & Hotels, an elegant hotel located in Igando-Lagos Nigeria, is a citadel of comfort & hospitality – a lovely destination with outstanding facilities which includes the following: A co...","rating":"","reviews":"","location":{"lat":"6.60069","lng":"3.253013"},"category":"Restuarants","link":"https://www.businesslist.com.ng/company/257783/chillas-gardenhotels","imageUrl":"https://www.businesslist.com.ng/img/ng/k/1491940264-49-chillas-garden-hotels.jpg","phone":"(+234) 09069697829","website":"www.chillasgarden.com"},{"name":"West Eleven Luxury","address":"8 Akanbi Danmole street, off Ribadu road, South-West Ikoyi, Lagos, Lagos","state":"Lagos","description":"West Eleven Luxury is a budget guest house whose vantage position gives it the unique benefit of being able to offer guests the twin advantage of serene and tranquil atmosphere in addition to its prox...","rating":"","reviews":"","location":{"lat":"6.444","lng":"3.4188"},"category":"Restuarants","link":"https://www.businesslist.com.ng/company/259089/west-eleven-luxury","imageUrl":"https://www.businesslist.com.ng/img/ng/k/1506523131-69-west-eleven-luxury.jpg","phone":"09093841271","website":"www.westelevenluxury.com"}]