[{"name":"ROYALTY LOUNGE AND SUITE","address":"9, Alhaja Kofoworola Crescent, Ikeja, Lagos (by Lagoon Hospital), Ikeja, Lagos","state":"Lagos","description":"Royalty lounge is located at 9, Alhaja Kofoworola Crescent, Ikeja, Lagos (by Lagoon Hospital). Unpretentiously luxurious providing quality services to customers","rating":"","reviews":"","location":{"lat":"6.5800102989341","lng":"3.353276252746582"},"category":"Restuarants","link":"https://www.businesslist.com.ng/company/257261/royalty-lounge-and-suite","imageUrl":"https://www.businesslist.com.ng/img/ng/c/1485572936-59-royalty-lounge-and-suite.jpg","phone":"07039766740","website":"www.unveilingroyalty.com.ng"},{"name":"Chopnownow","address":"14b Adeola Hopewell, Victoria Island, Victoria Island, Lagos","state":"Lagos","description":"Chopnownow is the new quick-service restaurant in Victoria Island serving great-tasting Nigerian cuisines at pocket-friendly prices. Select from our sumptuous menu of African and Continental dishes an...","rating":"","reviews":"","location":{"lat":"6.433337","lng":"3.42927"},"category":"Restuarants","link":"https://www.businesslist.com.ng/company/266915/chopnownow","imageUrl":"https://www.businesslist.com.ng/img/ng/n/1583325676-68-chopnownow.jpg","phone":"0907 462 8387","website":"www.chopnownow.com"},{"name":"iJFoods & Delivery","address":"49, Mobalufon b/stop, Ejirin Road, Ijebu Ode, Ogun State, Ijebu-Ode, Ogun","state":"Ogun","description":"IJ FOODS is the first widely known online food delivery system in the whole of IJEBU ODE, Ogun State. Our aim is to provide quality food of consumer’s choice at their doorstep with a convenient meth...","rating":"","reviews":"","location":{"lat":"8.673250024113333","lng":"7.659987472322767"},"category":"Restuarants","link":"https://www.businesslist.com.ng/company/267576/ijfoodsdelivery","imageUrl":"https://www.businesslist.com.ng/img/ng/x/1588687840-12-ijfoods-delivery.jpg","phone":"+2348024116252","website":"ijdelivery.com"},{"name":"ISUS GRILLZ","address":"Plot C49 Achi str Independence Layout Enugu, Enugu, Enugu","state":"Enugu","description":"ISUS GRILLZ is a division of ISUS fisheries ltd that aims to satisfy it's clients with the finest fresh catfish grillz at a cheap and affordable price in a cool and serene environment.","rating":"","reviews":"","location":{"lat":"6.441349697816773","lng":"7.528038024902344"},"category":"Restuarants","link":"https://www.businesslist.com.ng/company/259499/isus-grillz","imageUrl":"https://www.businesslist.com.ng/img/ng/e/1511594939-34-isus-grillz.jpg","phone":"08023192524","website":""},{"name":"Fraser Suites Abuja","address":"Plot 294, Leventis Close, Central Business District, Abuja, Abuja","state":"Abuja","description":"Fraser Suites Abuja is nestled in the heart of the modern Federal Capital of Nigeria. The newly opened Fraser Suites features 126 Gold-Standard residences that combine comfort, style & technology with...","rating":"","reviews":"","location":{"lat":"9.054103887792769","lng":"7.477328181266785"},"category":"Restuarants","link":"https://www.businesslist.com.ng/company/258590/fraser-suites-abuja","imageUrl":"https://www.businesslist.com.ng/img/ng/z/1500898564-63-fraser-suites-abuja.png","phone":"+2349026222888","website":"htttp://abuja.frasershospitality.com"},{"name":"Choices Lounge & Bar","address":"51 olowora road off Solomon Avenue Bus Stop,Magodo Isheri, Lagos, Lagos","state":"Lagos","description":"Choices lounge and bar is a relaxation spot and restaurant, that caters for your international and local dishes. choices lounge and bar is located at the heart of lagos, at the omole phase 2 area of m...","rating":"","reviews":"","location":{"lat":"6.6371","lng":"3.375235"},"category":"Restuarants","link":"https://www.businesslist.com.ng/company/260066/choices-loungebar","imageUrl":"https://www.businesslist.com.ng/img/ng/l/1518377044-27-choices-lounge-bar.jpg","phone":"0905929468008039358905‬","website":"www.instagram.com/choices_lounge_bar/"},{"name":"Oscars Autocare and Grill","address":"43 Akanni Ajiran Street,Agungi,Lekki, Lagos, Lagos","state":"Lagos","description":"Oscars Auto care and grill provides the following services in Lekki,Lagos Nigeria.Auto Care Auto repair,Car wash,Grill,Restaurant and Unisex Salon.We are opened 8 am from Monday through Saturday and 9...","rating":"","reviews":"","location":{"lat":"6.451029890802774","lng":"3.3969318866729736"},"category":"Restuarants","link":"https://www.businesslist.com.ng/company/256517/oscars-autocare-and-grill","imageUrl":"https://www.businesslist.com.ng/img/ng/e/1472613579-90-oscars-autocare-and-grill.jpg","phone":"08090565859","website":"oscarsautocareandgrill.com"},{"name":"Purple Crown Hotel","address":"N0. 3B, Balogun Street, Off Balogun Bus Stop, Awolowo Way Ikeja, Lagos, Nigeria, Ikeja, Lagos","state":"Lagos","description":"Purple Crown Hotel is located within 20 minutes proximity to the Murtala Muhammed International Airport Lagos. We will suit your hospitality desire. Relax in our super luxurious suite elegantly design...","rating":"","reviews":"","location":{},"category":"Restuarants","link":"https://www.businesslist.com.ng/company/262129/purple-crown-hotel","imageUrl":"https://www.businesslist.com.ng/img/ng/e/1537792506-72-purple-crown-hotel.png","phone":"+2348145333000","website":"purplecrownhotel.com"},{"name":"Fruit fiber n' beyond","address":"75,Adeniran Ogunsanya Surulere, Lagos, Lagos, Lagos","state":"Lagos","description":"Health Food Fresh Food Salads Fresh Juice Smoothies Sandwiches Grills Yoghurt","rating":"","reviews":"","location":{"lat":"6.492536424514962","lng":"3.3566534920654476"},"category":"Restuarants","link":"https://www.businesslist.com.ng/company/196769/fruit-fiber-n-beyond","imageUrl":"https://www.businesslist.com.ng/img/ng/r/1386583978_95166.png","phone":"08107910649","website":"www.fruitfibernbeyond.org"},{"name":"GetFoods","address":"ozumba mbadiwe VI lagos, Lagos, Lagos","state":"Lagos","description":"In order for restaurant owners to keep an organized system, maximize table turnover, and reduce waiting time for customers, GetFoods was built to maintain a reliable and efficient food reservation and...","rating":"","reviews":"","location":{},"category":"Restuarants","link":"https://www.businesslist.com.ng/company/266781/getfoods","imageUrl":"https://www.businesslist.com.ng/img/ng/a/1582549014-51-getfoods.png","phone":"+2348035562231","website":"getfoods.ng"},{"name":"Emperor meals","address":"Emperor place,Emperor Bus stop,Ijede Road,Ikorodu,Lagos., Ikorodu, Lagos","state":"Lagos","description":"Emperor meals is a quick food service outlet with a wow service and healthy food.We deal in African,Continental,Pizza, Sharwama, Outdoor catering services, Small chops, delivery and all of this at an ...","rating":"","reviews":"","location":{"lat":"6.570854840786606","lng":"3.596389234483013"},"category":"Restuarants","link":"https://www.businesslist.com.ng/company/262232/emperor-meals","imageUrl":"https://www.businesslist.com.ng/img/ng/l/1538671733-19-emperor-meals.jpg","phone":"07086768126","website":""},{"name":"Aunty ginu's farm","address":"off madalla-suleja express road, Abuja, Abuja","state":"Abuja","description":"We deal on all kinds of poultry produce: birds,eggs,feeds, etc. Kindly contact us today for further enquiries. Try us today,and you will be glad you did.","rating":"","reviews":"","location":{"lat":"6.558203219021753","lng":"3.5135650634765625"},"category":"Restuarants","link":"https://www.businesslist.com.ng/company/259217/aunty-ginus-farm","phone":"09094794862","website":"auntyginusfarm.com"},{"name":"Magrellos Fast Food & Bakery","address":"169, Ogudu Road, Ogudu, Lagos, Lagos","state":"Lagos","description":"Magrellos is a quick service restaurant that provides several unique meal categories with the taste & quality of home food. Established in 2006, Magrellos Fast Food & Bakery has from its Head Office i...","rating":"","reviews":"","location":{"lat":"6.57436915936534","lng":"3.39386129005743"},"category":"Restuarants","link":"https://www.businesslist.com.ng/company/255876/magrellos-fast-foodbakery","imageUrl":"https://www.businesslist.com.ng/img/ng/j/1464184309-23-magrellos-fast-food-bakery.png","phone":"01-2914564","website":"www.magrellosfoods.com"},{"name":"Millennium Restaurants","address":"11 Baruwa Bus Stop Besides Bisdakem Hotels Ipaja, Ikeja, Lagos","state":"Lagos","description":"Millennium restaurants provides African foods amala, eba, semo, weat, pounded-yam, ewedu/gbegiri soup, egusi soup, vegetable soup, rice salad coconut rice stock fish snails, catfish pepper soup beans ...","rating":"","reviews":"","location":{},"category":"Restuarants","link":"https://www.businesslist.com.ng/company/260798/millennium-restaurants","imageUrl":"https://www.businesslist.com.ng/img/ng/k/1525522591-44-millennium-restaurants.jpg","phone":"08085669565","website":"millenniumrestaurants.blogspot.com.ng/"},{"name":"Chop Shop Foods","address":"31, Mosalashi Street off Temidire behind First Bank Sango, Ota, Ogun","state":"Ogun","description":"We are a food Delivery company. Serving over 5000 people in Lagos daily We do: Commercial Cooking Home Cooking Event Cooking Industrial Cooking We serve Continental dishes like Jollof Rice Fried Rice ...","rating":"","reviews":"","location":{},"category":"Restuarants","link":"https://www.businesslist.com.ng/company/265740/chop-shop-foods","imageUrl":"https://www.businesslist.com.ng/img/ng/d/1573606721-82-chop-shop-foods.jpg","phone":"08028386831","website":"www.chopshop.com.ng"},{"name":"BABA MART NIGERIA LTD","address":"73 Limca Road, Onitsha, Anambra","state":"Anambra","description":"Baba Mart Nigeria Ltd is Nigeria's leading rice importer company. For nearly a century, our company has been processing, marketing and distributing rice and rice products throughout the Nigeria and ar...","rating":"","reviews":"","location":{"lat":"6.18424616128059","lng":"7.62451171875"},"category":"Restuarants","link":"https://www.businesslist.com.ng/company/196846/baba-mart-nigeria-ltd","phone":"08169785931","website":"www.babamart.com"},{"name":" EVERY OCCAZION","address":"1 DF Street, Shagari Estate, (FLCH), Ipaja, Lagos, Lagos","state":"Lagos","description":"We produce well organized cakes and other pastries","rating":"","reviews":"","location":{},"category":"Restuarants","link":"https://www.businesslist.com.ng/company/146983/every-occazion","imageUrl":"https://www.businesslist.com.ng/img/ng/e/1487107058_40434.jpg","phone":"08053849012","website":"www.EveryOccazion.com"},{"name":"Mealboxng","address":"No 2, Kemfat road, Rehoboth Plaza, beside Access bank, along Lekki Ajah Express way, Ajah, Lagos, Lagos","state":"Lagos","description":"Mealboxng is a Fast food restaurant located in the heart of Lagos at No 2, Kemfat road, Rehoboth Plaza, beside Access bank, along Lekki Ajah Express way, Ajah with an affordable food service and comfo...","rating":"","reviews":"","location":{"lat":"6.48331934353316","lng":"3.631079544235405"},"category":"Restuarants","link":"https://www.businesslist.com.ng/company/267406/mealboxng","phone":"08103868050","website":"www.mealbox.ng/"},{"name":"SAMEST FACILITIES SERVICES","address":"NO 50 omu-aran street, pipeline bus-stop. egbeda, Lagos, Lagos","state":"Lagos","description":"The company is a Facility management company that render services in the following area: Electrical Panel Construction Generator servicing Maintenance and Repair of Motorise gate Installation and Main...","rating":"","reviews":"","location":{},"category":"Restuarants","link":"https://www.businesslist.com.ng/company/253581/samdor-facilities-services","imageUrl":"https://www.businesslist.com.ng/img/ng/h/1457424496-95-samest-facilities-services.jpg","phone":"08067612109","website":"www.samestfacilities.wordpress.com"},{"name":"REDPEPPE BITES","address":"113, Ogunlana Drive, Surulere, Lagos Island, Lagos","state":"Lagos","description":"REDPEPPE is a fast restaurant where one can relax and have a great taste of Italian Pizza. Great taste at low price. ","rating":"","reviews":"","location":{"lat":"6.504675375849623","lng":"3.3519163727760315"},"category":"Restuarants","link":"https://www.businesslist.com.ng/company/265549/redpeppe-bites","imageUrl":"https://www.businesslist.com.ng/img/ng/s/1571953790-40-redpeppe-bites.png","phone":"08179888809","website":"www.redpeppe.com"},{"name":"Nigeria Food and Drinks Expo","address":"34, Aiyepe avenue, Somolu, Lagos, Lagos, Lagos","state":"Lagos","description":"Nigeria Food and Drinks is a platform put in place to encourage food and drinks entrepreneurs in the country with the aim of taking food and drinks business/enterpreneur to the next level for an excit...","rating":"","reviews":"","location":{"lat":"6.497189496342829","lng":"3.364713191986084"},"category":"Restuarants","link":"https://www.businesslist.com.ng/company/259002/nigeria-food-and-drinks-expo","imageUrl":"https://www.businesslist.com.ng/img/ng/e/1505671734-53-nigeria-food-and-drinks-expo.jpg","phone":"2347083350225","website":""},{"name":"Burger Meal","address":"Shop U36. Jabi Lake Mall, Abuja, Abuja","state":"Abuja","description":"Burger chain restaurant in Nigeria. burger, fast food, burger restaurant in nigeria, fast food restaurant in nigeria","rating":"","reviews":"","location":{"lat":"6.519561205537986","lng":"3.374055999999996"},"category":"Restuarants","link":"https://www.businesslist.com.ng/company/265885/burger-meal","imageUrl":"https://www.businesslist.com.ng/img/ng/l/1574741103-71-burger-meal.jpg","phone":"+234 809 943 3330","website":"www.burgermealng.com"},{"name":"1st Forty Hotel","address":"38 Aminu Kano Crescent Wuse 2 Abuja, Nigeria., Abuja, Abuja","state":"Abuja","description":"We are one of the best hotels in Abuja and have extended our hospitality to a lot of guests since 2004. Our hallmarks have always been Warmth, Tidiness and Friendliness. We have got lodging facilities...","rating":"","reviews":"","location":{"lat":"9.084648449472732","lng":"7.42132897672127"},"category":"Restuarants","link":"https://www.businesslist.com.ng/company/258356/1st-forty-hotel","imageUrl":"https://www.businesslist.com.ng/img/ng/h/1498441191-15-1st-forty-hotel.png","phone":"+234 806 953 0625","website":"www.1stfortyhotel.com"},{"name":"Brook Garden and Events Centre","address":"269, Along Nile University Road, Ring Road 2, Jabi, Abuja, Nigeria, Abuja, Abuja","state":"Abuja","description":"Here at Brook Event Centre we offer a Variety of Services to our Clients. At our Restaurants and Bar we offer a Variety of Food and Drinks, we also have a vast range of field where our clients can use...","rating":"","reviews":"","location":{"lat":"9.024254431793224","lng":"7.4083050543060835"},"category":"Restuarants","link":"https://www.businesslist.com.ng/company/262468/brook-garden-and-events-centre","imageUrl":"https://www.businesslist.com.ng/img/ng/k/1540896858-24-brook-garden-and-events-centre.png","phone":"080232133690703117098109083081436","website":"goo.gl/maps/a99ea5uzeys2"},{"name":"Fola Akinrinsola Ojo & Co","address":"Plot 6, (1, Akin Maryland, Close) Okupe Estate, Maryland, Lagos, Nigeria, Lagos, Lagos","state":"Lagos","description":"Fola Akinrinsola, Ojo & Co is a Law Firm of seasoned corporate and commercial legal experts that delivers exceptional legal services in various areas including, Criminal Law, Labour & Employment Law, ...","rating":"","reviews":"","location":{"lat":"6.5671987027525525","lng":"3.325543210346382"},"category":"Restuarants","link":"https://www.businesslist.com.ng/company/265897/fola-akinrinsola-ojoco","imageUrl":"https://www.businesslist.com.ng/img/ng/j/1574808083-65-fola-akinrinsola-ojo-co.jpg","phone":"(+234)8023154345","website":"www.faolegal.com.ng/"},{"name":"6ix Restaurant","address":"873 Ozumba Mbadiwe Victoria Island , Victoria Island, Lagos","state":"Lagos","description":"The breath-taking restaurant features a fully lit up glass box area with unmatched aesthetic values, a unique bar and a private dining area with a capacity of 100 people. 6IX restaurant works perfectl...","rating":"","reviews":"","location":{"lat":"6.437831577504146","lng":"3.4583282377570868"},"category":"Restuarants","link":"https://www.businesslist.com.ng/company/258548/6ix-restaurant","imageUrl":"https://www.businesslist.com.ng/img/ng/h/1500478933-41-6ix-restaurant.jpg","phone":"09065000929","website":"www.6ixrestaurant.com"},{"name":"JOREG SUITES","address":"NO, 13 KLEM ROAD, BEHIND ST PETER'S PRY SCHOOL IWARO OKA AKOKO, ONDO STATE., Owo, Ondo","state":"Ondo","description":"OUR MISSION STATEMENT “To offer a pleasurable Hotel Experience” OUR VISION “To become the Hotel of choice” OUR GOAL AND OBJECTIVES “To deliver Quality Standard of Service” At the Joreg Sui...","rating":"","reviews":"","location":{"lat":"7.457419200963365","lng":"5.728554725646973"},"category":"Restuarants","link":"https://www.businesslist.com.ng/company/253524/joreg-suites","imageUrl":"https://www.businesslist.com.ng/img/ng/h/1421143890-91-joreg-suites.jpg","phone":"08035803830","website":""}]