[{"name":"Frenchies Foods","address":"29A, Akin Adesola Street, Victoria Island, Eti Osa, Lagos","state":"","description":"","rating":"","reviews":"","location":{},"category":"Restuarants","link":"https://www.businesslist.com.ng/company/169443/frenchies-foods","phone":"08023071739080334857590703449996101-2806864","website":"www.frenchiesfoods.gnbo.com.ng"},{"name":"202 SAM SEDI","address":"202, Refinery Road, Ekpan, Uvwie, Warri, Delta","state":"Delta","description":"Hotel & Industrial Catering Services ","rating":"","reviews":"","location":{},"category":"Restuarants","link":"https://www.businesslist.com.ng/company/146770/202-sam-sedi","phone":"0803508500807061292723","website":""},{"name":"Teemas Catering services","address":"76 stadium road beside federal inland revenue, Port Harcourt, Rivers","state":"Rivers","description":"Teemas Catering services is a brand of restaurant with interest in local dishes,intercontinental dishes and desert. Located close to the industrial suburb of port Harcourt. Customers satisfaction is o...","rating":"","reviews":"","location":{},"category":"Restuarants","link":"https://www.businesslist.com.ng/company/263734/teemas-catering-services","phone":"08023116063","website":""},{"name":"Angel Clean Ventures","address":"22, Adeola Hopewell Street, Victoria Island, Lagos, Wamba, Lagos","state":"Lagos","description":"FUMIGATION  Fumigation (Pest Control) Services (Homes, Offices, Warehouses, Hospitals, Stores, Farm, Industries)  Weed Control  Seed Treatment  De-ratting CLEANING SERVICES  General Cle...","rating":"","reviews":"","location":{},"category":"Restuarants","link":"https://www.businesslist.com.ng/company/255885/angel-clean-ventures","phone":"08023686204","website":""},{"name":"Prospect African Food Producction (Nig) Enterprise","address":"No1, zone C, olorire community off specialist hospital alagbado area, ilorin kwara state, Ilorin, Kwara","state":"Kwara","description":"We specialized in the processing and packaging of raw and pure cassava and yam into flours respectively. That is, the company specialized in grinding and milling of yam and cassava to become flour and...","rating":"","reviews":"","location":{},"category":"Restuarants","link":"https://www.businesslist.com.ng/company/260297/prospect-african-food-producction-nig-enterprise","phone":"080228989740803244170208166203047","website":""},{"name":"Frugies Delight","address":"5 Fashade Close Oregun, Ikeja, Lagos","state":"Lagos","description":"At Frugies Delight, we believe that everyone deserves to be healthy and stay healthy, hence we create healthy food choices, freshly made daily for everyone in order to prove that healthy living can be...","rating":"","reviews":"","location":{},"category":"Restuarants","link":"https://www.businesslist.com.ng/company/260525/frugies-delight","phone":"07018432454","website":""},{"name":"Pizza Inn","address":"UAC House, 1-5 Odunlami Street, P.O.Box 2058, Lagos Island, Lagos","state":"","description":"","rating":"","reviews":"","location":{},"category":"Restuarants","link":"https://www.businesslist.com.ng/company/100359/pizza-inn","phone":"(+234-1) 26631762663152","website":"www.uacnplc.com"}]