[{"name":"Topik Garden","address":"164 upper chime avenue new heaven Enugu, Enugu, Enugu","state":"Enugu","description":"Topik Garden is a privately owned entertainment centre. It has a bar, a restaurant, a snooker room and an entertainment lounge. Topik Garden provides a venue for special events and ceremonies such as ...","rating":"","reviews":"","location":{"lat":"6.457645271512789","lng":"7.533595561981201"},"category":"Restuarants","link":"https://www.businesslist.com.ng/company/258479/topik-garden","imageUrl":"https://www.businesslist.com.ng/img/ng/g/1499959455-36-topik-garden.jpg","phone":"09095572485","website":""},{"name":"Benely Optimum Ventures","address":"Oil Field Rd Elelenwo Port Harcourt, Rivers State., Port Harcourt, Rivers","state":"Rivers","description":"Benely is a leading name in food processing. We produce the best plantain chips in Nigeria;Pee Chips and Vip Chips.","rating":"","reviews":"","location":{"lat":"4.850037927202448","lng":"7.066987752914429"},"category":"Restuarants","link":"https://www.businesslist.com.ng/company/234072/pee-ventures-limited","imageUrl":"https://www.businesslist.com.ng/img/ng/g/1426757150_58552.jpg","phone":"08063895341","website":""},{"name":" 12 BASKETS SMALL CHOPS AND GRILL","address":"Blk D3 Suite 11 & 12, Sura Shopping Complex, Simpson Street, Obalende, Lagos","state":"","description":"","rating":"1.0","reviews":"2 Reviews","location":{},"category":"Restuarants","link":"https://www.businesslist.com.ng/company/146768/12-baskets-small-chops-and-grill","phone":"+23418916500","website":"www.12basketsfoods.com"},{"name":"Sisi Bole","address":"70 Aminu Kano Crescent, Wuse II, Abuja, Abuja, Abuja","state":"Abuja","description":"Sisi Bole is an afro-vibe restaurant located in the heart of Abuja which serves the best Port-Harcourt style Bole, Fish and other southern local delicacies in an ambient setting rich in culture, tradi...","rating":"","reviews":"","location":{},"category":"Restuarants","link":"https://www.businesslist.com.ng/company/260459/sisi-bole","imageUrl":"https://www.businesslist.com.ng/img/ng/n/1522581803-99-sisi-bole.jpg","phone":"09030505025","website":"sisi-bole-restaurant.business.site/"},{"name":"Circa Prive: Restaurant Lagos","address":"12e Admiralty Way Lekki Phase 1, Lagos, Lagos, Lagos","state":"Lagos","description":"Circa Non Pareil is one of the best restaurants in Lagos. It is a multi-storey restaurant and considered as one of the most happening places. It serves daily guests as well as guests of customers that...","rating":"","reviews":"","location":{},"category":"Restuarants","link":"https://www.businesslist.com.ng/company/264369/circa-prive-restaurant-lagos","imageUrl":"https://www.businesslist.com.ng/img/ng/m/1562135380-26-circa-prive-restaurant-lagos.jpg","phone":"234 817 999 9960","website":"circa.com.ng/"},{"name":"Sprintime Foods","address":"C-Line Ewet Housing Estate., Uyo, Akwa Ibom","state":"Akwa Ibom","description":"We provide a place for our customers to celebrate life's special moments by offering the best foods and services with pleasant and soothing ambience.","rating":"","reviews":"","location":{"lat":"6.5025057888497315","lng":"3.385728973632811"},"category":"Restuarants","link":"https://www.businesslist.com.ng/company/267068/sprintime-foods","phone":"+234904 992 9768","website":"www.springtimefoods.com"},{"name":"Lagos Food Bank Initiative","address":"Plot 10 Oba-lateef Adams Estate Iloro off olufeso streetCement Bus-stop Agege, Ikeja, Lagos","state":"Lagos","description":"Lagos Food Bank is a non-governmental, non-profit, private-driven initiative committed to fighting hunger, reducing food waste and offering emergency food services through our proposed food banking ne...","rating":"","reviews":"","location":{},"category":"Restuarants","link":"https://www.businesslist.com.ng/company/255462/lagos-food-bank-initiative","imageUrl":"https://www.businesslist.com.ng/img/ng/d/1484153724-34-lagos-food-bank-initiative.jpg","phone":"07058617222","website":"www.lagosfoodbank.org"},{"name":" EVERY OCCAZION OUTLET","address":"1Cdf shagari estate ipaja, Ikeja, Lagos","state":"Lagos","description":"","rating":"","reviews":"","location":{},"category":"Restuarants","link":"https://www.businesslist.com.ng/company/146984/every-occazion-outlet","phone":"08053849012","website":"www.everyoccazion.com"},{"name":"Lydia's Place Restaurant And Lounge","address":"Plot 1038B, Ologun Agbaje Street,Victoria Island,Lagos., Victoria Island, Lagos","state":"Lagos","description":"","rating":"","reviews":"","location":{"lat":"6.430091443791533","lng":"3.4163832664489746"},"category":"Restuarants","link":"https://www.businesslist.com.ng/company/241693/lydias-place-restaurant-and-lounge","phone":"014540324","website":"www.lydiasplacelagos.com"},{"name":"The Presidential","address":"Aba Road, PMB 5141, GRA Phase II, Rivers, Port Harcourt, Rivers","state":"Rivers","description":"In addition to an outdoor pool and a children's pool, Hotel Presidential provides outdoor tennis courts and a fitness center. Dining is available at the hotel's three restaurants. Guests can unwind wi...","rating":"","reviews":"","location":{},"category":"Restuarants","link":"https://www.businesslist.com.ng/company/161954/the-presidential","imageUrl":"https://www.businesslist.com.ng/img/ng/h/1428482619-11-the-presidential.jpg","phone":"+234 816 885 5535","website":"www.hotel-presidential.com"},{"name":"Yippeehub","address":"Suite A7 Bensima House, Rea Sea close off Aguiyi Ironsi street, Maitama , Abuja, Abuja","state":"Abuja","description":"Online food delivery service, Order food online from our fleets of restaurants residence in Abuja. Make your order from more than a thousand menus and get it delivered to your doorstep. Send your pack...","rating":"","reviews":"","location":{"lat":"9.084526225786894","lng":"7.480880542419868"},"category":"Restuarants","link":"https://www.businesslist.com.ng/company/264441/yippeehub","phone":"08140000317","website":"www.yippeehub.com"},{"name":"OLLYBEE HOSPITALITY & EVENTS MGT SERVICES LTD","address":"15B, ATUNISE STREET, BY OMOLE PHASE 11, OJODU BERGER, LAGOS, Ikeja, Lagos","state":"Lagos","description":"Offering comprehensive catering services (continental, Nigerian and Chinese) for all classes of events, event/party Venue Decorations, catering and event decorations rental, bespoke event planning and...","rating":"","reviews":"","location":{"lat":"6.628844878632153","lng":"3.374195144580085"},"category":"Restuarants","link":"https://www.businesslist.com.ng/company/258875/ollybee-hospitalityevents-mgt-services-ltd","phone":"+234-903-429-6168","website":""},{"name":"Unyeada Fish Museum ","address":"King Otuo warrior cenotaph, Unyeada Town, Andoni L.G.A, Port Harcourt, Rivers","state":"Rivers","description":"The museum is a deliberate effort by the Niger Delta born ecoentrepreneur and environmentalist Gogo Abel Ujile to preserve and promote the rich aquatic and cultural heritage in Niger Delta. Our collec...","rating":"","reviews":"","location":{"lat":"4.538329651816152","lng":"7.440919876098633"},"category":"Restuarants","link":"https://www.businesslist.com.ng/company/253661/unyeada-fish-museum","phone":"","website":"visitandoni.com"},{"name":"Truly Hospitable","address":"Redemption Camp, Ikeja, Ogun","state":"Ogun","description":"Truly Hospitable is interested in providing her customers with clean, hygienic, well prepared and of course tasty meals. We go the extra mile to ensure our service delivery is too notch to keep you co...","rating":"","reviews":"","location":{"lat":"6.801749981861101","lng":"3.4585098018372946"},"category":"Restuarants","link":"https://www.businesslist.com.ng/company/264589/truly-hospitable","imageUrl":"https://www.businesslist.com.ng/img/ng/r/1564045281-30-truly-hospitable.jpg","phone":"07058898352","website":""},{"name":"Apple Boulevard","address":"130 Aminu Kano Crescent, Abuja, Abuja","state":"Abuja","description":"Apple Boulevard is an exclusive restaurant bar and lounge located in the heart and entertainment epicenter of Abuja, Wuse II, Aminu Kano Crescent. The boulevard atmosphere is extra ordinarily calm and...","rating":"","reviews":"","location":{},"category":"Restuarants","link":"https://www.businesslist.com.ng/company/255055/apple-boulevard","imageUrl":"https://www.businesslist.com.ng/img/ng/m/1453664876-84-apple-boulevard.jpg","phone":"+234 (0) 9 292 1441","website":"www.appleboulevard.com"},{"name":"Sparklyn Hotels and Suites GRA","address":"101b Brookstone School Close, off Prof. Abowei Street, GRA Phase 3, Port Harcourt, Rivers","state":"Rivers","description":"Sparklyn Hotels & Suites GRA Port Harcourt offers 52 deluxe rooms, including 4 suites, which boast the finest decor of any luxury hotel in the Garden City. Get everything you're looking for with style...","rating":"","reviews":"","location":{"lat":"4.8145789","lng":"7.002877099999978"},"category":"Restuarants","link":"https://www.businesslist.com.ng/company/190838/sparklyn-hotels-and-suites-gra","phone":"","website":"www.sparklynhotels.com"},{"name":"INHOUSE GUEST HOUSE","address":"10, Alice Fatumo Str.Along Arisekola House, Oluwo-Kekere, Basorun, Ibadan, Oyo","state":"Oyo","description":"INHOUSE GUEST HOUSE ,is a guest house that provides lodging accommodation, reservation and restaurant services. It has a multi cuisine restaurant with the capacity of 30 seats with bar serving. Nigeri...","rating":"","reviews":"","location":{"lat":"7.3963889","lng":"3.9166666999999507"},"category":"Restuarants","link":"https://www.businesslist.com.ng/company/252671/inhouse-guest-house","imageUrl":"https://www.businesslist.com.ng/img/ng/e/1401013903_39673.jpg","phone":"0802330194108053949719","website":""},{"name":"LReme Enterprise","address":"Head Office: 17, Ayodele Okeowo Street, Soluyi, Gbagada, Lagos State, Lagos, Lagos","state":"Lagos","description":"L'Reme Enterprise We are suppliers of Seafood, frozen food and poultry products to Hotels, Restaurants and Caterers. Our products include but are not limited to Prawns, Shrimps, Lobster, Crabs and all...","rating":"","reviews":"","location":{"lat":"6.557435797051071","lng":"3.3865678310394287"},"category":"Restuarants","link":"https://www.businesslist.com.ng/company/259597/lreme-enterprise","imageUrl":"https://www.businesslist.com.ng/img/ng/n/1512821640-22-lreme-enterprise.jpg","phone":"+2348065497326","website":""},{"name":"Truth Lounge & Grill","address":"58 Journalist Estate Road, Arepo, Ihiala, Ogun","state":"Ogun","description":"Looking for a cool place to relax with excellent food, chilled drinks, perfect aura, chilled vibes and good lightening? Give \"TRUTH - Tranquility, Relaxation, Uniqueness, Topnotch & Happiness\", a Chan...","rating":"","reviews":"","location":{"lat":"6.698011053643414","lng":"3.415748256927486"},"category":"Restuarants","link":"https://www.businesslist.com.ng/company/264374/truth-loungegrill","imageUrl":"https://www.businesslist.com.ng/img/ng/d/1562162135-40-truth-lounge-grill.jpg","phone":"09070101588","website":""},{"name":"Springpark Suites","address":"16B, Imam Dauda street off Eric moore, Lere, Lagos","state":"Lagos","description":"Springpark Suites at 16B, Imam Dauda street, Eric Moore, Surulere... Our rooms are fully air-conditioned, equipped with flat screen TVs with satellite reception, free WiFi, wardrobe and an en-suite ba...","rating":"","reviews":"","location":{"lat":"6.5","lng":"3.35"},"category":"Restuarants","link":"https://www.businesslist.com.ng/company/257301/springpark-suites","imageUrl":"https://www.businesslist.com.ng/img/ng/l/1486385119-94-springpark-suites.jpg","phone":"08090855964","website":""}]