[{"name":"Margarets Restaurant Nigeria Limited","address":"16A, Trans - Amadi Road, Port Harcourt, Rivers","state":"Rivers","description":"","rating":"","reviews":"","location":{"lat":"4.8062861","lng":"7.0256795"},"category":"restaurants","phone":"","website":"","email":""},{"name":"Monnie's World","address":"Olawale Daodu Street, Surulere, Lagos","state":"","description":"","rating":"","reviews":"","location":{"lat":"6.44872","lng":"3.43139"},"category":"restaurants","phone":"","website":"","email":""},{"name":"Mr Chang Cuisine","address":"126, Awolowo Road, Ikoyi, Eti Osa, Lagos","state":"","description":"","rating":"","reviews":"","location":{"lat":"6.4420114","lng":"3.4153509"},"category":"restaurants","phone":"","website":"","email":""},{"name":"","address":"","state":"","description":"","rating":"","reviews":"","location":{},"category":"restaurants","phone":"","website":"","email":""},{"name":"Naija Eats","address":"4 Agbaoku Street, Off Opebi Road, Suite B8, Building: Goodnews Plaza, Ikeja, Lagos","state":"Lagos","description":"Order food online from your favourite restaurants in Lagos, Nigeria. Your meal will be delivered to your home or office in no time. Available on both Mobile and Desktop.","rating":"","reviews":"","location":{},"category":"restaurants","phone":"","website":"","email":""},{"name":"Nations Cafe","address":"3293 Dogwood Drive, Hapeville, Georgia, United States 30354, P.O. Box: 30354","state":"","description":"HOME OF SOCCER FANS AND FINEST AFRICAN CUISINES IN NORTH AMERICA","rating":"","reviews":"","location":{"lat":"33.6642916","lng":"-84.4088006"},"category":"restaurants","phone":"","website":"","email":""},{"name":"Nirvana Restaurant","address":"2-4, Adeola Odeku Street, Lagos Island, Lagos","state":"Lagos","description":"","rating":"","reviews":"","location":{"lat":"6.4300221","lng":"3.4192892"},"category":"restaurants","phone":"","website":"","email":""},{"name":"Oceanview Restaurants","address":"Adetokunbo Ademola Street, Victoria Island, Lagos","state":"","description":"Eko Hotel & Suites is an international luxury hotel located on the exclusive Victoria Island. Eko Hotel & Suites is ideal for leisure & business travel in Lagos featuring luxury accommodations, a vari...","rating":"","reviews":"","location":{},"category":"restaurants","phone":"","website":"","email":""},{"name":"","address":"","state":"","description":"","rating":"","reviews":"","location":{},"category":"restaurants","phone":"","website":"","email":""},{"name":"Presidential Suya","address":"162-164 Old Kent Road, London United Kingdom SE1 5TY, P.O. Box: SE1 5TY","state":"","description":"Presidential Suya is a family run restaurant set in a cosy, ultra-modern atmosphere. The accent at the Presidential is on the kind of food served in Nigerian homes - food served with love, care and si...","rating":"","reviews":"","location":{"lat":"51.4903411","lng":"-0.0811176"},"category":"restaurants","phone":"","website":"","email":""},{"name":"Red Onion Bar & Dinning","address":"5, Kola Amodu crescent, Magodo Phase 2, Kosofe, Lagos","state":"","description":"","rating":"","reviews":"","location":{"lat":"6.5987808","lng":"3.4094629"},"category":"restaurants","phone":"","website":"","email":""},{"name":"Sinoni Restaurants Limited","address":"Zeto Court 3 Oshogbo Close, Abuja Municipal, Abuja","state":"","description":"","rating":"","reviews":"","location":{"lat":"9.0456","lng":"7.49576"},"category":"restaurants","phone":"","website":"","email":""},{"name":"Skan Guest House","address":"Offa Road, Ilorin East, Kwara","state":"","description":"","rating":"","reviews":"","location":{"lat":"8.4870439","lng":"4.5732342"},"category":"restaurants","phone":"","website":"","email":""},{"name":"Talents Technical Company","address":"Block 111 Shop 3, LSDPC Estate, Mile 2, Amuwo Odofin, Lagos","state":"","description":"","rating":"","reviews":"","location":{"lat":"6.45","lng":"3.2666667"},"category":"restaurants","phone":"","website":"","email":""},{"name":"","address":"","state":"","description":"","rating":"","reviews":"","location":{},"category":"restaurants","phone":"","website":"","email":""},{"name":"Tantalizers Plc","address":"Main Canteen, UCH, Ibadan, Oyo","state":"Oyo","description":"Tantalizers Plc is a leading fast food company in Nigeria","rating":"","reviews":"","location":{},"category":"restaurants","phone":"","website":"","email":""},{"name":"Tasty Foods","address":"Old Ife Road, Olaogun, Egbeda, Oyo","state":"","description":"","rating":"","reviews":"","location":{"lat":"7.39179","lng":"3.96317"},"category":"restaurants","phone":"","website":"","email":""},{"name":"Tetrazzini Foods Ltd","address":"2 Akin Adesola Street, Victoria Island, Lagos","state":"","description":"Tetrazzini Foods Limited was incorporated as a fast food and African Restaurant in December 1999, a company borne out of passion for excellence. With a humble beginning at Ajao Estate in Isolo Lagos, ...","rating":"","reviews":"","location":{"lat":"6.43023","lng":"3.4236896"},"category":"restaurants","phone":"","website":"","email":""},{"name":"Tolhuz cafe","address":"Suite 11, Preboyes world, Agbowo, UI, Ibadan., Ibadan, Oyo","state":"Oyo","description":"Tolhuz cafe is a restaurant and outdoor catering service provider. Our food includes Nigerian and continental dishes which are well prepared and delicious. Our customers and clients satisfaction is ou...","rating":"","reviews":"","location":{},"category":"restaurants","phone":"","website":"","email":""},{"name":"Toochiosoft Designs And Services","address":"49, Igwe Orizu Road, Otolo, Nnewi North, Anambra","state":"","description":"","rating":"","reviews":"","location":{"lat":"6.0163329","lng":"6.9264095"},"category":"restaurants","phone":"","website":"","email":""},{"name":"Vicosphi Limited","address":"Libreville Street, Abuja Municipal, Abuja","state":"","description":"","rating":"","reviews":"","location":{"lat":"9.06667","lng":"7.48333"},"category":"restaurants","phone":"","website":"","email":""},{"name":"Winnys Meals","address":"8, Kwame Nkrumah Cresent, Asokoro, Abuja","state":"","description":"","rating":"","reviews":"","location":{"lat":"9.0412984","lng":"7.5264712"},"category":"restaurants","phone":"","website":"","email":""},{"name":"Xquisite","address":"11A, Fola Oshibo Street, Eti Osa, Lagos","state":"","description":"","rating":"","reviews":"","location":{"lat":"6.442611","lng":"3.4730753"},"category":"restaurants","phone":"","website":"","email":""},{"name":"","address":"","state":"","description":"","rating":"","reviews":"","location":{},"category":"restaurants","phone":"","website":"","email":""},{"name":"Zaboom African And Chinese Cuisine And Bar","address":"Teslim Balogun Stadium, Surulere, Surulere, Lagos","state":"","description":"","rating":"","reviews":"","location":{"lat":"6.49987","lng":"3.36093"},"category":"restaurants","phone":"","website":"","email":""},{"name":"BAMBUDDHA","address":"21 (Plot 1310) Karimu Kotun, Victoria Island, Lagos","state":"","description":"","rating":"","reviews":"","location":{},"category":"restaurants","phone":"","website":"","email":""},{"name":"BARCELOS","address":"234 Ahmadu Bello Way, Victoria Island, Lagos","state":"","description":"","rating":"","reviews":"","location":{"lat":"6.4312684","lng":"3.4088302"},"category":"restaurants","phone":"","website":"","email":""},{"name":"Bungalow","address":"Plot 1296, Akin Adesola Street, Victoria Island, Lagos","state":"","description":"","rating":"","reviews":"","location":{"lat":"6.430876","lng":"3.4264164"},"category":"restaurants","phone":"","website":"","email":""},{"name":"Bunyaki Restaurant","address":"Plot 1296, Akin Adesola Street, Victoria Island, Lagos, Abia","state":"Abia","description":"","rating":"","reviews":"","location":{"lat":"6.430876","lng":"3.4264164"},"category":"restaurants","phone":"","website":"","email":""},{"name":"Chicken Republic","address":"Oando Filling Station, Itire/Ishaga Junction, Itire, Lagos","state":"","description":"Food Concepts, a leading (top-5) food retail business in Nigeria. Famous for Chicken and chicken products (QSR) and Bread and bakery products.","rating":"","reviews":"","location":{},"category":"restaurants","phone":"","website":"","email":""},{"name":"Chicken Republic","address":"73, Bode Thomas Street, Surulere, Lagos","state":"","description":"Food Concepts, a leading (top-5) food retail business in Nigeria. Famous for Chicken and chicken products (QSR) and Bread and bakery products.","rating":"","reviews":"","location":{},"category":"restaurants","phone":"","website":"","email":""},{"name":"Chicken Republic","address":"10, Ikorodu Road, Jibowu, Lagos","state":"","description":"Food Concepts, a leading (top-5) food retail business in Nigeria. Famous for Chicken and chicken products (QSR) and Bread and bakery products.","rating":"","reviews":"","location":{},"category":"restaurants","phone":"","website":"","email":""},{"name":"LIMS ICE & BAKERS","address":"Suite C24, Sultan Dasuki Road, Kubwa, Abuja","state":"","description":"","rating":"","reviews":"","location":{},"category":"restaurants","phone":"","website":"","email":""},{"name":"MAMA CASS RESTAURANTS LTD (H.Q)","address":"Block L, Plot 6, lateef sunmu Street, Off. Lateef Jakande Road, Agidingbi, Ikeja, Lagos","state":"","description":"","rating":"","reviews":"","location":{},"category":"restaurants","phone":"","website":"","email":""}]