[{"name":"Norwegian International School","address":"11 Rotimi Amaechi Drive GRA 3, Port Harcourt, Rivers","state":"Rivers","description":"We are a British school committed to delivering the Cambridge International curriculum from our primary to secondary school. Come September 2018, WAEC classes will be available for students who plan t...","rating":"","reviews":"","location":{},"category":"Schools","link":"https://www.businesslist.com.ng/company/191591/norwegian-international-school","imageUrl":"https://www.businesslist.com.ng/img/ng/k/1515141670_93344.jpg","phone":"+234- (0) 84 300 501","website":"www.nisng.com"},{"name":"RedSea Drum Store","address":"Abuloma, Port Harcourt, Rivers","state":"Rivers","description":"RedSea Drum Store is an Internation Drums and Musical store that overs wide range of the best of Goods and Services that Registers with Music.","rating":"","reviews":"","location":{"lat":"4.822195928416578","lng":"7.041361975631513"},"category":"Schools","link":"https://www.businesslist.com.ng/company/267670/redsea-drum-store","imageUrl":"https://www.businesslist.com.ng/img/ng/n/1589422556-69-redsea-drum-store.jpg","phone":"08165235512","website":""},{"name":"Pearls Works","address":"3, Adeola Adefolabi Street New Oko Oba Agege/Ifako Ijaiye Lagos, Lagos","state":"","description":"An Educational Book Publishing company with majors in Educational Wall Charts and Posters for schools and churches, Book Publishing, Educational / Church and Motivational Flex Banners. ","rating":"","reviews":"","location":{"lat":"6.652236251846121","lng":"3.3187294006347656"},"category":"Schools","link":"https://www.businesslist.com.ng/company/259810/pearls-works","imageUrl":"https://www.businesslist.com.ng/img/ng/k/1515676848-76-pearls-works.jpg","phone":"08076443009","website":""},{"name":"Nikjane tailor","address":"yemsonat petrol station lekki epe expressway by ibeju bus stop, Lagos, Lagos","state":"Lagos","description":"Has your TAILOR ever disappointed you? Do you think his/her price is outrageous? Try a new fashion designer today best fashion experience best price you can trust At NIKJANE FASHION HOUSE the style is...","rating":"","reviews":"","location":{"lat":"6.474810823964932","lng":"3.843442577606197"},"category":"Schools","link":"https://www.businesslist.com.ng/company/265545/nikjane-tailor","imageUrl":"https://www.businesslist.com.ng/img/ng/n/1571917964-86-nikjane-tailor.jpg","phone":"08060304890","website":""},{"name":"Tera Private School","address":"68 Dimrose Road, Biogbolo, Yenagoa, Bayelsa, Yenagoa, Bayelsa","state":"Bayelsa","description":"at Tera, every child is unique. we specialize in individual learning, helping each learner to strive on his own pace.","rating":"5.0","reviews":"1 Review","location":{},"category":"Schools","link":"https://www.businesslist.com.ng/company/265250/tera-private-school","imageUrl":"https://www.businesslist.com.ng/img/ng/s/1569495564-55-tera-private-school.jpg","phone":"08060359925","website":""},{"name":"SchoolsFocus EdTech Solutions","address":"Enugu, Enugu, Enugu","state":"Enugu","description":"We provide School Management Software as a Service to k-12 schools and higher institutions. Our solution enable any school get a school website and a complete school management system/portal live onli...","rating":"","reviews":"","location":{},"category":"Schools","link":"https://www.businesslist.com.ng/company/262170/schoolsfocus-edtech-solutions","imageUrl":"https://www.businesslist.com.ng/img/ng/k/1538093927-54-schoolsfocus-edtech-solutions.png","phone":"+2348065176947","website":"schoolsfocus.net"},{"name":"Mimis fashion kollections","address":"57 Bola Ahmed tinubu road iju ishaga lagos ., Ikeja, Lagos","state":"Lagos","description":" mimis fashion kollection is a store for general fashion items, we render personal shopper services , we deal on wholesales shoes for men, women and kids. our delivery is fast and reliable you can rea...","rating":"","reviews":"","location":{"lat":"6.594211561221552","lng":"3.357236251580349"},"category":"Schools","link":"https://www.businesslist.com.ng/company/267319/mimis-fashion-kollections","imageUrl":"https://www.businesslist.com.ng/img/ng/h/1586343157-40-mimis-fashion-kollections.png","phone":"08163246099","website":""},{"name":"BridgeFox Nigeria","address":"252 Herbert Macaulay Road,Aalagomeji, Yaba, Lagos., Lagos, Lagos","state":"Lagos","description":"Bridgefox is an international education consultancy firm offering a broad range of professional services to our clients with the goal of helping them achieve their educational dreams of studying in to...","rating":"","reviews":"","location":{},"category":"Schools","link":"https://www.businesslist.com.ng/company/264692/bridgefox-nigeria","imageUrl":"https://www.businesslist.com.ng/img/ng/a/1565004517-24-bridgefox-nigeria.jpg","phone":"07005557557","website":"bridgefoxng.com/"},{"name":"Mona School","address":" Ikhidero Crescent, Off Shell Road, Sapele, Delta","state":"Delta","description":"","rating":"","reviews":"","location":{"lat":"5.861301967988696","lng":"5.6928024446410745"},"category":"Schools","link":"https://www.businesslist.com.ng/company/188516/mona-school","phone":"054-341924","website":"monaschool.ng"},{"name":"Starlets Academy","address":"Starlets Academy Close, Opp. Apara Community School, East-West Road, Port Harcourt., Port Harcourt, Rivers","state":"Rivers","description":"Founded in 1997 by Dr. Kudo Eresia-Eke, Starlets Academy is a government approved, co-educational private day and presently boarding institution. It is located in Port-Harcourt, Rivers State, Nigeria....","rating":"","reviews":"","location":{},"category":"Schools","link":"https://www.businesslist.com.ng/company/264501/starlets-academy","imageUrl":"https://www.businesslist.com.ng/img/ng/j/1563277958-85-starlets-academy.jpg","phone":"08145879367","website":"starletsacademy.com"},{"name":"Carstell Fashion","address":"9, College Road,Oyemekun Bus Stop, Ogba lagos, Ikeja, Lagos","state":"Lagos","description":"Carstell Fashion is a Fashion house that deals in all kinds of fashion and training. Our experience and love for fashion gives us the edge in clothing construction, fashion illustration, Ready to Wear...","rating":"","reviews":"","location":{"lat":"6.597326528373993","lng":"3.356546539550777"},"category":"Schools","link":"https://www.businesslist.com.ng/company/264123/carstell-fashion","imageUrl":"https://www.businesslist.com.ng/img/ng/l/1559593268-30-carstell-fashion.jpg","phone":"08055516078","website":""},{"name":"Crimsonboo Couture","address":"8 Kujore street, Ojota, Lagos","state":"Lagos","description":"We are saddled with the major responsibility of training younger generation and creating unique styles for clients as well as making and selling ready to wear outfit. We specialize in making African w...","rating":"","reviews":"","location":{},"category":"Schools","link":"https://www.businesslist.com.ng/company/264639/crimsonboo-couture","imageUrl":"https://www.businesslist.com.ng/img/ng/x/1564566895-67-crimsonboo-couture.jpg","phone":"08028080589","website":"www.crimsonboocouture.com.ng"},{"name":"Josmerez bookshop","address":"no 60 cantonment lokoja kogi state., Lokoja, Kogi","state":"Kogi","description":"Sales of textbooks ranging from nursery to university books and assorted stationaries ","rating":"","reviews":"","location":{"lat":"7.81172674066137","lng":"6.747536659240723"},"category":"Schools","link":"https://www.businesslist.com.ng/company/253526/josmerez-bookshop","imageUrl":"https://www.businesslist.com.ng/img/ng/x/1421182823-15-josmerez-bookshop.jpg","phone":"0803612687108032899814","website":""}]