[{"name":"Pasford Linguistics Academy","address":"2 Oweh St, Yabatech, WACE Office, Yaba 100001, Lagos, Lagos, Lagos","state":"Lagos","description":"'Pasford Linguistics Academy is a first class and number one LANGUAGE promoter in Africa. It is an International Language Institute created to break language barriers or limitation in communication. I...","rating":"","reviews":"","location":{},"category":"Schools","link":"https://www.businesslist.com.ng/company/264978/pasford-linguistics-academy","imageUrl":"https://www.businesslist.com.ng/img/ng/e/1567182729-13-pasford-linguistics-academy.png","phone":"0903 096 9909","website":"pasford.com/"},{"name":"SchooliT","address":"23 Mbonu Street, D/Line, Port Harcourt, Rivers","state":"Rivers","description":"SchooliT is a web application for the complete management of schools of all kinds. With SchooliT you will not need another software to run your school.Run your school smarter, simpler and better.","rating":"","reviews":"","location":{"lat":"4.799223010463835","lng":"7.004009485244751"},"category":"Schools","link":"https://www.businesslist.com.ng/company/258410/schoolit","imageUrl":"https://www.businesslist.com.ng/img/ng/h/1499156002-22-schoolit.png","phone":"08126525767","website":""},{"name":"Nobilis house crèche & preschool","address":"#10 Adeola street, Medina Estate. Gbagada , Lagos, Lagos","state":"Lagos","description":"Nobilis house Montessori crèche and preschool offers a home school setting, where creativity is awakened, our mission is to mould children of the finest quality. We are passionate about early childho...","rating":"","reviews":"","location":{},"category":"Schools","link":"https://www.businesslist.com.ng/company/262109/nobilis-house-crechepreschool","imageUrl":"https://www.businesslist.com.ng/img/ng/h/1537534140-11-nobilis-house-creche-preschool.jpg","phone":"0802 080 8713","website":""},{"name":"Soulforte Music Academy","address":"Division of Student Affair, Adeyemi College of Education Ondo, Akure, Ondo","state":"Ondo","description":"Music Academy that offers music training and mentoring program to community musicians even up-comings.","rating":"","reviews":"","location":{"lat":"7.070740663411068","lng":"4.818363189697266"},"category":"Schools","link":"https://www.businesslist.com.ng/company/261901/soulforte-music-academy","imageUrl":"https://www.businesslist.com.ng/img/ng/x/1535637230-44-soulforte-music-academy.jpg","phone":"09061538077","website":""},{"name":"SPIRITUAL LIFE BIBLE COLLEGE NIGERIA","address":"Jakande Housing Estate, By Lekki Beach Zone, Lagos, Lagos","state":"Lagos","description":"SPIRITUAL LIFE BIBLE COLLEGE was established with a mandate to equip the called for effective ministry. We understand by scripture that in God's vineyard the labourers are always few while the harvest...","rating":"","reviews":"","location":{},"category":"Schools","link":"https://www.businesslist.com.ng/company/266285/spiritual-life-bible-college-nigeria","imageUrl":"https://www.businesslist.com.ng/img/ng/x/1578669088-40-spiritual-life-bible-college.jpg","phone":"070 39506860","website":""},{"name":"Jay Musicals","address":"79 Evo road GRA phase II, Port Harcourt, Port Harcourt, Rivers","state":"Rivers","description":"Jay Musicals is a fast rising online retail music store in Nigeria. You can now easily purchase your music resources such as musical instruments and accessories, music books, all kinds of musical equi...","rating":"","reviews":"","location":{"lat":"4.583111645024968","lng":"6.659750390943827"},"category":"Schools","link":"https://www.businesslist.com.ng/company/264024/jay-musicals","phone":"08078733543","website":""},{"name":"3T Travels Nigeria Limited","address":"Metro Plaza, Annex B.12 Municipal 900001 Abuja, Federal Capital Territory Federal Capital Territory NG, 991/992 Zakaria Maimalari St, Central Business District, Abuja, Abuja, Abuja","state":"Abuja","description":"3T Travels is an online travel agency with services in Flight ticketing and reservation, Affordable hotel booking around the world, Professional visa consultation services and Study abroad educational...","rating":"","reviews":"","location":{},"category":"Schools","link":"https://www.businesslist.com.ng/company/261638/3t-travels-nigeria-limited","phone":"08033130706","website":"www.3ttravels.com"},{"name":"Onus Vocational Training Institute","address":"18, Anfani Road, Off Ring Road, Ibadan , Ibadan, Oyo","state":"Oyo","description":"ONUS Vocational & Entrepreneurship Training Institute was set up with the aim of training both the young and the old on vocational skills that will enable them to establish their own business and enjo...","rating":"","reviews":"","location":{},"category":"Schools","link":"https://www.businesslist.com.ng/company/264046/onus-vocational-training-institute","imageUrl":"https://www.businesslist.com.ng/img/ng/f/1558746175-26-onus-vocational-training-institute.jpg","phone":"08101809463","website":"www.facebook.com/onusvocationaltraininginstitute"},{"name":"St. Martin De Porres College, Ubima.","address":"St. Martin De Porres Girls’ College, Ubima (Kelga) Ikwerre LGA, Rivers State, Port Harcourt, Rivers","state":"Rivers","description":"Saint Martin De Porres Girls’ College, Ubima is a unique Missionary Boarding School established by Very Rev. John Wangbu and managed by the religious institute of the Sisters of the Immaculate Heart...","rating":"","reviews":"","location":{},"category":"Schools","link":"https://www.businesslist.com.ng/company/267322/st-martin-de-porres-college-ubima","imageUrl":"https://www.businesslist.com.ng/img/ng/x/1586351737-33-st-martin-de-porres-college-ubima.jpg","phone":"08032717227","website":"saintmartindeporrescollege.com"},{"name":"Tumbletots","address":"PLOT 25, TOSIN ADELOWO ST, OBA AMUSA ESTATE, IDADO, LEKKI , Lagos Island, Lagos","state":"Lagos","description":"Bespoke early years education tailored to your child's needs and learning style. Excellent early years learning. Children start right and keep doing well as they progress through primary. No child is ...","rating":"","reviews":"","location":{},"category":"Schools","link":"https://www.businesslist.com.ng/company/260498/tumbletots","imageUrl":"https://www.businesslist.com.ng/img/ng/k/1522929567-63-tumbletots.jpg","phone":"+2348072548185","website":"tumbletots.com.ng"},{"name":"GOOD HOPE STARS SCHOOLS","address":"9 Bishop Onyeabor Street, G.R.A., Enugu, Enugu","state":"Enugu","description":"A first class school in Enugu. That is we equipped with modern facilities all geared to raise stars in godliness and excellence from creche to the secondary school.","rating":"5.0","reviews":"1 Review","location":{"lat":"6.4927123061968475","lng":"3.4806060791015625"},"category":"Schools","link":"https://www.businesslist.com.ng/company/130439/good-hope-stars-schools","phone":"","website":""},{"name":"ENUGU STATE POST-PRIMARY SCHOOLS MANAGEMENT BOARD","address":"Abakaliki Road, PMB 01160, Enugu, Enugu","state":"Enugu","description":"","rating":"","reviews":"","location":{"lat":"6.461137887222608","lng":"7.542547576690822"},"category":"Schools","link":"https://www.businesslist.com.ng/company/130627/enugu-state-post-primary-schools-management-board","phone":"042-305756","website":"ppsmbenugu.com.ng/"},{"name":"Applehills Academy","address":"3, Aliyu. W. Sarduana Street, Opposite Union Bank, Suleja, Niger State, Niger","state":"","description":"Our drive is to ensure all children make progress, through providing opportunities for reflective teaching where creative first-hand experiences allow your children to develop as independent enquirers...","rating":"5.0","reviews":"1 Review","location":{},"category":"Schools","link":"https://www.businesslist.com.ng/company/256856/applehills-academy","imageUrl":"https://www.businesslist.com.ng/img/ng/f/1478015719-32-applehills-academy.jpg","phone":"0817 167 7140","website":"www.applehillsacademy.com/"},{"name":"ARNOLD COMPUTER AND COMMUNICATION","address":"ARCOMACLINK@YAHOO.CO.UK, Port Harcourt, Rivers","state":"Rivers","description":"computer services networking and internet services inttercoms","rating":"","reviews":"","location":{},"category":"Schools","link":"https://www.businesslist.com.ng/company/253331/rnold-computer-and-communication","phone":"2348034039280","website":"www.arcomaclink.com"},{"name":"Stitches by Ozohu","address":"Plot 50, Govt Sec Sch road, Phase 4, Kubwa, Abuja, Abuja","state":"Abuja","description":"Stitches by Ozohu is a fashion designing outfit based in Abuja that deals in Custom made and ready to wear female clothing","rating":"","reviews":"","location":{"lat":"9.155186946946266","lng":"7.338449602722221"},"category":"Schools","link":"https://www.businesslist.com.ng/company/263462/stitches-by-ozohu","phone":"07056109862","website":""},{"name":"Oxbridge Montessori School","address":"29 Doctor Sam Wodo Road, off Abacha Road, Port Harcourt, Rivers State., Port Harcourt, Rivers","state":"Rivers","description":"Oxbridge Montessori School follows a system where the child is viewed as a unique being that is not an adult and who has distinct needs and capabilities. Oxbridge Montessori School activities promote ...","rating":"","reviews":"","location":{},"category":"Schools","link":"https://www.businesslist.com.ng/company/262424/oxbridge-montessori-school","imageUrl":"https://www.businesslist.com.ng/img/ng/a/1540466875-28-oxbridge-montessori-school.jpg","phone":"+234 (0) 706 366 1212","website":"oxbridgemontessori.com/"},{"name":"Imperial Gate School","address":"36 Rasheed Alaba Williams Street, Off Admiralty Drive, Lagos, Lagos","state":"Lagos","description":"Imperial Gate School, the best school in Lekki, provides a wholesome education in a safe, happy, stimulating and well-ordered community in which children are valued as individuals.","rating":"","reviews":"","location":{},"category":"Schools","link":"https://www.businesslist.com.ng/company/265030/imperial-gate-school","imageUrl":"https://www.businesslist.com.ng/img/ng/b/1567708045-32-imperial-gate-school.jpg","phone":"0909 532 4061","website":"imperialgateschool.com"},{"name":"Akahi Tutors","address":"Oduduwa College, Off Sabo Junction, Ile-Ife, Osun State, Lagos, Osun","state":"Osun","description":"Akahi Tutors is the Leading Tutorial Centre in Osun State. Intensive Tutorials for UTME/JAMB and SSCE is angrily in progress at Akahi Tutors, Opposite Mosque, Arubidi Street, Ile-Ife, Osun State. We a...","rating":"","reviews":"","location":{},"category":"Schools","link":"https://www.businesslist.com.ng/company/196549/akahi-tutors","imageUrl":"https://www.businesslist.com.ng/img/ng/d/1380753009_62668.jpg","phone":"08038644328","website":"www.akahitutors.org"}]