[{"name":"DIVINE HELP ACADEMY(IJMB/JUPEB)","address":"17, Opic Road (Redemption Way), Off Lagos/Ibadan Expressway, Near Ero Oil & Gas Filling Station, Loburo, Mowe, Ogun State, Nigeria., Ogun","state":"","description":"Is your Jamb Utme scores or your Waec result is deficient and can not guarantee your admission to the university of your choice? DON'T LOOSE HOPE. Apply for IJMB/JUPEB A/LEVEL Program You would re-sit...","rating":"4.0","reviews":"5 Reviews","location":{"lat":"6.821781459309133","lng":"3.448288816696163"},"category":"Schools","link":"https://www.businesslist.com.ng/company/266070/divine-help-academyijmbjupeb","imageUrl":"https://www.businesslist.com.ng/img/ng/d/1576588606-49-divine-help-academy-ijmb-jupeb.jpg","phone":"08023378722","website":"ijmbdivinehelp.com"},{"name":"Taby's cuisine:cakes and hospitality academy","address":"No 7 temidire stree eruda opp kwara stadium ,taiwo oke, Ilorin, Kwara","state":"Kwara","description":"At Tabys cuisine cakes and hospitality academy we are dedicated to tranning and bringing up enterpreneurs in the hospitalityindustry","rating":"5.0","reviews":"1 Review","location":{"lat":"8.580619092043591","lng":"4.604686718491657"},"category":"Schools","link":"https://www.businesslist.com.ng/company/266514/tabys-cuisinecakes-and-hospitality-academy","imageUrl":"https://www.businesslist.com.ng/img/ng/m/1580681999-84-taby-s-cuisine-cakes-and-hospitality-academy.jpg","phone":"0816083234309093174500","website":""},{"name":"BAGROT TRAVELS","address":"502 IKORODU ROAD ,KETU LAGOS 2ND FLOOR, Ikorodu, Lagos","state":"Lagos","description":"BAGROT TRAVELING AGENCY... Provide services such as :(1).visaprocessing(visiting visa,student visa)for different countries such as USA,CANADA,AUSTRALIA,china,Japan, Dubai,UK,We also do these countries...","rating":"4.8","reviews":"6 Reviews","location":{"lat":"6.598107529933798","lng":"3.3861494064331055"},"category":"Schools","link":"https://www.businesslist.com.ng/company/261059/bagrot-travels","imageUrl":"https://www.businesslist.com.ng/img/ng/e/1527974497-69-bagrot-travels.jpg","phone":"08053400046","website":""},{"name":"MRGL ACOUSTICS","address":"Suite D19, International Building Materials by Guard Polo Club Maitama , Abuja, Abuja","state":"Abuja","description":"MRGL Acoustics is recognized as one of the leading manufacturing and installers of acoustic insulation and sound absorption materials for use within both domestic and commercial buildings and our team...","rating":"5.0","reviews":"1 Review","location":{"lat":"9.087536742635228","lng":"7.5128557365951565"},"category":"Schools","link":"https://www.businesslist.com.ng/company/196957/mrgl-acoustics","imageUrl":"https://www.businesslist.com.ng/img/ng/r/1586601897-30-mrgl-acoustics.jpg","phone":"08060265041","website":"www.mrglacoustic.com"},{"name":"Eruditepen Writing Agency","address":"National Library, Lagos Island, Lagos","state":"Lagos","description":"Eruditepen is an academic and corporate writing organization with services including Writing, Research, Critique, Formatting and Editing, Proofreading, Consultancy, and much more. We offer the followi...","rating":"5.0","reviews":"1 Review","location":{"lat":"6.456246897871155","lng":"3.409854158167036"},"category":"Schools","link":"https://www.businesslist.com.ng/company/263973/eruditepen-writing-agency","imageUrl":"https://www.businesslist.com.ng/img/ng/c/1558144628-84-erudite-solutions.jpg","phone":"08107491323","website":"www.eruditepen.com"},{"name":"The PSK Dance Company","address":"43 egbelu street, off jeftoni junction, Rumuodara Portharcourt , Port Harcourt, Rivers","state":"Rivers","description":"Duly registered with the CAC with the Company registration number BN2685521 and ranking as one of Nigerias Best dance organization, The PSK has made it our goal is to satisfy our customers optimally. ...","rating":"5.0","reviews":"1 Review","location":{"lat":"4.858669656580473","lng":"7.033608332547601"},"category":"Schools","link":"https://www.businesslist.com.ng/company/260830/the-psk-dance-company","imageUrl":"https://www.businesslist.com.ng/img/ng/h/1586200718-53-the-psk-dance-company.jpg","phone":"080348284840812 475 5834","website":"puresaintskrew.business.site"},{"name":"Rainbow Manor Preschool","address":"Plot 190b, Prince Ade Odedina Street, Victoria Island extension., Lagos, Lagos","state":"Lagos","description":"Rainbow Manor is a preschool for six months olds to five year olds. We are also an after school club for up to eight year olds. It is located at Plot 190b Prince Ade Odedina Street, off Sinari Daranij...","rating":"4.5","reviews":"2 Reviews","location":{"lat":"6.4276","lng":"3.4374"},"category":"Schools","link":"https://www.businesslist.com.ng/company/256992/rainbow-manor-preschool","imageUrl":"https://www.businesslist.com.ng/img/ng/b/1538907583-91-rainbow-manor-preschool.jpg","phone":"01-2702586","website":"http//www.rainbowmanor.com.ng"},{"name":"Favoured Pearls School","address":"4, Dapo Adeoye Street, Off Deeper Life Church, Soluyi, Gbagada, Lagos, Lagos, Abia","state":"Abia","description":"FAVOURED PEARLS SCHOOL is a private Nursery and Primary school, established on September 26th, 2005, by Mrs Ezinne Ukpa. The school is passionately committed to the pursuit of an internationally accep...","rating":"","reviews":"","location":{"lat":"6.5624574","lng":"3.385494300000005"},"category":"Schools","link":"https://www.businesslist.com.ng/company/122617/favoured-pearls-school","imageUrl":"https://www.businesslist.com.ng/img/ng/x/1311682052_23021.jpg","phone":"234-8035534097","website":"www.favouredpearlsschool.com"},{"name":"Famlang International Language School","address":"No. 6 Timothy Lane (Off Rumuola Road), Port Harcourt, Rivers","state":"Rivers","description":"We offer flexible courses in: English German Spanish French Mandarin Hebrew Latin Russian All tailored to help you achieve your goals and vision. Our curriculum is of International standard. This mean...","rating":"5.0","reviews":"3 Reviews","location":{"lat":"4.8343244456585115","lng":"7.004124907737605"},"category":"Schools","link":"https://www.businesslist.com.ng/company/255905/famlang-international-language-school","imageUrl":"https://www.businesslist.com.ng/img/ng/d/1546496892-22-famlang-international-language-school.png","phone":"09052682650","website":"www.famlangng.com"},{"name":"Flashschoolnews","address":"279 Faulks Road, Aba, Abia","state":"Abia","description":"Flashschoolnews brings to you all the guides and news you need and seek in your education and work career, like Scholarships, university admission, examinations and recruitment.","rating":"5.0","reviews":"1 Review","location":{"lat":"5.106827668671723","lng":"7.330554003646853"},"category":"Schools","link":"https://www.businesslist.com.ng/company/261113/flashschoolnews","imageUrl":"https://www.businesslist.com.ng/img/ng/h/1528461802-58-flashschoolnews.jpg","phone":"09069366390","website":"flashschoolnews.blogspot.com"},{"name":"Christ Apple Mission International Inc","address":"Idumu-Obodo, Efandion, Uromi, Esan North-East Edo State, Edo","state":"","description":"The Church Christ Apple Mission, came to be as a result of God’s call on his servant, Apostle (Dr). C.O Ehidiamhen(JP). It was officially opened on May 15th 1994. The Ministry started in progress bu...","rating":"","reviews":"","location":{"lat":"6.714","lng":"6.3279"},"category":"Schools","link":"https://www.businesslist.com.ng/company/262325/christ-apple-mission-international-inc","imageUrl":"https://www.businesslist.com.ng/img/ng/k/1539597496-47-christ-apple-mission-international-inc.jpg","phone":"08075341917","website":"christapplemissionintl.blogspot.com/"},{"name":"MEL EDUCATIONAL SERVICES LTD","address":"GOLDCREST PLAZA, Km 23, Lekki Epe Expressway, Ikota 1st gate busstop, Lekki, Lagos, Lagos","state":"Lagos","description":"Mel Educational Services Ltd was established to provide consultancy services to help parents, students and organisations in Nigeria and Ghana with educational planning. We believes that we can recruit...","rating":"","reviews":"","location":{"lat":"6.450217463218502","lng":"3.5541028677619124"},"category":"Schools","link":"https://www.businesslist.com.ng/company/254089/mel-logistics-ltd","imageUrl":"https://www.businesslist.com.ng/img/ng/a/1559705902-77-mel-educational-services-ltd.jpg","phone":"0816508347408182125345","website":"www.meleducational.com"},{"name":"Natex Modeling Agency","address":"Alhaji Salami Street,Beside Be Happy Filling Station,Opposite Wema Bank,New Ife Road,Ibadan, Ibadan, Oyo","state":"Oyo","description":"We are a Professional Modeling Agency that Helps Aspiring Models Startup Professional Modeling Careers. We Scout intending models and aspiring models, kickstarting their modeling career. We Groom and ...","rating":"","reviews":"","location":{"lat":"7.397591263223661","lng":"3.947706537353941"},"category":"Schools","link":"https://www.businesslist.com.ng/company/264079/natex-modeling-agency","imageUrl":"https://www.businesslist.com.ng/img/ng/m/1583861453-13-natex-modeling-agency.jpg","phone":"+2348132830321","website":"natexmodelingagency.cw.center"},{"name":"Afridef Language School","address":"Umuohu-Azueke, Umuahia, Abia","state":"Abia","description":"One of the leading Language Schools in Nigeria with main campus at Umuohu-Azueke, Ndume Ibeku opposite Government College, Umuahia, Abia State. A very conducive place for learning of foreign languages...","rating":"","reviews":"","location":{"lat":"5.48902420405987","lng":"7.542750311543045"},"category":"Schools","link":"https://www.businesslist.com.ng/company/266168/afridef-language-school","imageUrl":"https://www.businesslist.com.ng/img/ng/x/1577636209-72-afridef-language-school.jpg","phone":"+2348106883722","website":"afridef-language-school.business.site"},{"name":"JASONCOMBS-ARTENTION","address":"4, ALAGBAYUN AREA BY RAINBOW B/STOP OFF OJOO/IWO ROAD EXPRESS WAY, IBADAN , OYO STATE, Ibadan, Oyo","state":"Oyo","description":"We are a resourceful creative/printing outfit centered on the use of Printing, Customized Garment production and various creative solutions in guaranteeing distinct brand/individual representation(s)....","rating":"","reviews":"","location":{"lat":"7.381748927181309","lng":"3.9503977256866847"},"category":"Schools","link":"https://www.businesslist.com.ng/company/262966/jasoncombs-artention","imageUrl":"https://www.businesslist.com.ng/img/ng/c/1546817807-32-jasoncombs-artention.jpg","phone":"08033545684","website":"www.jasoncombs.net"},{"name":"Vasilikos fashion outlet","address":"Onihaha area, taye Moganna junction, off tipper garage junction, akala express way, Ibadan, Ibadan, Oyo","state":"Oyo","description":"Vasilikos fashion outlet is your choice is unisex native and corporate wears. We run a standard fashion school with flexibilty and eliminate the bottlenecks of freedom and certification. We also run a...","rating":"","reviews":"","location":{"lat":"3.806698","lng":"7.329123"},"category":"Schools","link":"https://www.businesslist.com.ng/company/266552/vasilikos-fashion-outlet","imageUrl":"https://www.businesslist.com.ng/img/ng/k/1580678435-12-vasilikos-fashion-outlet.jpg","phone":"0805862746608171381275","website":"www.vasilikosfashionoutlet.com.ng"},{"name":"J.C.L Concept and Resources Ltd","address":"232, Borno way, Ebutte Metta Lagos, Ikeja, Lagos","state":"Lagos","description":"J.C.L Concept and Resources is a nascent company with it's focus on fabrication, installation, conversion, maintenance of Portacabins, Mobile steel structures, Aluminum structures and buildings. Our C...","rating":"","reviews":"","location":{"lat":"6.601859299775657","lng":"3.3508867346899933"},"category":"Schools","link":"https://www.businesslist.com.ng/company/262956/jcl-concept-and-resources-ltd","imageUrl":"https://www.businesslist.com.ng/img/ng/j/1546705211-38-j-c-l-concept-and-resources-ltd.jpg","phone":"08171104805","website":"www.jclconcepts.com"},{"name":"Addurrah Creations","address":"11, Oweh Street, Off Ikorodu road, BRT Bus stop Jibowu, Lagos, Lagos, Lagos","state":"Lagos","description":"Addurrah Smart-Tailor Sewing School is a training solutions company that provides a variety of Garment Production Training. We provide specialized Sewing and Pattern Construction trainings for fashion...","rating":"5.0","reviews":"3 Reviews","location":{"lat":"6.522670185591829","lng":"3.370325730125728"},"category":"Schools","link":"https://www.businesslist.com.ng/company/265945/addurrah-creations","imageUrl":"https://www.businesslist.com.ng/img/ng/j/1576744379-43-addurrah-creations.jpg","phone":"08096329885","website":"www.addurrahsmarttailors.com"},{"name":"Ave Maria International Academy","address":"East West Road, Opp Deeper Life Headquarters, Rumuodara, Port Harcourt, Rivers","state":"Rivers","description":"Ave Maria International Academy is a private co-educational Christian school. It is established on the foundation of discipline and excellence. Our main focus is to create a 21st century global standa...","rating":"","reviews":"","location":{"lat":"4.864564608801366","lng":"7.050755023956299"},"category":"Schools","link":"https://www.businesslist.com.ng/company/267022/ave-maria-international-academy","imageUrl":"https://www.businesslist.com.ng/img/ng/h/1583926793-63-ave-maria-international-academy.jpg","phone":"08141816661","website":"avemariainternationalacademy.com/"},{"name":"Qedems International School","address":"22 Lambekudaisi St. By Jimoh Bus stop Off Akowonjo Road Egbeda Alimosho Lga Lagos, Ikeja, Lagos","state":"Lagos","description":"qedems international school provides top creche, nursery, kindergarten, lower primary, upper primary, JSS1-JSS3, SS1-SS3, junior secondary, Senior secondary at Akowonjo, Alimosho Lga Lagos state Niger...","rating":"","reviews":"","location":{"lat":"6.60524947007961","lng":"3.302333400653083"},"category":"Schools","link":"https://www.businesslist.com.ng/company/260014/qedems-international-school","imageUrl":"https://www.businesslist.com.ng/img/ng/e/1517912399-22-qedems-international-school.jpg","phone":"08067113996","website":"qedemsinternationalschool.blogspot.com.ng/"},{"name":"Isdon Emelurumonye","address":"#2 Ifa Road Off Nwaniba Road, Uyo, Akwa Ibom","state":"Akwa Ibom","description":"Isdon is a speech and goal-attainment coach whose mission is to help you speak and get the result you want from your listener(s), and cultivate goal-friendly habits.","rating":"","reviews":"","location":{"lat":"5.0232988194591695","lng":"7.973314333835674"},"category":"Schools","link":"https://www.businesslist.com.ng/company/260329/isdon-emelurumonye","imageUrl":"https://www.businesslist.com.ng/img/ng/h/1521171373-75-isdon-emelurumonye.jpg","phone":"08169651919","website":"www.isdonemelurumonye.wordpress.com"},{"name":"The Performing Arts School Nigeria","address":"7B Unity Close, Off Africa Lane, Off Admiralty Road, Lekki Phase 1, Lagos, Lagos","state":"Lagos","description":"The Performing Art School Nigeria is a creative center that teaches various Performing Art forms like music & Instruments, dance, drama, painting, voice training and lots more. We offer a varied progr...","rating":"","reviews":"","location":{"lat":"6.4569254855119365","lng":"3.4725953097970432"},"category":"Schools","link":"https://www.businesslist.com.ng/company/262500/the-performing-arts-school-nigeria","imageUrl":"https://www.businesslist.com.ng/img/ng/l/1541175750-13-the-performing-arts-school-nigeria.jpg","phone":"07069077906","website":"www.pasnigeria.com"},{"name":"Tender steps schools","address":"plot 42 Aliara road Osin, Ilorin kwara state, Ilorin, Kwara","state":"Kwara","description":"SCHOOL VISION AND VALUES The Tender steps school’s vision reminds us of our core purpose. Our mission statement outlines our fundamental purpose and role in bringing that vision to life. Our strateg...","rating":"5.0","reviews":"1 Review","location":{"lat":"8.41263480527934","lng":"4.566965103149414"},"category":"Schools","link":"https://www.businesslist.com.ng/company/258730/tender-steps-schools","imageUrl":"https://www.businesslist.com.ng/img/ng/l/1502437550-22-tender-steps-schools.jpg","phone":"08038107768","website":""},{"name":"Bsingwears","address":"2 makolomi ughelli north 320001 ughelli, Ughelli, Delta","state":"Delta","description":"Bsingwears is all about fashion.It expresses a style that is relaxed, laid back and yet very detailed. The Bsing Woman/man is effortlessly stylish. Its about style that is both eternal, accessible, af...","rating":"5.0","reviews":"1 Review","location":{"lat":"5.485048","lng":"6.011273"},"category":"Schools","link":"https://www.businesslist.com.ng/company/267694/bsingwears","imageUrl":"https://www.businesslist.com.ng/img/ng/k/1589542225-80-bsingwears.jpg","phone":"0813 614 5803","website":"www.bsingwears.com"},{"name":"Fabiomatic Solutions","address":"162E, Akerele Extension, Surulere, Lagos, Lagos","state":"Lagos","description":"Fabiomatic Solutions is an IT Solution and Service company that specializes in developing Enterprise applications, Mobile applications, Website applications & developments, IT infrastructure (Laptops,...","rating":"","reviews":"","location":{"lat":"6.503337298129628","lng":"3.358627792437801"},"category":"Schools","link":"https://www.businesslist.com.ng/company/261732/fabiomatic-solutions","imageUrl":"https://www.businesslist.com.ng/img/ng/n/1533927538-53-fabiomatic-solutions.png","phone":"08067133437","website":"www.fabiomaticsolutions.com"},{"name":"Blend 'N Style Fashion House / School","address":"2nd Floor Iyabo Odili Villa, 124 Sapele Warri Road Sapele Delta State Nigeria , Sapele, Delta","state":"Delta","description":"At Blend N Style, we are into fashion designing, English and African wears. We make English gowns and suit, and children's wear. Our business is interested in catering for a growing number of people w...","rating":"","reviews":"","location":{"lat":"5.880167585118517","lng":"5.699951642852765"},"category":"Schools","link":"https://www.businesslist.com.ng/company/267043/blend-n-style-fashion-houseschool","imageUrl":"https://www.businesslist.com.ng/img/ng/s/1584030288-58-blend-n-style-fashion-house-school.jpg","phone":"O8033017655","website":"blend-n-style-fashion-house.business.site/"},{"name":"House of Cush Stitches","address":"22 Akinremi street, ikeja, lagos, Ikeja, Lagos","state":"Lagos","description":"we are into training services, made to fit garment and sales of ready to wear designs.we are involved in both men,women and children clothings targeting nigeria and the international market ","rating":"5.0","reviews":"1 Review","location":{"lat":"6.594483873429004","lng":"3.337526321411133"},"category":"Schools","link":"https://www.businesslist.com.ng/company/263314/house-of-cush-stitches","imageUrl":"https://www.businesslist.com.ng/img/ng/f/1550268933-20-house-of-cush-stitches.jpg","phone":"08095299717","website":""},{"name":"Pianowella","address":"101A Brookstone Close, G.R.A., Phase 2, Port Harcourt, Rivers","state":"Rivers","description":"Pianowella offers services for Piano Lessons, Violin Lessons, Guitar Lessons, Voice Training, Music Production Training, Music Script Writing, Choreography and many more. Music Learners connect with E...","rating":"","reviews":"","location":{"lat":"4.8228976872028815","lng":"6.992564286826905"},"category":"Schools","link":"https://www.businesslist.com.ng/company/264785/pianowella","imageUrl":"https://www.businesslist.com.ng/img/ng/b/1578659521-79-pianowella.jpg","phone":"+2348103302720","website":"www.pianowella.com"},{"name":"Agled Consulting Limited","address":"9A, IBRAHIM ONASHOLKUN STREET, IFAKO-GBAGADA, LAGOS, Lagos, Lagos","state":"Lagos","description":"AGLED Consulting Limited is a dynamic educational service provider that is poised to improving the quality of education through capacity development of school managers, administrators and classroom te...","rating":"","reviews":"","location":{"lat":"6.559845868053622","lng":"3.3921259293282446"},"category":"Schools","link":"https://www.businesslist.com.ng/company/265167/agled-consulting-limited","imageUrl":"https://www.businesslist.com.ng/img/ng/x/1568825502-49-agled-consulting-limited.png","phone":"07056650770","website":"www.agledconsulting.com.ng"},{"name":"Zarita kouture and Academy","address":"House 6, Road 12, Efab estate, Life camp , Abuja, Abuja","state":"Abuja","description":"Zarita kouture and Academy is a clothing brand catering to ready to wear and custom pieces for men and women. We also produce varieties of uniforms which includes construction uniforms, school uniform...","rating":"","reviews":"","location":{"lat":"9.065095316695071","lng":"7.39209161535233"},"category":"Schools","link":"https://www.businesslist.com.ng/company/263791/zarita-kouture-and-academy","imageUrl":"https://www.businesslist.com.ng/img/ng/f/1556205782-59-zarita-kouture-and-academy.jpg","phone":"+2348023042244","website":"www.zaritakouture.com"},{"name":"Flirty Fitness Ng","address":"Adedapo Williams Close, Lekki Phase 1, Lagos, Lagos","state":"Lagos","description":"Welcome to Nigeria’s home of Women’s Dance and Fitness experience. At Flirty Fitness Nigeria, we are committed to helping women to be in the best shape of their lives through feminine fitness clas...","rating":"","reviews":"","location":{"lat":"6.449523750082057","lng":"3.475429404477959"},"category":"Schools","link":"https://www.businesslist.com.ng/company/267687/flirty-fitness-ng","imageUrl":"https://www.businesslist.com.ng/img/ng/l/1589506427-93-flirty-fitness-ng.jpg","phone":"+234 7037373323","website":"www.flirtyfitnessng.com"},{"name":"Polanian Empire","address":"Beside Jambutu Primary School, Jimeta Adamawa State, Nigeria, Yola, Adamawa","state":"Adamawa","description":"We are into production and supply of School Instructional materials. our products are effective and efficient to use. They are affordable to all class of users. We are best known for effectiveness and...","rating":"","reviews":"","location":{"lat":"9.204978997478195","lng":"12.483309230596888"},"category":"Schools","link":"https://www.businesslist.com.ng/company/262610/polanian-empire","imageUrl":"https://www.businesslist.com.ng/img/ng/m/1542364832-99-polanian-empire.jpg","phone":"+2347038015309","website":"www.skulthings.blogspot.com"},{"name":"www.ecards.com.ng","address":"No 1 progress Road, Ikot Ekpene, Ikot-Ekpene, Akwa Ibom","state":"Akwa Ibom","description":"BUY INSTANT PINS We sell all kinds of Exams Scratch Cards Online Instant PIN Delivery at ecards.com.ng Buy WAEC, NECO, JAMB, NABTEB, GCE scratch cards, result checker. TOKEN and e-registration PINs on...","rating":"","reviews":"","location":{"lat":"5.181182408053499","lng":"7.710748094802852"},"category":"Schools","link":"https://www.businesslist.com.ng/company/265817/wwwecardscomng","imageUrl":"https://www.businesslist.com.ng/img/ng/z/1574226526-66-www-ecards-com-ng.jpg","phone":"08030998147","website":"www.ecards.com.ng"},{"name":"Mordiyah children academy","address":"28 kollinton street, yana ipaja, Lagos State, Alagbado, Lagos","state":"Lagos","description":"mordiyah college is a standard Muslim school that also teaches Islamic and Arabic education leading to success in Junior WAEC and Senior WAEC as well as certificate in Ibtidai & Idaadiy levels. We als...","rating":"","reviews":"","location":{"lat":"6.582550152443036","lng":"3.250436829686123"},"category":"Schools","link":"https://www.businesslist.com.ng/company/264473/mordiyah-children-academy","imageUrl":"https://www.businesslist.com.ng/img/ng/e/1563021599-62-mordiyah-children-academy.jpg","phone":"08187256312","website":"www.mca.com.ng"},{"name":"Skyline University Nigeria","address":"No 2 Zaria Road, Opposite Old Kano Line, Kano, Kano","state":"Kano","description":"Study in Skyline University Nigeria, the 1st International Private University in Kano, And Invest in a Career that will empower your passion. Call us on 09099992141 to Apply to our School of Science &...","rating":"","reviews":"","location":{"lat":"11.9888","lng":"8.5349"},"category":"Schools","link":"https://www.businesslist.com.ng/company/263085/skyline-university-nigeria","imageUrl":"https://www.businesslist.com.ng/img/ng/f/1548066820-47-skyline-university-nigeria.jpg","phone":"09099992141","website":"www.sun.edu.ng"},{"name":"B. Y. Mafit Limited","address":"MAN House, 77, Obafemi Awolowo Way, Ikeja, Lagos, Nigeria, Ikeja, Lagos","state":"Lagos","description":"TOEFL in Nigeria, SAT in Nigeria, GRE in Nigeria, GMAT in Nigeria, Registration and Classes, Foreign Admissions Processing","rating":"5.0","reviews":"1 Review","location":{"lat":"6.608488448411543","lng":"3.3513343334198"},"category":"Schools","link":"https://www.businesslist.com.ng/company/240394/b-y-mafit-limited","imageUrl":"https://www.businesslist.com.ng/img/ng/e/1464173750_79648.png","phone":"+2347063376716+2347064878630+2348116307744","website":"gregmattoeflnigeria.com"},{"name":"Cedarwood Schools","address":"6, Olaribigbe Street, 5Th Avenue, Rumuibekwe, Port Harcourt, Rivers State, Nigeria., Port Harcourt, Rivers","state":"Rivers","description":"Cedarwood School is a co-educational, English medium, British curriculum school, catering for pupils from 18months to 11 years: enabling children to grow and learn with confidence and enthusiasm in a ...","rating":"","reviews":"","location":{"lat":"4","lng":"7"},"category":"Schools","link":"https://www.businesslist.com.ng/company/267128/cedarwood-schools","imageUrl":"https://www.businesslist.com.ng/img/ng/n/1584555974-31-cedarwood-schools.jpg","phone":"+2348033122894+2348054311332","website":"www.cedarwoodschoolng.com/"},{"name":"At-Tanzeel Schools","address":"Olowojegudu street, off Faniyi street, off Ebute Igbogbo road, Ikorodu, Ikorodu, Lagos","state":"Lagos","description":"At-Tanzeel, by its name and meaning is a crystal reflection of knowledge at the highest and most modern level. It is one of the names by which the holiest Scripture – Al-Quran is called. Therein, al...","rating":"","reviews":"","location":{"lat":"6.591972459720818","lng":"3.5059438122880238"},"category":"Schools","link":"https://www.businesslist.com.ng/company/244380/at-tanzeel-schools","imageUrl":"https://www.businesslist.com.ng/img/ng/z/1519391039_33855.jpg","phone":"081058912740802876813808025816900","website":"www.attanzeelschools.com"},{"name":"The Voice of Jesus Welfare Ministry","address":"Panda Hotel 47A Ogba Road, Agege , By Alhaji Bus Stop, Lagos, Ikeja, Lagos","state":"Lagos","description":"The Voice of Jesus Welfare Ministry is a Christian church where we see the good in you at all times and deep rooted in deliverance, healing, salvation, breakthrough and righteousness. At The Voice Of ...","rating":"","reviews":"","location":{"lat":"6.621","lng":"3.3293"},"category":"Schools","link":"https://www.businesslist.com.ng/company/261774/the-voice-of-jesus-welfare-ministry","imageUrl":"https://www.businesslist.com.ng/img/ng/d/1534353568-43-the-voice-of-jesus-welfare-ministry.jpg","phone":"08085973378","website":"thevoiceofjesuswelfareministry.blogspot.com/"},{"name":"Gafunshi creations","address":"10 Bola Ademuyiwa street, off osolo way, by Aswani market Isolo, Oshodi, Lagos","state":"Lagos","description":"We are a female fashion brand located in Lagos Our core areas of expertise is in female garment creation for ready to wear and Bespoke tailoring. We also provide fashion design training for female gar...","rating":"","reviews":"","location":{"lat":"6.475475766131337","lng":"3.385704697545748"},"category":"Schools","link":"https://www.businesslist.com.ng/company/262900/gafunshi-creations","imageUrl":"https://www.businesslist.com.ng/img/ng/n/1546100175-57-gafunshi-creations.jpg","phone":"08177242580","website":"www.gafunshicreations.com"},{"name":"Tolumi, The Fashion People","address":"13, Okunola Abbas, Ibadan , Ibadan, Oyo","state":"Oyo","description":"Tolumi TFP's fashion school has without doubt proved to be the best in Ibadan. The trainer is London trained and is back to Nigeria, Ibadan to support and give back to the people of South West Nigeria...","rating":"","reviews":"","location":{"lat":"7.420399941338778","lng":"3.9128708839416504"},"category":"Schools","link":"https://www.businesslist.com.ng/company/253892/tolumi-the-fashion-people","imageUrl":"https://www.businesslist.com.ng/img/ng/j/1455679775-18-tolumi-the-fashion-people.jpg","phone":"08155032337","website":"www.tolumitfp.com"},{"name":"ZiviLand School","address":"40 Lowa Street, beside Redeemed Christain Church of God, Ikorodu, Lagos","state":"Lagos","description":"Founded in 2011, Ziviland is set up to offer every child the best opportunities to acquire cross cultural and cross disciplinary skills needed to function positively and purposefully in a fast changin...","rating":"","reviews":"","location":{"lat":"6.623241475878204","lng":"3.4930686961160973"},"category":"Schools","link":"https://www.businesslist.com.ng/company/255734/ziviland-school","imageUrl":"https://www.businesslist.com.ng/img/ng/x/1473224281-86-ziviland-school.jpg","phone":"0816742667","website":"www.myzivilandschool.com"},{"name":"Christine Creche Nursery and Primary School","address":"21 college road housing estate abakpa nike enugu, Enugu, Enugu","state":"Enugu","description":"We at Christine Primary school enugu aim at providing quality education with emphasis on discipline and character building. ","rating":"","reviews":"","location":{"lat":"6.483021834523304","lng":"7.520360038523108"},"category":"Schools","link":"https://www.businesslist.com.ng/company/264863/christine-creche-nursery-and-primary-school","imageUrl":"https://www.businesslist.com.ng/img/ng/s/1566408686-16-christine-creche-nursery-and-primary-school.jpg","phone":"08054026008","website":"facebook.com/christineprimaryschool/"},{"name":"Exclusive Uniforms & Corporate Designs Limited","address":"6 Jubliee/CMD Road, Magodo, Ikeja, Lagos, Lagos, Lagos","state":"Lagos","description":"We are glad to introduce our company, Exclusive Uniform and Corporate Design Limited, our company has climbed up to be one of the leading organizations engaged in manufacturing and supplying a wide ra...","rating":"","reviews":"","location":{"lat":"6.6197074277683265","lng":"3.3656015358765217"},"category":"Schools","link":"https://www.businesslist.com.ng/company/261597/exclusive-uniformscorporate-designs-limited","imageUrl":"https://www.businesslist.com.ng/img/ng/s/1532956952-15-exclusive-uniforms-corporate-designs-limited.jpg","phone":"+2348174585764","website":"www.exclusiveunifroms.com.ng"},{"name":"Noble Hall Leadership Academy For Girls","address":"Plot 273 Institutes and Research District, By Idu Yard, Jabi-Airport Road, Off Coca Cola Junction, Abuja, Abuja, Abuja","state":"Abuja","description":"Noble Hall Leadership Academy For Girls is a premier day and boarding secondary school in Abuja for girls between the ages of 10-16. Our world-class infrastructure and amenities allow our students to ...","rating":"","reviews":"","location":{"lat":"9.0220556","lng":"7.390417"},"category":"Schools","link":"https://www.businesslist.com.ng/company/267743/noble-hall-leadership-academy-for-girls","imageUrl":"https://www.businesslist.com.ng/img/ng/a/1592202282-16-noble-hall-leadership-academy-for-girls.jpg","phone":"+2348032032296","website":"noblehall.com"},{"name":"Little Weavers","address":"Maryland Mall, 350-360 Ikorodu road, Maryland, Lagos, Nigeria, Lagos, Lagos","state":"Lagos","description":" We are retailers of Afrocentric Clothing, African Costumes & Accessories exclusively for kids and teens. are a heritage brand for young people to connect, experience, appreciate and embrace African c...","rating":"","reviews":"","location":{"lat":"6.56734693437576","lng":"3.36715378468341"},"category":"Schools","link":"https://www.businesslist.com.ng/company/266071/little-weavers","imageUrl":"https://www.businesslist.com.ng/img/ng/m/1576589229-99-little-weavers.jpg","phone":"+2348020696886","website":"www.littleweavers1.com"},{"name":"Stylemaven","address":"No.53, Awolowo Avenue, Old Bodija, Ibadan, Ibadan, Oyo","state":"Oyo","description":"A womenswear brand that deals in ready to wear designs as well as custom made outfits for your events such as Owambes.","rating":"","reviews":"","location":{"lat":"7.418608270407656","lng":"3.8983391176575424"},"category":"Schools","link":"https://www.businesslist.com.ng/company/266176/stylemaven","imageUrl":"https://www.businesslist.com.ng/img/ng/e/1578753413-94-stylemaven.jpg","phone":"08114846514","website":"www.instagram.com/stylemaven_ng/?hl=en"},{"name":"The Kings Heritage School","address":"15, Dipo Abey Street, ojodu berger, lagos, Ikeja, Lagos","state":"Lagos","description":"A school founded by an educationist of several years of experience with a passion for impacting young lives. The King's Heritage school began in September 2007 as a crèche which later evolved into a ...","rating":"4.0","reviews":"1 Review","location":{"lat":"6.6257743381827705","lng":"3.3542847633361816"},"category":"Schools","link":"https://www.businesslist.com.ng/company/252612/the-kings-heritage-school","phone":"08182655369","website":"www.thekingsheritageschools.org"},{"name":"Testament Business Academy","address":"16, Akinola Ikare Street, Off Oke Igesu, Olorunishola, Ikeja, Lagos","state":"Lagos","description":"Testament Business Academy is one of the first four years (4) e-learning, open and distance learning program with a touch of in-class training and tutorial sessions in Nigeria higher education system ...","rating":"","reviews":"","location":{"lat":"6.590162358641739","lng":"3.294516180523715"},"category":"Schools","link":"https://www.businesslist.com.ng/company/260781/testament-business-academy","imageUrl":"https://www.businesslist.com.ng/img/ng/s/1525345494-10-testament-business-academy.png","phone":"09081108687","website":"www.teba.com.ng"},{"name":"Creme De La Creme Montessori Academy","address":"60 Oduduwa way, GRA Ikeja, Ikeja, Lagos","state":"Lagos","description":"A state of the Art Modern Montessori Preschool that caters for children from 3months old to 5years old. ","rating":"","reviews":"","location":{"lat":"6.5723789955369085","lng":"3.3553147315979004"},"category":"Schools","link":"https://www.businesslist.com.ng/company/253939/creme-de-la-creme-montessori-academy","imageUrl":"https://www.businesslist.com.ng/img/ng/h/1430744191-55-creme-de-la-creme-montessori-academy.jpg","phone":"+234-1-295199","website":"www.cremedelacremepreschool.com"},{"name":"IELTS, TOEFL, GRE, SAT Exams in Port Harcourt","address":"Unique Educational Consulting, Suite 23 & 24 Hilltop Plaza, Trans - Woji Road, After YKC, Woji, Port Harcourt, Port Harcourt, Rivers","state":"Rivers","description":"TOEFL exam registration and Training , IELTS Exam Registration and Lecture , PTE Exam Registration and Lecture; SAT Exam Registration and Lecture; GRE Exam Registration and Lecture; GMAT Exam Registra...","rating":"","reviews":"","location":{"lat":"4.825404707070917","lng":"7.057709874514999"},"category":"Schools","link":"https://www.businesslist.com.ng/company/263224/ielts-toefl-gre-sat-exams-in-port-harcourt","imageUrl":"https://www.businesslist.com.ng/img/ng/l/1549484859-39-ielts-toefl-gre-sat-exams-in-port-harcourt.jpg","phone":"08137361341","website":"www.uniqueduconsult.com"},{"name":"Arcadia Montessori School, Victoria Island","address":"240a Kofo Abayomi, Victoria Island Lagos Nigeria, Lagos, Lagos","state":"Lagos","description":"Arcadia Montessori school is an amazing daycare and nursery school in Victoria Island, Lagos. We are setting the new standard for excellence in early learning. Our mission is to provide a warm, nurtur...","rating":"","reviews":"","location":{"lat":"6.436105689269697","lng":"3.421487853930671"},"category":"Schools","link":"https://www.businesslist.com.ng/company/259879/arcadia-montessori-school-victoria-island","imageUrl":"https://www.businesslist.com.ng/img/ng/l/1518070529-87-arcadia-montessori-school-victoria-island.png","phone":"08092220519","website":"arcadia-school.com/"},{"name":"MUSTPASS HOME TUTORS","address":"496, Ikorodu Road, Ketu, Lagos, Lagos, Lagos","state":"Lagos","description":"Mustpass Home Tutors is a professional Tutors handling children and adults at the following levels: -NURSERY 1-2 -PRY 1-6, JS1-3 and SS1-3 -COMMON ENTRANCE -WAEC/NECO(SSCE/GCE) -UTME(JAMB) -POST UTME ...","rating":"","reviews":"","location":{"lat":"6.499782694387686","lng":"3.378167152404785"},"category":"Schools","link":"https://www.businesslist.com.ng/company/253452/mustpass-home-tutors","imageUrl":"https://www.businesslist.com.ng/img/ng/b/1420862899-mustpass-home-tutors.png","phone":"08093583405","website":"www.mptutorsng.com"},{"name":"FAB EDUCATION","address":"Suite 22, OGB Plaza, Majekodunmi Street, Beside Edo Line, Utako District, Abuja info@fabeducation.org, Abuja, Abuja","state":"Abuja","description":"We specialize in Educational Services, Property Management, Information Technology, Immigration Services etc. Our team of education consultants are experienced in guiding and placing students into sch...","rating":"","reviews":"","location":{"lat":"9.068219","lng":"7.448733"},"category":"Schools","link":"https://www.businesslist.com.ng/company/259671/fab-education","imageUrl":"https://www.businesslist.com.ng/img/ng/j/1513686082-60-fab-education.png","phone":"+2348063325541","website":"fabeducation.org/"},{"name":"WEARGUARD EQUIPMENT LTD.","address":"123 Aba road by Wami Street Junction. St. John's bus stop. Oroworukwo Town. , Port Harcourt, Rivers","state":"Rivers","description":"* Personal Protective Equipment (PPE) procurement and supplies. * Industrial work-clothes * Sales & Service of Industrial Sewing Machines and other Textile & Fashion Industry Equipment * Textile & Fas...","rating":"","reviews":"","location":{"lat":"4.813941032076471","lng":"7.009870433794276"},"category":"Schools","link":"https://www.businesslist.com.ng/company/255105/wearguard-equipment-ltd","imageUrl":"https://www.businesslist.com.ng/img/ng/n/1528437581-42-wearguard-equipment-ltd.jpg","phone":"08056036779","website":""},{"name":"HOMEWORKS TUTORING SERVICE","address":"299 Herbert Macaulay Way, Sabo, Yaba. Lagos, Lagos, Lagos","state":"Lagos","description":" Our platform is designed to help students improve their knowledge and understanding of basic concepts underlying the different subject areas by connecting them to top online and home tutors. At homew...","rating":"","reviews":"","location":{"lat":"6.505163060109237","lng":"3.378167152404785"},"category":"Schools","link":"https://www.businesslist.com.ng/company/259458/homeworksng","imageUrl":"https://www.businesslist.com.ng/img/ng/s/1511073316-54-homeworks-ng.png","phone":"08091278837","website":"www.homeworks.ng"},{"name":"Edugrade Services","address":"75, OLD AIRPORT ROAD, OPP. LIGHT HOUSE CHURCH, IBADAN, Ibadan, Oyo","state":"Oyo","description":"Edugrade Services offers international exam registrations and trainings. TOEFL, GRE, IELTS, MCAT, LSAT, CGFNS, PTE. we also offer Alevel Registration (JUPEB, IJMB and CAMBRIDGE). ","rating":"","reviews":"","location":{"lat":"7.331991","lng":"3.879167"},"category":"Schools","link":"https://www.businesslist.com.ng/company/265107/edugrade-services","imageUrl":"https://www.businesslist.com.ng/img/ng/l/1568383054-66-edugrade-services.jpg","phone":"09034204464","website":"internationalexam.com"},{"name":"Global Heirs Corporate Services","address":"Nova Road 6, Adebayo, Ado Ekiti, Akure, Ondo","state":"Ondo","description":"Global Heirs Corporate Services is Africa foremost model urban solution provider by signature service and professional programs Global Heirs Corporate Services is a result driven business and school d...","rating":"","reviews":"","location":{"lat":"7.657375464365458","lng":"5.22714135943454"},"category":"Schools","link":"https://www.businesslist.com.ng/company/261501/global-heirs-corporate-services","imageUrl":"https://www.businesslist.com.ng/img/ng/d/1532015526-21-global-heirs-corporate-services.png","phone":"08038934814","website":"www.globalheirng.com"},{"name":"Angels on Mission School","address":"15 Somosu Street by Nepa Bus Stop, Aguda, surulere, Lagos, Lagos","state":"Lagos","description":"","rating":"4.0","reviews":"1 Review","location":{"lat":"6.494404307396666","lng":"3.3437361679871174"},"category":"Schools","link":"https://www.businesslist.com.ng/company/253355/angels-on-mission-school","phone":"080330183450808159386908033076985","website":"www.angelsonmissionschool.org"},{"name":"Compass Tutors Limited","address":"Crosstown Mall, 75A, Iju Road, Suite 25 & 26, Agege, Lagos, Lagos, Lagos, Lagos","state":"Lagos","description":"About Compass Tutors- Leading Professional Tutoring Company in Nigeria Compass Tutors is a registered educational services provider with Corporate Affairs Commission and a member of reputable educatio...","rating":"","reviews":"","location":{"lat":"6.623303149574186","lng":"3.328855083392341"},"category":"Schools","link":"https://www.businesslist.com.ng/company/258893/compass-tutors-limited","imageUrl":"https://www.businesslist.com.ng/img/ng/c/1504318695-62-compass-tutors-limited.png","phone":"07037142686","website":"compasstutors.com.ng"},{"name":"Harryfield Montessori Schools","address":"67a, Odukpani Road, Off Wapi, Junction. Calabar, Cross River State, Nigeria,, Calabar, Cross River","state":"Cross River","description":"HarryField Montessori school is the leading school for providing best, practical, exciting, intuitive, montessori method and curriculum lead education in Nigeria. Situated in the heart of Cross River ...","rating":"","reviews":"","location":{"lat":"5","lng":"8"},"category":"Schools","link":"https://www.businesslist.com.ng/company/263354/harryfield-montessori-schools","imageUrl":"https://www.businesslist.com.ng/img/ng/g/1550713188-39-harryfield-montessori-schools.jpg","phone":"08038764021","website":"www.harryfieldschools.com/"},{"name":"YABATECH FILM ACADEMY","address":"Herbert Macauley Road Surulere, Lagos, Lagos, Lagos","state":"Lagos","description":"YABATECH FILM ACADEMY is the foremost film college in Nigeria. Set up to bridge the technical deficiency in the ever growing multimedia industry not just in Nigeria but the West African sub region. We...","rating":"","reviews":"","location":{"lat":"6.517839","lng":"3.371238"},"category":"Schools","link":"https://www.businesslist.com.ng/company/258304/yabatech-film-academy","imageUrl":"https://www.businesslist.com.ng/img/ng/h/1497861162-93-yabatech-film-academy.jpg","phone":"+234 802 310 5241","website":"www.yabatechfilmacademy.com"},{"name":"Laurels Schools","address":"80 Mini-Orlu Road, Off Ada-George Road, Port Harcourt, Rivers State, Nigeria., Port Harcourt, Rivers","state":"Rivers","description":"aurels Schools was borne out of passion for student and the need to bring them up academically, morally and spiritually to an enviable height. Our resolve as clearly emphasized in our school anthem is...","rating":"","reviews":"","location":{"lat":"4.8194409991117055","lng":"6.977643967838958"},"category":"Schools","link":"https://www.businesslist.com.ng/company/257635/laurels-schools","imageUrl":"https://www.businesslist.com.ng/img/ng/z/1490333105-60-laurels-schools.jpg","phone":"+2347038788985+2348035532764","website":"www.laurelsschoolsonline.com"},{"name":"LEXNOTES BOOKSTORE","address":"299 Herbert Macaulay Way, Yaba. Lagos, Lagos, Lagos","state":"Lagos","description":"LEXNOTES is a leading retailer of digital content and educational products in Nigeria. Recently, Schools and Libraries are experiencing rapid shift in demand from print contents to digital contents. H...","rating":"","reviews":"","location":{"lat":"6.503031103573978","lng":"3.3776092529296875"},"category":"Schools","link":"https://www.businesslist.com.ng/company/259452/lexnotescomng","imageUrl":"https://www.businesslist.com.ng/img/ng/k/1510994845-42-lexnotes-com-ng.png","phone":"08091278837","website":"www.lexnotes.com.ng"},{"name":"J-World Academy","address":"Block 18, Road 16, Ikota villa estate, Lagos Island, Lagos","state":"Lagos","description":"With J-World academy, the participant learns music and film production, multimedia, instruments and others. J-World academy owns a hostel, which allows the participants to stay for a year or more. J-W...","rating":"","reviews":"","location":{"lat":"6.443865399277938","lng":"3.554664079550207"},"category":"Schools","link":"https://www.businesslist.com.ng/company/261464/j-world-academy","imageUrl":"https://www.businesslist.com.ng/img/ng/n/1531746051-90-j-world-academy.jpg","phone":"08063154192","website":"www.jworldntertainment.com.ng"},{"name":"Robenterprise","address":"Shop 5, first floor, Opeyemi shopping complex,old barracks road Olege area, Ojoo Ibadan., Ibadan, Oyo","state":"Oyo","description":"Robenterprise is a clothing brand located at Ojoo Ibadan. We are into fashion designing be it bespoke, ready to wear and training @Robe fashion academy. Also we are into mass production and supply to ...","rating":"","reviews":"","location":{"lat":"7.389057245897446","lng":"3.9660681408123155"},"category":"Schools","link":"https://www.businesslist.com.ng/company/266509/robenterprise","imageUrl":"https://www.businesslist.com.ng/img/ng/m/1580309903-58-robenterprise.jpg","phone":"07016575951","website":""},{"name":"Tonality Music International (School)","address":"17 Akinremi street, Anifowoshe, Ikeja, Ikeja, Lagos","state":"Lagos","description":"Tonality Music is in to comprehensive music works, Music education for Primary, Secondary and Higher Colleges of Learning. We train all age groups in music, voice and instruments playing (guitar, pian...","rating":"","reviews":"","location":{"lat":"6.598150161029254","lng":"3.3378052711486816"},"category":"Schools","link":"https://www.businesslist.com.ng/company/258977/tonality-music-international","imageUrl":"https://www.businesslist.com.ng/img/ng/d/1505431291-60-tonality-music-international.jpg","phone":"08055972777","website":"www.tonalitymusic.com.ng"},{"name":"Annieblac outfits","address":"Enugu, Enugu, Enugu","state":"Enugu","description":"Annieblac Outfits is a one stop shop for female wears. We create your Every-day female casuals, semi formal wears. We have ready to wear ankara casuals and semi- formal wears in stock. Visit our Socia...","rating":"","reviews":"","location":{"lat":"6.438705736340087","lng":"7.506322860717773"},"category":"Schools","link":"https://www.businesslist.com.ng/company/263137/annieblac-outfits","imageUrl":"https://www.businesslist.com.ng/img/ng/h/1548577632-31-annieblac-outfits.jpg","phone":"09020099347","website":"www.annieblac.business.site"},{"name":"TSH Fashion Institute","address":"No 9 Taiwo Jowosimi close, off ogbomosho street, ojokoro road, Ikorodu, Lagos","state":"Lagos","description":"ABOUT US TSH Fashion Institute aims to be a globally recognized center of fashion learning which provides well crafted curriculum in fashion design, garment production and business management. OUR MIS...","rating":"","reviews":"","location":{"lat":"6.64620449319828","lng":"3.4983541935412177"},"category":"Schools","link":"https://www.businesslist.com.ng/company/260677/tsh-fashion-institute","imageUrl":"https://www.businesslist.com.ng/img/ng/h/1538983630-81-the-samplist-hub.jpg","phone":"+2348063309949","website":""},{"name":"Parliamentary International School","address":"Plot 868, Jonathan Mariere Road, Gudu District, Apo, Abuja, Abuja","state":"Abuja","description":"Parliament International School is located at Plot No. 868, Jonathan Mariere Street, behind Apo Legislative Quarters, Gudu district of F.C.T Abuja. Its constructive location within a walking distance ...","rating":"","reviews":"","location":{"lat":"9.01274","lng":"7.49118"},"category":"Schools","link":"https://www.businesslist.com.ng/company/215613/parliamentary-international-school","imageUrl":"https://www.businesslist.com.ng/img/ng/e/1513622414_40720.png","phone":"0803587523508085147049","website":"www.parliamentinternationalschool.com.ng/"},{"name":"Abti-American University Of Nigeria","address":"98 Lamido Zubairu Way, Wuro Hausa 640101, Yola, Adamawa","state":"Adamawa","description":"The goal of AUN is to train the future leaders of Africa and to serve as both a stimulus and agent of economic development throughout the region. All students, regardless of academic specialization, r...","rating":"","reviews":"","location":{"lat":"9.1991766","lng":"12.4987763"},"category":"Schools","link":"https://www.businesslist.com.ng/company/122403/abti-american-university-of-nigeria","imageUrl":"https://www.businesslist.com.ng/img/ng/g/1537785870-74-abti-american-university-of-nigeria.jpg","phone":"+2347563501708036200067","website":"www.aun.edu.ng"},{"name":"AMIORA FASHION HUB","address":"Asake plaza, 7up B/stop, Monatan, Ibadan., Ibadan, Oyo","state":"Oyo","description":"We are known for provision of satisfactory services in the Fashion world. We focus mainly on styling,Fashion designing, Bespoke tailoring,abaya and Fashion consultancy. Contact us today to join our sa...","rating":"","reviews":"","location":{"lat":"7.411724063391656","lng":"3.9532607140576603"},"category":"Schools","link":"https://www.businesslist.com.ng/company/265753/amiora-fashion-hub","imageUrl":"https://www.businesslist.com.ng/img/ng/h/1589279377-88-amiora-fashion-hub.png","phone":"08104866156","website":""},{"name":"English Den Enterprise","address":"11, Jokogbola Str, Off Ikorodu Club, Gbasemo, Aga, Ikorodu, Lagos","state":"Lagos","description":"English Den is an English language learning hub where English language learning challenges are solved by providing private English tutors or on-site learning contacts. To ensure English language learn...","rating":"","reviews":"","location":{"lat":"6.6","lng":"3.5087"},"category":"Schools","link":"https://www.businesslist.com.ng/company/265296/english-den-enterprise","imageUrl":"https://www.businesslist.com.ng/img/ng/e/1569912677-51-english-den-enterprise.jpg","phone":"09062547575","website":"www.englishden.com.ng"},{"name":"Shining Light Schools","address":"21, Church Street Onipanu Lagos, Mushin, Lagos","state":"Lagos","description":"Shining Light School is an educational institution that was birthed in 2006 with the aim of sustaining children safety, intellectual learning skill, team-work, and parent’s satisfaction.","rating":"5.0","reviews":"1 Review","location":{"lat":"6.533858037917404","lng":"3.3621506914880106"},"category":"Schools","link":"https://www.businesslist.com.ng/company/266358/shining-light-schools","imageUrl":"https://www.businesslist.com.ng/img/ng/z/1579180840-52-shining-light-schools.png","phone":"+2348021224337","website":""},{"name":"WWW.MYCYBERTELLER.COM","address":"AGBOR, Agbor, Delta","state":"Delta","description":"We sell all kinds of Exams Scratch Cards with Online Instant PIN Delivery Solution at www.mycyberteller.com BUY WAEC Result Checker Scratch Online Nigeria, WAEC Nov/Dec GCE Form Online, WAEC Result Ve...","rating":"","reviews":"","location":{"lat":"6.251383891171807","lng":"6.194795746093746"},"category":"Schools","link":"https://www.businesslist.com.ng/company/258021/great-kennet-ict-co-nig-ltd","imageUrl":"https://www.businesslist.com.ng/img/ng/b/1494769472-75-great-kennet-ict-co-nig-ltd.png","phone":"08036240369","website":"mycyberteller.com"},{"name":"Unique TOEFL centre in Port Harcourt","address":"Unique Educational Consulting, No.1 Omoku/Ndashi Street, off Olu-Obasanjo Police Station, D-Line, Port Harcourt, Rivers","state":"Rivers","description":"We offer affordable Registration with Study Materials and Training fees for IELTS,PORT-HARCOURT. We also offer affordable registration with the study material and Training fee for the following SAT TO...","rating":"","reviews":"","location":{"lat":"4.804173605541869","lng":"6.999526086123524"},"category":"Schools","link":"https://www.businesslist.com.ng/company/263257/unique-toefl-centre-in-port-harcourt","imageUrl":"https://www.businesslist.com.ng/img/ng/l/1549694436-11-ielts-exam-training-and-registration.jpg","phone":"08035719790","website":"www.uniqueduconsult.com"},{"name":"Coat of Comfort Academy","address":"ISAIAH 41:31 PLACE, PRECIOUS PALM ROYAL DRIVE, PRECIOUS PALM ROYAL HOTEL, BENIN-LAGOS EXPRESSWAY, ISIOHOR, BENIN CITY, Benin City, Edo","state":"Edo","description":"Coat of Comfort Academy is a school situated in a serene and secured environment. We admit infants to age 12 children, we operates hybrid curricula consisting of American and Nigerian curricula to pro...","rating":"","reviews":"","location":{"lat":"6.40616360071452","lng":"5.604963927386507"},"category":"Schools","link":"https://www.businesslist.com.ng/company/257936/coat-of-comfort-academy","imageUrl":"https://www.businesslist.com.ng/img/ng/n/1549240551-65-coat-of-comfort-academy.jpg","phone":"08187454438","website":"cclc4you.wixsite.com/coatofcomfortng"},{"name":"Divine Triumph International School","address":"Off Road 7 Junction, Umuguma Road Imo Housing Estate, Owerri, Imo","state":"Imo","description":"Founded in 2016, Divine Triumph International School began as a small primary school with a curriculum based on a perfect blend of the National Curriculum for England and Nigeria Today it offers an in...","rating":"","reviews":"","location":{"lat":"5.4779116013351","lng":"6.987133026123"},"category":"Schools","link":"https://www.businesslist.com.ng/company/264232/divine-triumph-international-school","imageUrl":"https://www.businesslist.com.ng/img/ng/j/1560806063-39-divine-triumph-international-school.png","phone":"0803 382 4829","website":"dtis.business.site/"},{"name":"Blueridge International School","address":"22 Rotimi Amaechi Drive,G.R.A. Phase 2, Port Harcourt, Rivers","state":"Rivers","description":"Blueridge International School is a private nursery and primary school located in a warm, safe and serene environment in the heart of Port Harcourt, Rivers State. Here, children have the advantage and...","rating":"","reviews":"","location":{"lat":"85.05112877980659","lng":"-180"},"category":"Schools","link":"https://www.businesslist.com.ng/company/264576/blueridge-international-school","imageUrl":"https://www.businesslist.com.ng/img/ng/s/1563959002-26-blueridge-international-school.jpg","phone":"+234-809-992-1147","website":"blueridgeschool.com.ng"},{"name":"Denmin British Montessori School","address":"10, 1st Uwadia Street off 19th Street by 1st transformer and off Adolor College Road by Kingdom Hall of Jehovah's witnesses, EDPA Estate, Ugbowo, Benin City., Benin City, Edo","state":"Edo","description":"Denmin British Montessori Academy is a modern British standard Nursery and primary school that breed children for excellent performance presently to meet early childhood challenges and for future aspi...","rating":"","reviews":"","location":{"lat":"6.394315409541513","lng":"5.59950359458818"},"category":"Schools","link":"https://www.businesslist.com.ng/company/266413/denmin-british-montessori-school","imageUrl":"https://www.businesslist.com.ng/img/ng/r/1579558072-42-denmin-british-montessori-school.jpg","phone":"7055056025","website":""},{"name":"Mikary Music Academy","address":"79 Evo road phase II, Port Harcourt, Port Harcourt, Rivers","state":"Rivers","description":"Mikary Music Academy is one of Nigeria's leading music institute offering multifaceted training programs for all categories of people. The Academy, founded in 2012, has successfully trained over 400 p...","rating":"","reviews":"","location":{"lat":"4.8201064781797225","lng":"6.996350722431657"},"category":"Schools","link":"https://www.businesslist.com.ng/company/262241/mikary-music-academy","imageUrl":"https://www.businesslist.com.ng/img/ng/d/1538740665-49-mikary-music-academy.png","phone":"08102309264","website":"www.mikarymusicacademy.com"},{"name":"GLOBAL COLLEGE OF MARINE AND TECHNOLOGY","address":"Udu-Ughelli Road, Ujevwu Town, Warri, Delta","state":"Delta","description":"A college providing technology innovative training through vocational education ","rating":"","reviews":"","location":{"lat":"5.4653014266325926","lng":"5.8256614208221436"},"category":"Schools","link":"https://www.businesslist.com.ng/company/129382/global-college-of-marine-and-technology","imageUrl":"https://www.businesslist.com.ng/img/ng/n/1439489726_12028.jpg","phone":"080527599780802896024808022779727","website":"www.globalcollegeofmarinetec.com"},{"name":"DeQeo Consulting","address":"Suite 27, EDPA Shopping Complex, Ugbowo","state":"","description":"We are a small team of individuals with first-hand experience of what it's like to live and study in a school abroad. Our wealth of knowledge and experience, combined with links to universities abroad...","rating":"","reviews":"","location":{"lat":"6.395387588339768","lng":"5.60477614402771"},"category":"Schools","link":"https://www.businesslist.com.ng/company/149824/deqeo-consulting","imageUrl":"https://www.businesslist.com.ng/img/ng/a/1379307410_79979.png","phone":"0817 921 3293","website":"www.deqeoconsulting.info"},{"name":"LADOKE AKINTOLA UNIVERSITY OF TECHNOLOGY LAUTECH Student Portal","address":" P.M.B 4000, Ogbomosho Rd, Ogbomosho, Oyo","state":"","description":"Ladoke Akintola University of Technology is an autonomous public institution with the general function of providing liberal higher education and encouragement to the rapid advancement of learning thro...","rating":"","reviews":"","location":{"lat":"8.1676879","lng":"4.2669114"},"category":"Schools","link":"https://www.businesslist.com.ng/company/191649/ladoke-akintola-university-of-technology","imageUrl":"https://www.businesslist.com.ng/img/ng/j/1537817852-74-ladoke-akintola-university-of-technology.jpg","phone":"+(234)80-7903-8989+(234)90-9450-7494","website":"www.lautech.edu.ng"},{"name":"Greatness Church","address":"Springfield Event Centre, 92 Ifelodun Street, Jumoke Bus Stop Orisumbare - Ejigbo Road Lagos, Lagos, Lagos","state":"Lagos","description":"Greatness Church exists to raise solution providers, with a mission to call out the greatness in men and women so they can be light and salt that will influence their world as they make maximum impact...","rating":"","reviews":"","location":{"lat":"6.5839","lng":"3.2433"},"category":"Schools","link":"https://www.businesslist.com.ng/company/263324/greatness-church","imageUrl":"https://www.businesslist.com.ng/img/ng/l/1550478999-68-greatness-church.jpg","phone":"08073575436","website":"www.instagram.com/greatnesschurchng"},{"name":"Metropolitan School of Business and Management UK (Lagos)","address":"44 Aba Johnson Street, off Adeniyi Jones, Ikeja, Lagos, Ikeja, Lagos","state":"Lagos","description":"Metropolitan School of Business and Management UK (Lagos Branch) is a world class business school located in the heart of London, Dubai, Lagos and Abuja. MSBM UK is one of the fastest growing British ...","rating":"","reviews":"","location":{"lat":"6.610881","lng":"3.346938"},"category":"Schools","link":"https://www.businesslist.com.ng/company/256752/metropolitan-school-of-business-and-management","imageUrl":"https://www.businesslist.com.ng/img/ng/n/1476364215-22-metropolitan-school-of-business-and-management.png","phone":"+234 818 561 2064","website":"www.msbm.edu.ng"},{"name":"TEKFIRE EDUCATION","address":"12 mike opeseyi street , Lagos, Lagos","state":"Lagos","description":"Tekfire Education School Management provides a comprehensive package of management services. These services are designed to provide a framework for best practices, academic accountability, achievement...","rating":"","reviews":"","location":{"lat":"6.490591","lng":"3.180577"},"category":"Schools","link":"https://www.businesslist.com.ng/company/264509/tekfire-education","imageUrl":"https://www.businesslist.com.ng/img/ng/m/1563353460-39-tekfire-education.png","phone":"++234-09066943732","website":"www.school.tekfireseo.com"},{"name":"Nile University of Nigeria","address":"Plot 681, Cadastral Zone C-OO, Research & Institution Area, Jabi Airport Bypass, Abuja, Abuja","state":"Abuja","description":"Tertiary level education forms the bedrock of high level manpower development in any nation. This highlights the need for a qualitative education at this level. There is a dearth of instructions and i...","rating":"","reviews":"","location":{"lat":"9.0170431","lng":"7.3913302"},"category":"Schools","link":"https://www.businesslist.com.ng/company/122452/nigerian-turkish-international-college","imageUrl":"https://www.businesslist.com.ng/img/ng/h/1537785479-36-nigerian-turkish-international-college.jpg","phone":"+23480 6735 0919+23480 5489 2616","website":"www.nileuniversity.edu.ng"},{"name":"Global Networks Educational Services Coy","address":"6 Ajoke Akinbami Close, Off Mobolaji Bank Anthony Way, Ikeja, Lagos","state":"Lagos","description":"Global networks educational services company provides study abroad program to students who wishes to study in UK, USA, Australia, Canada. visa advise","rating":"","reviews":"","location":{"lat":"6.593860083038258","lng":"3.3467410450743955"},"category":"Schools","link":"https://www.businesslist.com.ng/company/240330/global-network-educational-services","phone":"8033749866","website":"www.globalnetworksedu.com"},{"name":"Speech Theatre","address":"#2 Ifa Road Off Nwaniba Road , Uyo, Akwa Ibom","state":"Akwa Ibom","description":"Speech Theatre is a communication-training school that equips people with the necessary communication skills and knowledge they need to reach their life and career goals, and lead the life of dignity ...","rating":"","reviews":"","location":{"lat":"5.0225959579273844","lng":"7.979896566578191"},"category":"Schools","link":"https://www.businesslist.com.ng/company/260299/speech-theatre","imageUrl":"https://www.businesslist.com.ng/img/ng/d/1521164581-83-speech-theatre.jpg","phone":"07036249858","website":""},{"name":"Kanga Couture","address":"24 Mai Angwa Street Romi Kaduna, Kaduna, Kaduna","state":"Kaduna","description":"AIMS Many people have lifted themselves to the zenith through fashion, vising from adverse situations into building a sustainable living which has affected their lives. So our aim is use this as a pla...","rating":"","reviews":"","location":{"lat":"10.43445059597203","lng":"7.421794616177408"},"category":"Schools","link":"https://www.businesslist.com.ng/company/262691/kanga-couture","imageUrl":"https://www.businesslist.com.ng/img/ng/m/1543399279-26-kanga-mercy.jpg","phone":"08055794924","website":"www.kadunafashionweek.com"},{"name":"Dat Apparel","address":"Shodunke close,off Okanlawon street Ifo LGA 100216 Akute Nigeria, Ifo, Ogun","state":"Ogun","description":"Classic designs is what we do to give clothing a very good looking and also giving the wearer respect.","rating":"","reviews":"","location":{"lat":"6.69698","lng":"3.34506"},"category":"Schools","link":"https://www.businesslist.com.ng/company/263028/dat-apparel","imageUrl":"https://www.businesslist.com.ng/img/ng/e/1547227832-70-dat-apparel.png","phone":"08023041187","website":"datapparel.business.site/"},{"name":"Helping Hands Special School","address":"House 60, A1 Close, 4th Avenue, opposite 401 Junction, Festac, Amuwo Odofin, Lagos","state":"","description":"At Helping Hands Special School, We offer an individualised specially designed programmes that help children who are struggling with educational under-acheivement, learning difficulties, speech delays...","rating":"","reviews":"","location":{"lat":"6.4750323","lng":"3.2881495"},"category":"Schools","link":"https://www.businesslist.com.ng/company/207124/helping-hands-special-school","imageUrl":"https://www.businesslist.com.ng/img/ng/k/1498822012_72785.jpg","phone":"0706735077908163882992","website":"www.helpinghandsng.com"},{"name":"Study Awake","address":"14 road 1st Avenue Gwarinpa , Abuja","state":"","description":"Are you a student looking for an admission into the best universities in USA? Study awake will provide you with all the assistance you would need from getting you an admission to finally settling here...","rating":"","reviews":"","location":{"lat":"6.527505419902587","lng":"3.3841323852539062"},"category":"Schools","link":"https://www.businesslist.com.ng/company/257970/study-awake","imageUrl":"https://www.businesslist.com.ng/img/ng/l/1494211835-74-study-awake.jpg","phone":"9402286133","website":"www.studyawake.com/"},{"name":"Firm Diverse Entertainment","address":"SUITE 310 OCHOWA PLAZA OPP, SIMPLY DELICIOUS BADORE ROAD AJAH, Lagos, Lagos","state":"Lagos","description":"Firm Diverse Entertainment is an audio production company mainly in the business of music and other audio such as radio jingles, adverts, soundtracks ,background music, theme music, voice overs, radio...","rating":"","reviews":"","location":{"lat":"6.497934691460834","lng":"3.585894852876663"},"category":"Schools","link":"https://www.businesslist.com.ng/company/263859/firm-diverse-entertainment","imageUrl":"https://www.businesslist.com.ng/img/ng/e/1556986714-91-firm-diverse-entertainment.jpg","phone":"0803 096 1351","website":""},{"name":"University Of Ibadan Central Mosque UI","address":"Oduduwa Road, Ibadan, Oyo","state":"Oyo","description":"Established in 1948, the University of Ibadan, UI as it is fondly referred to, is the first University in Nigeria. Until 1962 when it became a full-fledged independent University, it was a College of ...","rating":"","reviews":"","location":{"lat":"7.4442593","lng":"3.8994577"},"category":"Schools","link":"https://www.businesslist.com.ng/company/117132/university-of-ibadan-central-mosque","imageUrl":"https://www.businesslist.com.ng/img/ng/h/1537778726-48-university-of-ibadan-central-mosque.jpg","phone":"+234 809 224 5372","website":"www.ui.edu.ng"},{"name":"Stelmatson Global Consult","address":"Suite 3, PTIL Plaza, Zarmaganda Junction, Jos, Plateau","state":"Plateau","description":"Stelmatson Global Consult is a management, research and educational consulting firm based in Jos Plateau State. We recruit international students to UK, US, Canadian, Russian and German universities. ...","rating":"","reviews":"","location":{"lat":"9.849278852084739","lng":"8.866950261028592"},"category":"Schools","link":"https://www.businesslist.com.ng/company/266193/stelmatson-global-consult","phone":"+2348032854302","website":"www.stelmatson.com"},{"name":"CRESCENT PEARLS INTEGRATED SCHOOL","address":"Plot 83 David Lot Close Gwarimpa. 900108, Abuja, Abuja, Abuja","state":"Abuja","description":"Crescent Pearls Integrated School was born out of the conviction and admission that for education to be holistic, spirituality cannot be undermined.  Our school is child centred, focused, purpose bui...","rating":"","reviews":"","location":{"lat":"9.115858071382144","lng":"7.4090281012023524"},"category":"Schools","link":"https://www.businesslist.com.ng/company/128792/crescent-pearls-integrated-school","imageUrl":"https://www.businesslist.com.ng/img/ng/n/1489158430_14843.jpg","phone":"0816912800608037870587","website":"www.crescentpearls.com"},{"name":"Uchenna Ahanotu, Psychologist","address":"67 Dee Sam Mbakwe Express Rd, Owerri, Imo","state":"Imo","description":"I am here to personally coach your child to succeed academically, no matter the challenge he may be facing at school, be it dyslexia, attention disorders, speech impairment or whatever. Your child wil...","rating":"","reviews":"","location":{"lat":"5.486538599918096","lng":"7.01301741583859"},"category":"Schools","link":"https://www.businesslist.com.ng/company/261833/uchenna-ahanotu-psychologist","phone":"08166293584","website":"uchennaahanotu@blogspot.com"},{"name":"Brooksdale International school ","address":"No. 14, chief Anyebe Street, Alcon, Woji Town, Porthacourt, Port Harcourt, Rivers","state":"Rivers","description":"The Brooksdale International school is an Institution where we grow intellects, your child's growth is of utmost important At Brooksdale we endeavour to instil qualities of judgement, self-reliance, i...","rating":"","reviews":"","location":{"lat":"4.8283388","lng":"7.057910799999945"},"category":"Schools","link":"https://www.businesslist.com.ng/company/252897/brooksdale-international-school","imageUrl":"https://www.businesslist.com.ng/img/ng/n/1406811813_35172.png","phone":"+2348035596214","website":"brooksdale.com.ng/"},{"name":"DEMEANOE MUSIC INTERNATIONAL","address":"17, Abeokuta Street, Off Ejigbo Road, Idimu, Lagos, Lagos, Lagos","state":"Lagos","description":"Demeanoe Music International is your one stop for all music solutions: Music Teachers for schools and homes; Instrument and Voice Training for Individuals and Choral groups; Keyboard, Violin, Saxophon...","rating":"","reviews":"","location":{"lat":"6.569576632294933","lng":"3.284388959291846"},"category":"Schools","link":"https://www.businesslist.com.ng/company/261134/demeanoe-music-international","phone":"07060755195","website":"demeanoemusic.blogspot.com"},{"name":"Mobile teachers Network","address":"Plot 24b Gbemisola House, Beside CLAM Church, Ojodu-Isheri Road, Omole Bus Stop, Omole, Ikeja, Lagos, Nigeria, Lagos, Lagos","state":"Lagos","description":"Mobile Teachers Network (MTN) Who We Are Mobile Teachers Network Is a network of experienced, dedicated professional teachers who are ready to teach anywhere wherever their service is needed. MTN was ...","rating":"","reviews":"","location":{"lat":"6.637206418368486","lng":"3.3530917130310627"},"category":"Schools","link":"https://www.businesslist.com.ng/company/261197/mobile-teachers-network","imageUrl":"https://www.businesslist.com.ng/img/ng/g/1557582252-42-mobile-teachers-network.jpg","phone":"+2348068376778","website":"www.blogspot.com/mobileteachersnetwork"},{"name":"BOLUDE & CO","address":"7 Adedamola Ojomo Close, Lagos, Lagos","state":"Lagos","description":"Nursery & Primary school located in a serene neighbourhood in Alapere near Ogudu in Lagos State.","rating":"","reviews":"","location":{"lat":"6.5925518149678854","lng":"3.398775238281246"},"category":"Schools","link":"https://www.businesslist.com.ng/company/122421/abbey-junior-mixedinfant-school","imageUrl":"https://www.businesslist.com.ng/img/ng/r/1562743568_55129.png","phone":"08052047924","website":"www.abbey-school.com"},{"name":"Cleverland Academy","address":"1 cleverland close, off ogbogbo street, choba river state, Port Harcourt, Rivers","state":"Rivers","description":"A new School, located at Choba, River State. Nigeria. Fully equipped with world-class facilities and professional Teachers, Electronic board, air-conditioned classrooms, music laboratory, ICT laborato...","rating":"","reviews":"","location":{"lat":"4.869776401802164","lng":"6.908545429095511"},"category":"Schools","link":"https://www.businesslist.com.ng/company/260351/cleverland-academy","phone":"+2347039351399","website":"cleverlandacademy.com"},{"name":"ELITE HOME TUTORS","address":"15 Kaltungo Street Garki 2 Abuja, Abuja, Abuja","state":"Abuja","description":"We offer comprehensive private/home lessons for Nursery, Primary and Secondary classes. With over 10 years of experience, we guarantee a total academic turn-around for each child under our tutelage. P...","rating":"","reviews":"","location":{"lat":"9.022267783934142","lng":"7.494991986208333"},"category":"Schools","link":"https://www.businesslist.com.ng/company/264826/elite-home-tutors","imageUrl":"https://www.businesslist.com.ng/img/ng/d/1566097699-45-elite-home-tutors.jpg","phone":"08067188680","website":""},{"name":"DOUBLE CRESCENT INTERNATIONAL SCHOOL","address":"18, Salami Street off Akute- Ajuwon Rd, Ajuwon, Ifo, Ogun","state":"Ogun","description":"Double Crescent International School is an Islamic oriented School. We adopt a special British Phonics programme that assists our children to be able read independently from age 4! We blend a unique I...","rating":"","reviews":"","location":{"lat":"9.22308637967186","lng":"21.52103745937347"},"category":"Schools","link":"https://www.businesslist.com.ng/company/258337/double-crescent-international-school","imageUrl":"https://www.businesslist.com.ng/img/ng/a/1498153945-25-double-crescent-international-school.jpg","phone":"08077706163","website":""},{"name":"Noble Trail Academy Nursery and Primary School","address":"16 Residency Drive, GRA, Onitsha, Anambra State, Onitsha, Anambra","state":"Anambra","description":"Noble Trail Academy Nursery and Primary school is a Private Christian school that offers a good blend of Nigerian/British curricular","rating":"","reviews":"","location":{"lat":"6.158815756107649","lng":"6.794034127527084"},"category":"Schools","link":"https://www.businesslist.com.ng/company/263215/noble-trail-academy-nursery-and-primary-school","imageUrl":"https://www.businesslist.com.ng/img/ng/e/1549285255-66-noble-trail-academy-nursery-and-primary-school.jpg","phone":"07035331256","website":"www.nobletrailschools.org"},{"name":"Zebra Driving School","address":"37, Ishielu Avenue, Independence Layout, Enugu, Enugu, Enugu","state":"Enugu","description":"","rating":"","reviews":"","location":{"lat":"6.447001613759936","lng":"7.525596015716587"},"category":"Schools","link":"https://www.businesslist.com.ng/company/157279/zebra-safety-services-ltd","phone":"08033500235","website":"www.zebradrivingschool.com"},{"name":"Lightrains Concepts","address":"6, Odeyemi Street, Oke-Odo, Lagos, Alagbado, Lagos","state":"Lagos","description":"Lightrains Concepts is an organisation with focus on Solar Solutions, Electrical services,Information Technology, Training and consultancy. We offer our services with our client in mind, tailoring our...","rating":"","reviews":"","location":{"lat":"6.633410324483527","lng":"3.300493061542511"},"category":"Schools","link":"https://www.businesslist.com.ng/company/257869/lightrains-concepts","imageUrl":"https://www.businesslist.com.ng/img/ng/k/1503501314-85-lightrains-concepts.jpg","phone":"08056015079","website":"www.facebook.com/lightrainz"},{"name":"Macwinner","address":"Shop 11 victory line zone A abada market Head bridge onitsha, anambra state, Onitsha, Anambra","state":"Anambra","description":"Macwinner is a fashion brand which our Major product manufactured by macwinner male senator wears, Africa native wears, men's suit, security uniform, school uniform,bedspread,T-shirt, monogram customi...","rating":"","reviews":"","location":{"lat":"9.048770117349346","lng":"7.30125200276143"},"category":"Schools","link":"https://www.businesslist.com.ng/company/260667/macwinner","imageUrl":"https://www.businesslist.com.ng/img/ng/n/1586729217-83-macwinner.jpg","phone":"08068853611","website":"www.macwinner.com.ng"},{"name":"Tumble Tots","address":"PLOT 25, TOSIN ADELOWO ST, OBA AMUSA ESTATE, IDADO, LEKKI, Lagos Island, Lagos","state":"Lagos","description":"Tumble Tots is a highly rated early year’s school with provision for children ages 3 months to 5 years. It first opened its doors in Victoria Island in 2004 before moving to Lekki Phase 1 and recent...","rating":"","reviews":"","location":{"lat":"6.433227156108462","lng":"3.477547629245123"},"category":"Schools","link":"https://www.businesslist.com.ng/company/148593/tumble-tots","imageUrl":"https://www.businesslist.com.ng/img/ng/x/1523602000_11771.png","phone":"09096318611","website":"www.tumbletots.com.ng"},{"name":"STUDY IN NIGERIA","address":"No 38, Opeifa Street Off Ajao Estate gate Anthony, Lagos Nigeria , Lagos, Lagos","state":"Lagos","description":"Since its creation in 2014, studyinnigeria has earned a reputation as the leading online school guide to parents in Nigeria. We have database of Nigerian Schools and detailed profile of over 6000 Scho...","rating":"","reviews":"","location":{"lat":"6.56393881209063","lng":"3.3710408667785714"},"category":"Schools","link":"https://www.businesslist.com.ng/company/258445/study-in-nigeria","imageUrl":"https://www.businesslist.com.ng/img/ng/l/1499528873-78-study-in-nigeria.png","phone":"080 5056 6120","website":"www.studyinnigeria.com"},{"name":"Pedam Daycare","address":"92 Femi Ayantuga street, Lagos, Lagos","state":"Lagos","description":"","rating":"4.0","reviews":"1 Review","location":{"lat":"6.495633144284743","lng":"3.3518922328948975"},"category":"Schools","link":"https://www.businesslist.com.ng/company/255165/pedam-daycare","phone":"08023680562","website":""},{"name":"FRESH IELTS ACADEMY","address":"47 Ikpa Road (Beside UNIUYO Annex Gate), Uyo, Akwa Ibom","state":"Akwa Ibom","description":"Nigeria's preferred IELTS Training Center. Give your IELTS Exam with great confidence! Learn with our expert and certified tutors, get above 7 band in your IELTS Exam.","rating":"","reviews":"","location":{"lat":"5.042421394600184","lng":"7.922619962525005"},"category":"Schools","link":"https://www.businesslist.com.ng/company/265755/fresh-ielts-academy","phone":"08066886996","website":"fresh-ielts-academy.business.site"},{"name":"AMVILLE SCHOOL","address":"10, OLOWOGBOWO STREET, OFF COKER ROAD, ILUPEJU, Lagos, Lagos","state":"Lagos","description":"Amville School offers educational services at preschool and primary levels(ages 3months-11years). Ours is a well resourced educational institution located in a serene part of ilupeju. It is a stimulat...","rating":"","reviews":"","location":{"lat":"7.167906921703909","lng":"3.665511375000051"},"category":"Schools","link":"https://www.businesslist.com.ng/company/190164/amville-school","phone":"+2348088008008+2348096311607","website":"www.amvilleschool.com"},{"name":"Xtrao Kids Child Care Center","address":"5 Hassan Idowu Street, Aguda, Surulere, Lagos, Lagos","state":"Lagos","description":"Xtrao Kids is a child care center providing custodial care for children between the ages of 3 months and 5 years in a safe and healthy environment.","rating":"","reviews":"","location":{"lat":"6.487829991560511","lng":"3.331807851791382"},"category":"Schools","link":"https://www.businesslist.com.ng/company/254914/xtrao-kids-child-care-center","imageUrl":"https://www.businesslist.com.ng/img/ng/e/1447346219-63-xtrao-kids-child-care-center.jpg","phone":"","website":"www.xtraokids.com.ng"},{"name":"Audrey and miles","address":"102, new Ipaja Road Alimosho , Lagos, Lagos","state":"Lagos","description":"Audrey and miles is a fashion and style Academy that specializes in unisex clothing both ready to Wear and made to Measure with a specialist to create and design an outfit that Perfectly fits. Audrey ...","rating":"","reviews":"","location":{"lat":"6.6117702555144255","lng":"3.296306652580597"},"category":"Schools","link":"https://www.businesslist.com.ng/company/263283/audrey-and-miles","imageUrl":"https://www.businesslist.com.ng/img/ng/c/1549959682-46-audrey-and-miles.jpg","phone":"08065578373","website":""},{"name":"CRADLEHALL CHILD-CARE CRECHE","address":"3, Ibiyinka Olorunbe Close, off Amodu Ojikutu Street, off Saka Tinubu street, Victoria Island Lagos, Victoria Island, Lagos","state":"Lagos","description":"Cradle hall creche is an early childhood development centre where babies and toddlers are nutured to harness their full potential to become geniuses. With our experienced teachers and child-care staff...","rating":"","reviews":"","location":{"lat":"6.425239651884603","lng":"3.419692283203176"},"category":"Schools","link":"https://www.businesslist.com.ng/company/190483/cradlehall-child-care-creche","phone":"01-8447986","website":"www.cradlehall.org.ng"},{"name":"New Covenant Group of Schools","address":"15 Wogu Street Dline Portharcourt, Port Harcourt, Rivers","state":"Rivers","description":"The best school in portharcourt Located at the heart of portharcourt","rating":"","reviews":"","location":{"lat":"4.803103052679221","lng":"7.005580430557302"},"category":"Schools","link":"https://www.businesslist.com.ng/company/190698/new-covenant-group-of-schools","phone":"+2347034465202","website":"www.newcovenantgroupofschools.com"},{"name":"MegaSounDine","address":"14 Jonathan Coker road beside NNPC filling station , off Fagba Iju, Lagos, Lagos","state":"Lagos","description":"SounDivine is a music academy that cater for both children and adult musical growth in and around Lagos State","rating":"","reviews":"","location":{"lat":"6.542176907517086","lng":"3.3585755266472006"},"category":"Schools","link":"https://www.businesslist.com.ng/company/262633/megasoundine","imageUrl":"https://www.businesslist.com.ng/img/ng/c/1542684566-22-megasoundine.jpg","phone":"08033460050","website":""},{"name":"Bronte College","address":"Suite 209, IKEJA Plaza, 81 Mobolaji Bank Anthony Way, IKEJA LAGOS, Lagos","state":"","description":"Bronte College is a Canadian Institution located in Mississauga ON. We offer primarily grades 9 to 12 leading to the award of OSSD with options of IB and AP. With an integrated campus and state of the...","rating":"","reviews":"","location":{"lat":"6.5932815715822075","lng":"3.3427519030792308"},"category":"Schools","link":"https://www.businesslist.com.ng/company/240360/bronte-college-2","phone":"08033358660","website":"www.brontecollege.ca"},{"name":"The Outliers School","address":"59, Bode Thomas, Surulere, Lagos., Ikeja, Lagos","state":"Lagos","description":"We are dedicated to the development of every individual's desire to learn and achieve success by providing a safe and supportive environment that fosters a lifelong passion for learning and equip them...","rating":"","reviews":"","location":{"lat":"6.489239472373789","lng":"3.358437496906279"},"category":"Schools","link":"https://www.businesslist.com.ng/company/266556/the-outliers-school","phone":"+2348090925930","website":"theoutliersschool.com"},{"name":"Education Trust Fund (Etf)","address":"No.5 Waterboard Road, Sanga Local Government Area Kaduna State Nigeria, Kaduna, Kaduna","state":"Kaduna","description":"GDUX WORLD is specialized in Shoes and Bags making, using available resources within our community. At affordable price. Above all train and empower young youths who have interest in skills acquisitio...","rating":"","reviews":"","location":{"lat":"10.514345791752932","lng":"7.433141469955444"},"category":"Schools","link":"https://www.businesslist.com.ng/company/122481/education-trust-fund-etf","imageUrl":"https://www.businesslist.com.ng/img/ng/l/1436525003_97092.jpg","phone":"+2348062246583","website":""},{"name":"OVA Couture ","address":"No 3, Ibide Edun close, off lalubu street, Opp. Alana Lawson school, okelewo., Abeokuta, Ogun","state":"Ogun","description":"Ova Couture is a Unisex Fashion designing Outfit. We started from a Small Space now to a Fashion House. It wasn't all Rosy but it's said \" Never despise a little Beginning\".","rating":"","reviews":"","location":{"lat":"7.1126324446673985","lng":"3.3727347979676097"},"category":"Schools","link":"https://www.businesslist.com.ng/company/261035/ova-couture","imageUrl":"https://www.businesslist.com.ng/img/ng/z/1527798826-73-adunni-couture.jpg","phone":"07059808273","website":""},{"name":"Standard Academy Akure","address":"13, Henry Fajemirokun Street, Ijapo Estate, Akure, Ondo State - Nigeria, Akure, Ondo","state":"Ondo","description":"Our goals and determination are to help bring out the genius in each child and raise them to becoming leaders who will proffer communities better. Excellent educational services to humanity define our...","rating":"","reviews":"","location":{"lat":"6.618367558136281","lng":"3.3982670225371976"},"category":"Schools","link":"https://www.businesslist.com.ng/company/265935/standard-academy-akure","phone":"0817 559 1252","website":"www.standardacademyng.com"},{"name":"TRACTRAIN CONSULTING","address":"NO 46 LOBITTO CRESCENT WUSE 2 ABUJA, Abuja, Abuja","state":"Abuja","description":"We are a career development company focused on delivering professional and effective career advice, GMAT and GRE-Prep, MBA Essays, Resume/CV.","rating":"","reviews":"","location":{"lat":"9.072257612130052","lng":"7.491997182369232"},"category":"Schools","link":"https://www.businesslist.com.ng/company/256227/tractrain-consulting","phone":"+23408143830879","website":"www.tractrain.com"},{"name":"StudyLocal Nigeria","address":"Study Local Nigeria Suite 405, Obum Plaza, 16 Ademola Adetokunbo Crescent, Wuse, Abuja, Nigeria, Abuja, Abuja","state":"Abuja","description":"StudyLocal Nigeria is an Online Directory for courses/programs offered by accredited institutions in Nigeria. At study local Nigeria, we are focused on encouraging students in Nigeria to remain in Nig...","rating":"","reviews":"","location":{"lat":"9.075894498390214","lng":"7.4012319033203084"},"category":"Schools","link":"https://www.businesslist.com.ng/company/260141/studylocal-nigeria","phone":"07088875136","website":"www.studylocal.ng"},{"name":"IYA D BILLY VENTURES","address":"75A WOJI ROAD RUMUOROLU TOWN, Port Harcourt, Rivers","state":"Rivers","description":"WEB DESIGN/HOSTING/MAINTENANCE. GENERAL CONTRACTS SERVICE. GENERAL SUPPLY. E-COMMERCE. IMPORT/EXPORT. SECURITY AND SAFETY SERVICE.EDUCATIONAL SERVICE, ETCETRA. CONTACT US ON +2348038316472","rating":"","reviews":"","location":{"lat":"6.508451939261254","lng":"3.4237003326416016"},"category":"Schools","link":"https://www.businesslist.com.ng/company/255349/iya-d-billy-ventures","phone":"+2348038316472","website":"www.elearning79.talentlms.com"},{"name":"RedSea Drum Store","address":"Abuloma, Port Harcourt, Rivers","state":"Rivers","description":"RedSea Drum Store is an Internation Drums and Musical store that overs wide range of the best of Goods and Services that Registers with Music.","rating":"","reviews":"","location":{"lat":"4.822195928416578","lng":"7.041361975631513"},"category":"Schools","link":"https://www.businesslist.com.ng/company/267670/redsea-drum-store","imageUrl":"https://www.businesslist.com.ng/img/ng/n/1589422556-69-redsea-drum-store.jpg","phone":"08165235512","website":""},{"name":"Pearls Works","address":"3, Adeola Adefolabi Street New Oko Oba Agege/Ifako Ijaiye Lagos, Lagos","state":"","description":"An Educational Book Publishing company with majors in Educational Wall Charts and Posters for schools and churches, Book Publishing, Educational / Church and Motivational Flex Banners. ","rating":"","reviews":"","location":{"lat":"6.652236251846121","lng":"3.3187294006347656"},"category":"Schools","link":"https://www.businesslist.com.ng/company/259810/pearls-works","imageUrl":"https://www.businesslist.com.ng/img/ng/k/1515676848-76-pearls-works.jpg","phone":"08076443009","website":""},{"name":"Nikjane tailor","address":"yemsonat petrol station lekki epe expressway by ibeju bus stop, Lagos, Lagos","state":"Lagos","description":"Has your TAILOR ever disappointed you? Do you think his/her price is outrageous? Try a new fashion designer today best fashion experience best price you can trust At NIKJANE FASHION HOUSE the style is...","rating":"","reviews":"","location":{"lat":"6.474810823964932","lng":"3.843442577606197"},"category":"Schools","link":"https://www.businesslist.com.ng/company/265545/nikjane-tailor","imageUrl":"https://www.businesslist.com.ng/img/ng/n/1571917964-86-nikjane-tailor.jpg","phone":"08060304890","website":""},{"name":"Mimis fashion kollections","address":"57 Bola Ahmed tinubu road iju ishaga lagos ., Ikeja, Lagos","state":"Lagos","description":" mimis fashion kollection is a store for general fashion items, we render personal shopper services , we deal on wholesales shoes for men, women and kids. our delivery is fast and reliable you can rea...","rating":"","reviews":"","location":{"lat":"6.594211561221552","lng":"3.357236251580349"},"category":"Schools","link":"https://www.businesslist.com.ng/company/267319/mimis-fashion-kollections","imageUrl":"https://www.businesslist.com.ng/img/ng/h/1586343157-40-mimis-fashion-kollections.png","phone":"08163246099","website":""},{"name":"Mona School","address":" Ikhidero Crescent, Off Shell Road, Sapele, Delta","state":"Delta","description":"","rating":"","reviews":"","location":{"lat":"5.861301967988696","lng":"5.6928024446410745"},"category":"Schools","link":"https://www.businesslist.com.ng/company/188516/mona-school","phone":"054-341924","website":"monaschool.ng"},{"name":"Carstell Fashion","address":"9, College Road,Oyemekun Bus Stop, Ogba lagos, Ikeja, Lagos","state":"Lagos","description":"Carstell Fashion is a Fashion house that deals in all kinds of fashion and training. Our experience and love for fashion gives us the edge in clothing construction, fashion illustration, Ready to Wear...","rating":"","reviews":"","location":{"lat":"6.597326528373993","lng":"3.356546539550777"},"category":"Schools","link":"https://www.businesslist.com.ng/company/264123/carstell-fashion","imageUrl":"https://www.businesslist.com.ng/img/ng/l/1559593268-30-carstell-fashion.jpg","phone":"08055516078","website":""},{"name":"Josmerez bookshop","address":"no 60 cantonment lokoja kogi state., Lokoja, Kogi","state":"Kogi","description":"Sales of textbooks ranging from nursery to university books and assorted stationaries ","rating":"","reviews":"","location":{"lat":"7.81172674066137","lng":"6.747536659240723"},"category":"Schools","link":"https://www.businesslist.com.ng/company/253526/josmerez-bookshop","imageUrl":"https://www.businesslist.com.ng/img/ng/x/1421182823-15-josmerez-bookshop.jpg","phone":"0803612687108032899814","website":""},{"name":"SchooliT","address":"23 Mbonu Street, D/Line, Port Harcourt, Rivers","state":"Rivers","description":"SchooliT is a web application for the complete management of schools of all kinds. With SchooliT you will not need another software to run your school.Run your school smarter, simpler and better.","rating":"","reviews":"","location":{"lat":"4.799223010463835","lng":"7.004009485244751"},"category":"Schools","link":"https://www.businesslist.com.ng/company/258410/schoolit","imageUrl":"https://www.businesslist.com.ng/img/ng/h/1499156002-22-schoolit.png","phone":"08126525767","website":""},{"name":"Soulforte Music Academy","address":"Division of Student Affair, Adeyemi College of Education Ondo, Akure, Ondo","state":"Ondo","description":"Music Academy that offers music training and mentoring program to community musicians even up-comings.","rating":"","reviews":"","location":{"lat":"7.070740663411068","lng":"4.818363189697266"},"category":"Schools","link":"https://www.businesslist.com.ng/company/261901/soulforte-music-academy","imageUrl":"https://www.businesslist.com.ng/img/ng/x/1535637230-44-soulforte-music-academy.jpg","phone":"09061538077","website":""},{"name":"Jay Musicals","address":"79 Evo road GRA phase II, Port Harcourt, Port Harcourt, Rivers","state":"Rivers","description":"Jay Musicals is a fast rising online retail music store in Nigeria. You can now easily purchase your music resources such as musical instruments and accessories, music books, all kinds of musical equi...","rating":"","reviews":"","location":{"lat":"4.583111645024968","lng":"6.659750390943827"},"category":"Schools","link":"https://www.businesslist.com.ng/company/264024/jay-musicals","phone":"08078733543","website":""},{"name":"GOOD HOPE STARS SCHOOLS","address":"9 Bishop Onyeabor Street, G.R.A., Enugu, Enugu","state":"Enugu","description":"A first class school in Enugu. That is we equipped with modern facilities all geared to raise stars in godliness and excellence from creche to the secondary school.","rating":"5.0","reviews":"1 Review","location":{"lat":"6.4927123061968475","lng":"3.4806060791015625"},"category":"Schools","link":"https://www.businesslist.com.ng/company/130439/good-hope-stars-schools","phone":"","website":""},{"name":"ENUGU STATE POST-PRIMARY SCHOOLS MANAGEMENT BOARD","address":"Abakaliki Road, PMB 01160, Enugu, Enugu","state":"Enugu","description":"","rating":"","reviews":"","location":{"lat":"6.461137887222608","lng":"7.542547576690822"},"category":"Schools","link":"https://www.businesslist.com.ng/company/130627/enugu-state-post-primary-schools-management-board","phone":"042-305756","website":"ppsmbenugu.com.ng/"},{"name":"Stitches by Ozohu","address":"Plot 50, Govt Sec Sch road, Phase 4, Kubwa, Abuja, Abuja","state":"Abuja","description":"Stitches by Ozohu is a fashion designing outfit based in Abuja that deals in Custom made and ready to wear female clothing","rating":"","reviews":"","location":{"lat":"9.155186946946266","lng":"7.338449602722221"},"category":"Schools","link":"https://www.businesslist.com.ng/company/263462/stitches-by-ozohu","phone":"07056109862","website":""},{"name":"NATIONAL TEACHERS INSTITUTE","address":"KM 5 Kaduna - Zaria Express Way, Rigachikun, PMB 2191 Kaduna, Abuja","state":"","description":"To provide Courses of Instruction leading to the Upgrade, Development and Professional Certification of Nigerian Teachers as specified in the relevant Syllabuses using the Distant Learning System (DLS...","rating":"","reviews":"","location":{"lat":"10.4252994","lng":"7.402065499999935"},"category":"Schools","link":"https://www.businesslist.com.ng/company/129412/national-teachers-institute","imageUrl":"https://www.businesslist.com.ng/img/ng/b/1543102764-93-national-teachers-institute.png","phone":"234-(0)62-887873","website":"www.nti-nigeria.org/"},{"name":"Deoasis Ville Special Schools","address":"729 Jimmy Emefili After Global Success Church, Unity Estate, Amuwo odofin Lagos , Lagos, Lagos","state":"Lagos","description":"Management of children with speech, behavioral and physical disabilities or disorders such as Autism, Dyslexia, ADHD ADD, Writing and Reading difficulties. Co activities - music, ICT and Tailoring sch...","rating":"","reviews":"","location":{"lat":"6.470194682025406","lng":"3.299560326820372"},"category":"Schools","link":"https://www.businesslist.com.ng/company/266474/deoasis-ville-special-schools","imageUrl":"https://www.businesslist.com.ng/img/ng/l/1580116329-74-deoasis-ville-special-schools.jpg","phone":"08182072441","website":""}]