[{"name":"Fabiomatic Solutions","address":"162E, Akerele Extension, Surulere, Lagos, Lagos","state":"Lagos","description":"Fabiomatic Solutions is an IT Solution and Service company that specializes in developing Enterprise applications, Mobile applications, Website applications & developments, IT infrastructure (Laptops,...","rating":"","reviews":"","location":{"lat":"6.503337298129628","lng":"3.358627792437801"},"category":"Schools","link":"https://www.businesslist.com.ng/company/261732/fabiomatic-solutions","imageUrl":"https://www.businesslist.com.ng/img/ng/n/1533927538-53-fabiomatic-solutions.png","phone":"08067133437","website":"www.fabiomaticsolutions.com"},{"name":"Alypse Fashion School","address":" Plot A Family Support Road Beside ULO off Okpanam Road, Asaba Delta State , Asaba, Delta","state":"Delta","description":"ABOUT US Do you want to be an independent and fulfilled man/woman? We all know nothing beats that. Are you a house wife and you feel bad about it? Acquire this skill and start earning a living for you...","rating":"5.0","reviews":"1 Review","location":{},"category":"Schools","link":"https://www.businesslist.com.ng/company/263089/alypse-fashion-school","imageUrl":"https://www.businesslist.com.ng/img/ng/x/1548108852-37-alypse-fashion-school.jpg","phone":"09060006524","website":"www.alypsefashionacademy.com"},{"name":"Blend 'N Style Fashion House / School","address":"2nd Floor Iyabo Odili Villa, 124 Sapele Warri Road Sapele Delta State Nigeria , Sapele, Delta","state":"Delta","description":"At Blend N Style, we are into fashion designing, English and African wears. We make English gowns and suit, and children's wear. Our business is interested in catering for a growing number of people w...","rating":"","reviews":"","location":{"lat":"5.880167585118517","lng":"5.699951642852765"},"category":"Schools","link":"https://www.businesslist.com.ng/company/267043/blend-n-style-fashion-houseschool","imageUrl":"https://www.businesslist.com.ng/img/ng/s/1584030288-58-blend-n-style-fashion-house-school.jpg","phone":"O8033017655","website":"blend-n-style-fashion-house.business.site/"},{"name":"House of Cush Stitches","address":"22 Akinremi street, ikeja, lagos, Ikeja, Lagos","state":"Lagos","description":"we are into training services, made to fit garment and sales of ready to wear designs.we are involved in both men,women and children clothings targeting nigeria and the international market ","rating":"5.0","reviews":"1 Review","location":{"lat":"6.594483873429004","lng":"3.337526321411133"},"category":"Schools","link":"https://www.businesslist.com.ng/company/263314/house-of-cush-stitches","imageUrl":"https://www.businesslist.com.ng/img/ng/f/1550268933-20-house-of-cush-stitches.jpg","phone":"08095299717","website":""},{"name":"Pianowella","address":"101A Brookstone Close, G.R.A., Phase 2, Port Harcourt, Rivers","state":"Rivers","description":"Pianowella offers services for Piano Lessons, Violin Lessons, Guitar Lessons, Voice Training, Music Production Training, Music Script Writing, Choreography and many more. Music Learners connect with E...","rating":"","reviews":"","location":{"lat":"4.8228976872028815","lng":"6.992564286826905"},"category":"Schools","link":"https://www.businesslist.com.ng/company/264785/pianowella","imageUrl":"https://www.businesslist.com.ng/img/ng/b/1578659521-79-pianowella.jpg","phone":"+2348103302720","website":"www.pianowella.com"},{"name":"Agled Consulting Limited","address":"9A, IBRAHIM ONASHOLKUN STREET, IFAKO-GBAGADA, LAGOS, Lagos, Lagos","state":"Lagos","description":"AGLED Consulting Limited is a dynamic educational service provider that is poised to improving the quality of education through capacity development of school managers, administrators and classroom te...","rating":"","reviews":"","location":{"lat":"6.559845868053622","lng":"3.3921259293282446"},"category":"Schools","link":"https://www.businesslist.com.ng/company/265167/agled-consulting-limited","imageUrl":"https://www.businesslist.com.ng/img/ng/x/1568825502-49-agled-consulting-limited.png","phone":"07056650770","website":"www.agledconsulting.com.ng"},{"name":"Zarita kouture and Academy","address":"House 6, Road 12, Efab estate, Life camp , Abuja, Abuja","state":"Abuja","description":"Zarita kouture and Academy is a clothing brand catering to ready to wear and custom pieces for men and women. We also produce varieties of uniforms which includes construction uniforms, school uniform...","rating":"","reviews":"","location":{"lat":"9.065095316695071","lng":"7.39209161535233"},"category":"Schools","link":"https://www.businesslist.com.ng/company/263791/zarita-kouture-and-academy","imageUrl":"https://www.businesslist.com.ng/img/ng/f/1556205782-59-zarita-kouture-and-academy.jpg","phone":"+2348023042244","website":"www.zaritakouture.com"},{"name":"Flirty Fitness Ng","address":"Adedapo Williams Close, Lekki Phase 1, Lagos, Lagos","state":"Lagos","description":"Welcome to Nigeria’s home of Women’s Dance and Fitness experience. At Flirty Fitness Nigeria, we are committed to helping women to be in the best shape of their lives through feminine fitness clas...","rating":"","reviews":"","location":{"lat":"6.449523750082057","lng":"3.475429404477959"},"category":"Schools","link":"https://www.businesslist.com.ng/company/267687/flirty-fitness-ng","imageUrl":"https://www.businesslist.com.ng/img/ng/l/1589506427-93-flirty-fitness-ng.jpg","phone":"+234 7037373323","website":"www.flirtyfitnessng.com"},{"name":"Polanian Empire","address":"Beside Jambutu Primary School, Jimeta Adamawa State, Nigeria, Yola, Adamawa","state":"Adamawa","description":"We are into production and supply of School Instructional materials. our products are effective and efficient to use. They are affordable to all class of users. We are best known for effectiveness and...","rating":"","reviews":"","location":{"lat":"9.204978997478195","lng":"12.483309230596888"},"category":"Schools","link":"https://www.businesslist.com.ng/company/262610/polanian-empire","imageUrl":"https://www.businesslist.com.ng/img/ng/m/1542364832-99-polanian-empire.jpg","phone":"+2347038015309","website":"www.skulthings.blogspot.com"},{"name":"www.ecards.com.ng","address":"No 1 progress Road, Ikot Ekpene, Ikot-Ekpene, Akwa Ibom","state":"Akwa Ibom","description":"BUY INSTANT PINS We sell all kinds of Exams Scratch Cards Online Instant PIN Delivery at ecards.com.ng Buy WAEC, NECO, JAMB, NABTEB, GCE scratch cards, result checker. TOKEN and e-registration PINs on...","rating":"","reviews":"","location":{"lat":"5.181182408053499","lng":"7.710748094802852"},"category":"Schools","link":"https://www.businesslist.com.ng/company/265817/wwwecardscomng","imageUrl":"https://www.businesslist.com.ng/img/ng/z/1574226526-66-www-ecards-com-ng.jpg","phone":"08030998147","website":"www.ecards.com.ng"},{"name":"Mordiyah children academy","address":"28 kollinton street, yana ipaja, Lagos State, Alagbado, Lagos","state":"Lagos","description":"mordiyah college is a standard Muslim school that also teaches Islamic and Arabic education leading to success in Junior WAEC and Senior WAEC as well as certificate in Ibtidai & Idaadiy levels. We als...","rating":"","reviews":"","location":{"lat":"6.582550152443036","lng":"3.250436829686123"},"category":"Schools","link":"https://www.businesslist.com.ng/company/264473/mordiyah-children-academy","imageUrl":"https://www.businesslist.com.ng/img/ng/e/1563021599-62-mordiyah-children-academy.jpg","phone":"08187256312","website":"www.mca.com.ng"},{"name":"Skyline University Nigeria","address":"No 2 Zaria Road, Opposite Old Kano Line, Kano, Kano","state":"Kano","description":"Study in Skyline University Nigeria, the 1st International Private University in Kano, And Invest in a Career that will empower your passion. Call us on 09099992141 to Apply to our School of Science &...","rating":"","reviews":"","location":{"lat":"11.9888","lng":"8.5349"},"category":"Schools","link":"https://www.businesslist.com.ng/company/263085/skyline-university-nigeria","imageUrl":"https://www.businesslist.com.ng/img/ng/f/1548066820-47-skyline-university-nigeria.jpg","phone":"09099992141","website":"www.sun.edu.ng"},{"name":"B. Y. Mafit Limited","address":"MAN House, 77, Obafemi Awolowo Way, Ikeja, Lagos, Nigeria, Ikeja, Lagos","state":"Lagos","description":"TOEFL in Nigeria, SAT in Nigeria, GRE in Nigeria, GMAT in Nigeria, Registration and Classes, Foreign Admissions Processing","rating":"5.0","reviews":"1 Review","location":{"lat":"6.608488448411543","lng":"3.3513343334198"},"category":"Schools","link":"https://www.businesslist.com.ng/company/240394/b-y-mafit-limited","imageUrl":"https://www.businesslist.com.ng/img/ng/e/1464173750_79648.png","phone":"+2347063376716+2347064878630+2348116307744","website":"gregmattoeflnigeria.com"},{"name":"Cedarwood Schools","address":"6, Olaribigbe Street, 5Th Avenue, Rumuibekwe, Port Harcourt, Rivers State, Nigeria., Port Harcourt, Rivers","state":"Rivers","description":"Cedarwood School is a co-educational, English medium, British curriculum school, catering for pupils from 18months to 11 years: enabling children to grow and learn with confidence and enthusiasm in a ...","rating":"","reviews":"","location":{"lat":"4","lng":"7"},"category":"Schools","link":"https://www.businesslist.com.ng/company/267128/cedarwood-schools","imageUrl":"https://www.businesslist.com.ng/img/ng/n/1584555974-31-cedarwood-schools.jpg","phone":"+2348033122894+2348054311332","website":"www.cedarwoodschoolng.com/"},{"name":"At-Tanzeel Schools","address":"Olowojegudu street, off Faniyi street, off Ebute Igbogbo road, Ikorodu, Ikorodu, Lagos","state":"Lagos","description":"At-Tanzeel, by its name and meaning is a crystal reflection of knowledge at the highest and most modern level. It is one of the names by which the holiest Scripture – Al-Quran is called. Therein, al...","rating":"","reviews":"","location":{"lat":"6.591972459720818","lng":"3.5059438122880238"},"category":"Schools","link":"https://www.businesslist.com.ng/company/244380/at-tanzeel-schools","imageUrl":"https://www.businesslist.com.ng/img/ng/z/1519391039_33855.jpg","phone":"081058912740802876813808025816900","website":"www.attanzeelschools.com"},{"name":"The Voice of Jesus Welfare Ministry","address":"Panda Hotel 47A Ogba Road, Agege , By Alhaji Bus Stop, Lagos, Ikeja, Lagos","state":"Lagos","description":"The Voice of Jesus Welfare Ministry is a Christian church where we see the good in you at all times and deep rooted in deliverance, healing, salvation, breakthrough and righteousness. At The Voice Of ...","rating":"","reviews":"","location":{"lat":"6.621","lng":"3.3293"},"category":"Schools","link":"https://www.businesslist.com.ng/company/261774/the-voice-of-jesus-welfare-ministry","imageUrl":"https://www.businesslist.com.ng/img/ng/d/1534353568-43-the-voice-of-jesus-welfare-ministry.jpg","phone":"08085973378","website":"thevoiceofjesuswelfareministry.blogspot.com/"},{"name":"Gafunshi creations","address":"10 Bola Ademuyiwa street, off osolo way, by Aswani market Isolo, Oshodi, Lagos","state":"Lagos","description":"We are a female fashion brand located in Lagos Our core areas of expertise is in female garment creation for ready to wear and Bespoke tailoring. We also provide fashion design training for female gar...","rating":"","reviews":"","location":{"lat":"6.475475766131337","lng":"3.385704697545748"},"category":"Schools","link":"https://www.businesslist.com.ng/company/262900/gafunshi-creations","imageUrl":"https://www.businesslist.com.ng/img/ng/n/1546100175-57-gafunshi-creations.jpg","phone":"08177242580","website":"www.gafunshicreations.com"},{"name":"Tolumi, The Fashion People","address":"13, Okunola Abbas, Ibadan , Ibadan, Oyo","state":"Oyo","description":"Tolumi TFP's fashion school has without doubt proved to be the best in Ibadan. The trainer is London trained and is back to Nigeria, Ibadan to support and give back to the people of South West Nigeria...","rating":"","reviews":"","location":{"lat":"7.420399941338778","lng":"3.9128708839416504"},"category":"Schools","link":"https://www.businesslist.com.ng/company/253892/tolumi-the-fashion-people","imageUrl":"https://www.businesslist.com.ng/img/ng/j/1455679775-18-tolumi-the-fashion-people.jpg","phone":"08155032337","website":"www.tolumitfp.com"},{"name":"ZiviLand School","address":"40 Lowa Street, beside Redeemed Christain Church of God, Ikorodu, Lagos","state":"Lagos","description":"Founded in 2011, Ziviland is set up to offer every child the best opportunities to acquire cross cultural and cross disciplinary skills needed to function positively and purposefully in a fast changin...","rating":"","reviews":"","location":{"lat":"6.623241475878204","lng":"3.4930686961160973"},"category":"Schools","link":"https://www.businesslist.com.ng/company/255734/ziviland-school","imageUrl":"https://www.businesslist.com.ng/img/ng/x/1473224281-86-ziviland-school.jpg","phone":"0816742667","website":"www.myzivilandschool.com"},{"name":"Christine Creche Nursery and Primary School","address":"21 college road housing estate abakpa nike enugu, Enugu, Enugu","state":"Enugu","description":"We at Christine Primary school enugu aim at providing quality education with emphasis on discipline and character building. ","rating":"","reviews":"","location":{"lat":"6.483021834523304","lng":"7.520360038523108"},"category":"Schools","link":"https://www.businesslist.com.ng/company/264863/christine-creche-nursery-and-primary-school","imageUrl":"https://www.businesslist.com.ng/img/ng/s/1566408686-16-christine-creche-nursery-and-primary-school.jpg","phone":"08054026008","website":"facebook.com/christineprimaryschool/"},{"name":"Exclusive Uniforms & Corporate Designs Limited","address":"6 Jubliee/CMD Road, Magodo, Ikeja, Lagos, Lagos, Lagos","state":"Lagos","description":"We are glad to introduce our company, Exclusive Uniform and Corporate Design Limited, our company has climbed up to be one of the leading organizations engaged in manufacturing and supplying a wide ra...","rating":"","reviews":"","location":{"lat":"6.6197074277683265","lng":"3.3656015358765217"},"category":"Schools","link":"https://www.businesslist.com.ng/company/261597/exclusive-uniformscorporate-designs-limited","imageUrl":"https://www.businesslist.com.ng/img/ng/s/1532956952-15-exclusive-uniforms-corporate-designs-limited.jpg","phone":"+2348174585764","website":"www.exclusiveunifroms.com.ng"},{"name":"Noble Hall Leadership Academy For Girls","address":"Plot 273 Institutes and Research District, By Idu Yard, Jabi-Airport Road, Off Coca Cola Junction, Abuja, Abuja, Abuja","state":"Abuja","description":"Noble Hall Leadership Academy For Girls is a premier day and boarding secondary school in Abuja for girls between the ages of 10-16. Our world-class infrastructure and amenities allow our students to ...","rating":"","reviews":"","location":{"lat":"9.0220556","lng":"7.390417"},"category":"Schools","link":"https://www.businesslist.com.ng/company/267743/noble-hall-leadership-academy-for-girls","imageUrl":"https://www.businesslist.com.ng/img/ng/a/1592202282-16-noble-hall-leadership-academy-for-girls.jpg","phone":"+2348032032296","website":"noblehall.com"},{"name":"Little Weavers","address":"Maryland Mall, 350-360 Ikorodu road, Maryland, Lagos, Nigeria, Lagos, Lagos","state":"Lagos","description":" We are retailers of Afrocentric Clothing, African Costumes & Accessories exclusively for kids and teens. are a heritage brand for young people to connect, experience, appreciate and embrace African c...","rating":"","reviews":"","location":{"lat":"6.56734693437576","lng":"3.36715378468341"},"category":"Schools","link":"https://www.businesslist.com.ng/company/266071/little-weavers","imageUrl":"https://www.businesslist.com.ng/img/ng/m/1576589229-99-little-weavers.jpg","phone":"+2348020696886","website":"www.littleweavers1.com"},{"name":"Stylemaven","address":"No.53, Awolowo Avenue, Old Bodija, Ibadan, Ibadan, Oyo","state":"Oyo","description":"A womenswear brand that deals in ready to wear designs as well as custom made outfits for your events such as Owambes.","rating":"","reviews":"","location":{"lat":"7.418608270407656","lng":"3.8983391176575424"},"category":"Schools","link":"https://www.businesslist.com.ng/company/266176/stylemaven","imageUrl":"https://www.businesslist.com.ng/img/ng/e/1578753413-94-stylemaven.jpg","phone":"08114846514","website":"www.instagram.com/stylemaven_ng/?hl=en"},{"name":"The Kings Heritage School","address":"15, Dipo Abey Street, ojodu berger, lagos, Ikeja, Lagos","state":"Lagos","description":"A school founded by an educationist of several years of experience with a passion for impacting young lives. The King's Heritage school began in September 2007 as a crèche which later evolved into a ...","rating":"4.0","reviews":"1 Review","location":{"lat":"6.6257743381827705","lng":"3.3542847633361816"},"category":"Schools","link":"https://www.businesslist.com.ng/company/252612/the-kings-heritage-school","phone":"08182655369","website":"www.thekingsheritageschools.org"},{"name":"Testament Business Academy","address":"16, Akinola Ikare Street, Off Oke Igesu, Olorunishola, Ikeja, Lagos","state":"Lagos","description":"Testament Business Academy is one of the first four years (4) e-learning, open and distance learning program with a touch of in-class training and tutorial sessions in Nigeria higher education system ...","rating":"","reviews":"","location":{"lat":"6.590162358641739","lng":"3.294516180523715"},"category":"Schools","link":"https://www.businesslist.com.ng/company/260781/testament-business-academy","imageUrl":"https://www.businesslist.com.ng/img/ng/s/1525345494-10-testament-business-academy.png","phone":"09081108687","website":"www.teba.com.ng"},{"name":"Creme De La Creme Montessori Academy","address":"60 Oduduwa way, GRA Ikeja, Ikeja, Lagos","state":"Lagos","description":"A state of the Art Modern Montessori Preschool that caters for children from 3months old to 5years old. ","rating":"","reviews":"","location":{"lat":"6.5723789955369085","lng":"3.3553147315979004"},"category":"Schools","link":"https://www.businesslist.com.ng/company/253939/creme-de-la-creme-montessori-academy","imageUrl":"https://www.businesslist.com.ng/img/ng/h/1430744191-55-creme-de-la-creme-montessori-academy.jpg","phone":"+234-1-295199","website":"www.cremedelacremepreschool.com"},{"name":"BARBARA COX SCHOOLS","address":"24, Road, Festac Town, Lagos, Lagos","state":"Lagos","description":"Barbara Cox College and Pre-High School (Creche, Nursery/Primary & Secondary) Lagos is a co-educational Day and Boarding school of international standard. It is basically conceived to train young Nige...","rating":"5.0","reviews":"1 Review","location":{},"category":"Schools","link":"https://www.businesslist.com.ng/company/130532/barbara-cox-schools","imageUrl":"https://www.businesslist.com.ng/img/ng/j/1473674853_56295.jpg","phone":"0803-312-21290806-410-5864","website":"www.barbaracoxschools.com"},{"name":"IELTS, TOEFL, GRE, SAT Exams in Port Harcourt","address":"Unique Educational Consulting, Suite 23 & 24 Hilltop Plaza, Trans - Woji Road, After YKC, Woji, Port Harcourt, Port Harcourt, Rivers","state":"Rivers","description":"TOEFL exam registration and Training , IELTS Exam Registration and Lecture , PTE Exam Registration and Lecture; SAT Exam Registration and Lecture; GRE Exam Registration and Lecture; GMAT Exam Registra...","rating":"","reviews":"","location":{"lat":"4.825404707070917","lng":"7.057709874514999"},"category":"Schools","link":"https://www.businesslist.com.ng/company/263224/ielts-toefl-gre-sat-exams-in-port-harcourt","imageUrl":"https://www.businesslist.com.ng/img/ng/l/1549484859-39-ielts-toefl-gre-sat-exams-in-port-harcourt.jpg","phone":"08137361341","website":"www.uniqueduconsult.com"},{"name":"Arcadia Montessori School, Victoria Island","address":"240a Kofo Abayomi, Victoria Island Lagos Nigeria, Lagos, Lagos","state":"Lagos","description":"Arcadia Montessori school is an amazing daycare and nursery school in Victoria Island, Lagos. We are setting the new standard for excellence in early learning. Our mission is to provide a warm, nurtur...","rating":"","reviews":"","location":{"lat":"6.436105689269697","lng":"3.421487853930671"},"category":"Schools","link":"https://www.businesslist.com.ng/company/259879/arcadia-montessori-school-victoria-island","imageUrl":"https://www.businesslist.com.ng/img/ng/l/1518070529-87-arcadia-montessori-school-victoria-island.png","phone":"08092220519","website":"arcadia-school.com/"}]