[{"name":"MUSTPASS HOME TUTORS","address":"496, Ikorodu Road, Ketu, Lagos, Lagos, Lagos","state":"Lagos","description":"Mustpass Home Tutors is a professional Tutors handling children and adults at the following levels: -NURSERY 1-2 -PRY 1-6, JS1-3 and SS1-3 -COMMON ENTRANCE -WAEC/NECO(SSCE/GCE) -UTME(JAMB) -POST UTME ...","rating":"","reviews":"","location":{"lat":"6.499782694387686","lng":"3.378167152404785"},"category":"Schools","link":"https://www.businesslist.com.ng/company/253452/mustpass-home-tutors","imageUrl":"https://www.businesslist.com.ng/img/ng/b/1420862899-mustpass-home-tutors.png","phone":"08093583405","website":"www.mptutorsng.com"},{"name":"FAB EDUCATION","address":"Suite 22, OGB Plaza, Majekodunmi Street, Beside Edo Line, Utako District, Abuja info@fabeducation.org, Abuja, Abuja","state":"Abuja","description":"We specialize in Educational Services, Property Management, Information Technology, Immigration Services etc. Our team of education consultants are experienced in guiding and placing students into sch...","rating":"","reviews":"","location":{"lat":"9.068219","lng":"7.448733"},"category":"Schools","link":"https://www.businesslist.com.ng/company/259671/fab-education","imageUrl":"https://www.businesslist.com.ng/img/ng/j/1513686082-60-fab-education.png","phone":"+2348063325541","website":"fabeducation.org/"},{"name":"WEARGUARD EQUIPMENT LTD.","address":"123 Aba road by Wami Street Junction. St. John's bus stop. Oroworukwo Town. , Port Harcourt, Rivers","state":"Rivers","description":"* Personal Protective Equipment (PPE) procurement and supplies. * Industrial work-clothes * Sales & Service of Industrial Sewing Machines and other Textile & Fashion Industry Equipment * Textile & Fas...","rating":"","reviews":"","location":{"lat":"4.813941032076471","lng":"7.009870433794276"},"category":"Schools","link":"https://www.businesslist.com.ng/company/255105/wearguard-equipment-ltd","imageUrl":"https://www.businesslist.com.ng/img/ng/n/1528437581-42-wearguard-equipment-ltd.jpg","phone":"08056036779","website":""},{"name":"HOMEWORKS TUTORING SERVICE","address":"299 Herbert Macaulay Way, Sabo, Yaba. Lagos, Lagos, Lagos","state":"Lagos","description":" Our platform is designed to help students improve their knowledge and understanding of basic concepts underlying the different subject areas by connecting them to top online and home tutors. At homew...","rating":"","reviews":"","location":{"lat":"6.505163060109237","lng":"3.378167152404785"},"category":"Schools","link":"https://www.businesslist.com.ng/company/259458/homeworksng","imageUrl":"https://www.businesslist.com.ng/img/ng/s/1511073316-54-homeworks-ng.png","phone":"08091278837","website":"www.homeworks.ng"},{"name":"Edugrade Services","address":"75, OLD AIRPORT ROAD, OPP. LIGHT HOUSE CHURCH, IBADAN, Ibadan, Oyo","state":"Oyo","description":"Edugrade Services offers international exam registrations and trainings. TOEFL, GRE, IELTS, MCAT, LSAT, CGFNS, PTE. we also offer Alevel Registration (JUPEB, IJMB and CAMBRIDGE). ","rating":"","reviews":"","location":{"lat":"7.331991","lng":"3.879167"},"category":"Schools","link":"https://www.businesslist.com.ng/company/265107/edugrade-services","imageUrl":"https://www.businesslist.com.ng/img/ng/l/1568383054-66-edugrade-services.jpg","phone":"09034204464","website":"internationalexam.com"},{"name":"Global Heirs Corporate Services","address":"Nova Road 6, Adebayo, Ado Ekiti, Akure, Ondo","state":"Ondo","description":"Global Heirs Corporate Services is Africa foremost model urban solution provider by signature service and professional programs Global Heirs Corporate Services is a result driven business and school d...","rating":"","reviews":"","location":{"lat":"7.657375464365458","lng":"5.22714135943454"},"category":"Schools","link":"https://www.businesslist.com.ng/company/261501/global-heirs-corporate-services","imageUrl":"https://www.businesslist.com.ng/img/ng/d/1532015526-21-global-heirs-corporate-services.png","phone":"08038934814","website":"www.globalheirng.com"},{"name":"Angels on Mission School","address":"15 Somosu Street by Nepa Bus Stop, Aguda, surulere, Lagos, Lagos","state":"Lagos","description":"","rating":"4.0","reviews":"1 Review","location":{"lat":"6.494404307396666","lng":"3.3437361679871174"},"category":"Schools","link":"https://www.businesslist.com.ng/company/253355/angels-on-mission-school","phone":"080330183450808159386908033076985","website":"www.angelsonmissionschool.org"},{"name":"Compass Tutors Limited","address":"Crosstown Mall, 75A, Iju Road, Suite 25 & 26, Agege, Lagos, Lagos, Lagos, Lagos","state":"Lagos","description":"About Compass Tutors- Leading Professional Tutoring Company in Nigeria Compass Tutors is a registered educational services provider with Corporate Affairs Commission and a member of reputable educatio...","rating":"","reviews":"","location":{"lat":"6.623303149574186","lng":"3.328855083392341"},"category":"Schools","link":"https://www.businesslist.com.ng/company/258893/compass-tutors-limited","imageUrl":"https://www.businesslist.com.ng/img/ng/c/1504318695-62-compass-tutors-limited.png","phone":"07037142686","website":"compasstutors.com.ng"},{"name":"Harryfield Montessori Schools","address":"67a, Odukpani Road, Off Wapi, Junction. Calabar, Cross River State, Nigeria,, Calabar, Cross River","state":"Cross River","description":"HarryField Montessori school is the leading school for providing best, practical, exciting, intuitive, montessori method and curriculum lead education in Nigeria. Situated in the heart of Cross River ...","rating":"","reviews":"","location":{"lat":"5","lng":"8"},"category":"Schools","link":"https://www.businesslist.com.ng/company/263354/harryfield-montessori-schools","imageUrl":"https://www.businesslist.com.ng/img/ng/g/1550713188-39-harryfield-montessori-schools.jpg","phone":"08038764021","website":"www.harryfieldschools.com/"},{"name":"YABATECH FILM ACADEMY","address":"Herbert Macauley Road Surulere, Lagos, Lagos, Lagos","state":"Lagos","description":"YABATECH FILM ACADEMY is the foremost film college in Nigeria. Set up to bridge the technical deficiency in the ever growing multimedia industry not just in Nigeria but the West African sub region. We...","rating":"","reviews":"","location":{"lat":"6.517839","lng":"3.371238"},"category":"Schools","link":"https://www.businesslist.com.ng/company/258304/yabatech-film-academy","imageUrl":"https://www.businesslist.com.ng/img/ng/h/1497861162-93-yabatech-film-academy.jpg","phone":"+234 802 310 5241","website":"www.yabatechfilmacademy.com"},{"name":"Laurels Schools","address":"80 Mini-Orlu Road, Off Ada-George Road, Port Harcourt, Rivers State, Nigeria., Port Harcourt, Rivers","state":"Rivers","description":"aurels Schools was borne out of passion for student and the need to bring them up academically, morally and spiritually to an enviable height. Our resolve as clearly emphasized in our school anthem is...","rating":"","reviews":"","location":{"lat":"4.8194409991117055","lng":"6.977643967838958"},"category":"Schools","link":"https://www.businesslist.com.ng/company/257635/laurels-schools","imageUrl":"https://www.businesslist.com.ng/img/ng/z/1490333105-60-laurels-schools.jpg","phone":"+2347038788985+2348035532764","website":"www.laurelsschoolsonline.com"},{"name":"LEXNOTES BOOKSTORE","address":"299 Herbert Macaulay Way, Yaba. Lagos, Lagos, Lagos","state":"Lagos","description":"LEXNOTES is a leading retailer of digital content and educational products in Nigeria. Recently, Schools and Libraries are experiencing rapid shift in demand from print contents to digital contents. H...","rating":"","reviews":"","location":{"lat":"6.503031103573978","lng":"3.3776092529296875"},"category":"Schools","link":"https://www.businesslist.com.ng/company/259452/lexnotescomng","imageUrl":"https://www.businesslist.com.ng/img/ng/k/1510994845-42-lexnotes-com-ng.png","phone":"08091278837","website":"www.lexnotes.com.ng"},{"name":"J-World Academy","address":"Block 18, Road 16, Ikota villa estate, Lagos Island, Lagos","state":"Lagos","description":"With J-World academy, the participant learns music and film production, multimedia, instruments and others. J-World academy owns a hostel, which allows the participants to stay for a year or more. J-W...","rating":"","reviews":"","location":{"lat":"6.443865399277938","lng":"3.554664079550207"},"category":"Schools","link":"https://www.businesslist.com.ng/company/261464/j-world-academy","imageUrl":"https://www.businesslist.com.ng/img/ng/n/1531746051-90-j-world-academy.jpg","phone":"08063154192","website":"www.jworldntertainment.com.ng"},{"name":"Robenterprise","address":"Shop 5, first floor, Opeyemi shopping complex,old barracks road Olege area, Ojoo Ibadan., Ibadan, Oyo","state":"Oyo","description":"Robenterprise is a clothing brand located at Ojoo Ibadan. We are into fashion designing be it bespoke, ready to wear and training @Robe fashion academy. Also we are into mass production and supply to ...","rating":"","reviews":"","location":{"lat":"7.389057245897446","lng":"3.9660681408123155"},"category":"Schools","link":"https://www.businesslist.com.ng/company/266509/robenterprise","imageUrl":"https://www.businesslist.com.ng/img/ng/m/1580309903-58-robenterprise.jpg","phone":"07016575951","website":""},{"name":"Tonality Music International (School)","address":"17 Akinremi street, Anifowoshe, Ikeja, Ikeja, Lagos","state":"Lagos","description":"Tonality Music is in to comprehensive music works, Music education for Primary, Secondary and Higher Colleges of Learning. We train all age groups in music, voice and instruments playing (guitar, pian...","rating":"","reviews":"","location":{"lat":"6.598150161029254","lng":"3.3378052711486816"},"category":"Schools","link":"https://www.businesslist.com.ng/company/258977/tonality-music-international","imageUrl":"https://www.businesslist.com.ng/img/ng/d/1505431291-60-tonality-music-international.jpg","phone":"08055972777","website":"www.tonalitymusic.com.ng"},{"name":"Annieblac outfits","address":"Enugu, Enugu, Enugu","state":"Enugu","description":"Annieblac Outfits is a one stop shop for female wears. We create your Every-day female casuals, semi formal wears. We have ready to wear ankara casuals and semi- formal wears in stock. Visit our Socia...","rating":"","reviews":"","location":{"lat":"6.438705736340087","lng":"7.506322860717773"},"category":"Schools","link":"https://www.businesslist.com.ng/company/263137/annieblac-outfits","imageUrl":"https://www.businesslist.com.ng/img/ng/h/1548577632-31-annieblac-outfits.jpg","phone":"09020099347","website":"www.annieblac.business.site"},{"name":"TSH Fashion Institute","address":"No 9 Taiwo Jowosimi close, off ogbomosho street, ojokoro road, Ikorodu, Lagos","state":"Lagos","description":"ABOUT US TSH Fashion Institute aims to be a globally recognized center of fashion learning which provides well crafted curriculum in fashion design, garment production and business management. OUR MIS...","rating":"","reviews":"","location":{"lat":"6.64620449319828","lng":"3.4983541935412177"},"category":"Schools","link":"https://www.businesslist.com.ng/company/260677/tsh-fashion-institute","imageUrl":"https://www.businesslist.com.ng/img/ng/h/1538983630-81-the-samplist-hub.jpg","phone":"+2348063309949","website":""},{"name":"Parliamentary International School","address":"Plot 868, Jonathan Mariere Road, Gudu District, Apo, Abuja, Abuja","state":"Abuja","description":"Parliament International School is located at Plot No. 868, Jonathan Mariere Street, behind Apo Legislative Quarters, Gudu district of F.C.T Abuja. Its constructive location within a walking distance ...","rating":"","reviews":"","location":{"lat":"9.01274","lng":"7.49118"},"category":"Schools","link":"https://www.businesslist.com.ng/company/215613/parliamentary-international-school","imageUrl":"https://www.businesslist.com.ng/img/ng/e/1513622414_40720.png","phone":"0803587523508085147049","website":"www.parliamentinternationalschool.com.ng/"},{"name":"Abti-American University Of Nigeria","address":"98 Lamido Zubairu Way, Wuro Hausa 640101, Yola, Adamawa","state":"Adamawa","description":"The goal of AUN is to train the future leaders of Africa and to serve as both a stimulus and agent of economic development throughout the region. All students, regardless of academic specialization, r...","rating":"","reviews":"","location":{"lat":"9.1991766","lng":"12.4987763"},"category":"Schools","link":"https://www.businesslist.com.ng/company/122403/abti-american-university-of-nigeria","imageUrl":"https://www.businesslist.com.ng/img/ng/g/1537785870-74-abti-american-university-of-nigeria.jpg","phone":"+2347563501708036200067","website":"www.aun.edu.ng"},{"name":"AMIORA FASHION HUB","address":"Asake plaza, 7up B/stop, Monatan, Ibadan., Ibadan, Oyo","state":"Oyo","description":"We are known for provision of satisfactory services in the Fashion world. We focus mainly on styling,Fashion designing, Bespoke tailoring,abaya and Fashion consultancy. Contact us today to join our sa...","rating":"","reviews":"","location":{"lat":"7.411724063391656","lng":"3.9532607140576603"},"category":"Schools","link":"https://www.businesslist.com.ng/company/265753/amiora-fashion-hub","imageUrl":"https://www.businesslist.com.ng/img/ng/h/1589279377-88-amiora-fashion-hub.png","phone":"08104866156","website":""},{"name":"English Den Enterprise","address":"11, Jokogbola Str, Off Ikorodu Club, Gbasemo, Aga, Ikorodu, Lagos","state":"Lagos","description":"English Den is an English language learning hub where English language learning challenges are solved by providing private English tutors or on-site learning contacts. To ensure English language learn...","rating":"","reviews":"","location":{"lat":"6.6","lng":"3.5087"},"category":"Schools","link":"https://www.businesslist.com.ng/company/265296/english-den-enterprise","imageUrl":"https://www.businesslist.com.ng/img/ng/e/1569912677-51-english-den-enterprise.jpg","phone":"09062547575","website":"www.englishden.com.ng"},{"name":"Shining Light Schools","address":"21, Church Street Onipanu Lagos, Mushin, Lagos","state":"Lagos","description":"Shining Light School is an educational institution that was birthed in 2006 with the aim of sustaining children safety, intellectual learning skill, team-work, and parentâ€™s satisfaction.","rating":"5.0","reviews":"1 Review","location":{"lat":"6.533858037917404","lng":"3.3621506914880106"},"category":"Schools","link":"https://www.businesslist.com.ng/company/266358/shining-light-schools","imageUrl":"https://www.businesslist.com.ng/img/ng/z/1579180840-52-shining-light-schools.png","phone":"+2348021224337","website":""},{"name":"WWW.MYCYBERTELLER.COM","address":"AGBOR, Agbor, Delta","state":"Delta","description":"We sell all kinds of Exams Scratch Cards with Online Instant PIN Delivery Solution at www.mycyberteller.com BUY WAEC Result Checker Scratch Online Nigeria, WAEC Nov/Dec GCE Form Online, WAEC Result Ve...","rating":"","reviews":"","location":{"lat":"6.251383891171807","lng":"6.194795746093746"},"category":"Schools","link":"https://www.businesslist.com.ng/company/258021/great-kennet-ict-co-nig-ltd","imageUrl":"https://www.businesslist.com.ng/img/ng/b/1494769472-75-great-kennet-ict-co-nig-ltd.png","phone":"08036240369","website":"mycyberteller.com"},{"name":"Unique TOEFL centre in Port Harcourt","address":"Unique Educational Consulting, No.1 Omoku/Ndashi Street, off Olu-Obasanjo Police Station, D-Line, Port Harcourt, Rivers","state":"Rivers","description":"We offer affordable Registration with Study Materials and Training fees for IELTS,PORT-HARCOURT. We also offer affordable registration with the study material and Training fee for the following SAT TO...","rating":"","reviews":"","location":{"lat":"4.804173605541869","lng":"6.999526086123524"},"category":"Schools","link":"https://www.businesslist.com.ng/company/263257/unique-toefl-centre-in-port-harcourt","imageUrl":"https://www.businesslist.com.ng/img/ng/l/1549694436-11-ielts-exam-training-and-registration.jpg","phone":"08035719790","website":"www.uniqueduconsult.com"},{"name":"Coat of Comfort Academy","address":"ISAIAH 41:31 PLACE, PRECIOUS PALM ROYAL DRIVE, PRECIOUS PALM ROYAL HOTEL, BENIN-LAGOS EXPRESSWAY, ISIOHOR, BENIN CITY, Benin City, Edo","state":"Edo","description":"Coat of Comfort Academy is a school situated in a serene and secured environment. We admit infants to age 12 children, we operates hybrid curricula consisting of American and Nigerian curricula to pro...","rating":"","reviews":"","location":{"lat":"6.40616360071452","lng":"5.604963927386507"},"category":"Schools","link":"https://www.businesslist.com.ng/company/257936/coat-of-comfort-academy","imageUrl":"https://www.businesslist.com.ng/img/ng/n/1549240551-65-coat-of-comfort-academy.jpg","phone":"08187454438","website":"cclc4you.wixsite.com/coatofcomfortng"},{"name":"Divine Triumph International School","address":"Off Road 7 Junction, Umuguma Road Imo Housing Estate, Owerri, Imo","state":"Imo","description":"Founded in 2016, Divine Triumph International School began as a small primary school with a curriculum based on a perfect blend of the National Curriculum for England and Nigeria Today it offers an in...","rating":"","reviews":"","location":{"lat":"5.4779116013351","lng":"6.987133026123"},"category":"Schools","link":"https://www.businesslist.com.ng/company/264232/divine-triumph-international-school","imageUrl":"https://www.businesslist.com.ng/img/ng/j/1560806063-39-divine-triumph-international-school.png","phone":"0803 382 4829","website":"dtis.business.site/"},{"name":"Blueridge International School","address":"22 Rotimi Amaechi Drive,G.R.A. Phase 2, Port Harcourt, Rivers","state":"Rivers","description":"Blueridge International School is a private nursery and primary school located in a warm, safe and serene environment in the heart of Port Harcourt, Rivers State. Here, children have the advantage and...","rating":"","reviews":"","location":{"lat":"85.05112877980659","lng":"-180"},"category":"Schools","link":"https://www.businesslist.com.ng/company/264576/blueridge-international-school","imageUrl":"https://www.businesslist.com.ng/img/ng/s/1563959002-26-blueridge-international-school.jpg","phone":"+234-809-992-1147","website":"blueridgeschool.com.ng"},{"name":"Denmin British Montessori School","address":"10, 1st Uwadia Street off 19th Street by 1st transformer and off Adolor College Road by Kingdom Hall of Jehovah's witnesses, EDPA Estate, Ugbowo, Benin City., Benin City, Edo","state":"Edo","description":"Denmin British Montessori Academy is a modern British standard Nursery and primary school that breed children for excellent performance presently to meet early childhood challenges and for future aspi...","rating":"","reviews":"","location":{"lat":"6.394315409541513","lng":"5.59950359458818"},"category":"Schools","link":"https://www.businesslist.com.ng/company/266413/denmin-british-montessori-school","imageUrl":"https://www.businesslist.com.ng/img/ng/r/1579558072-42-denmin-british-montessori-school.jpg","phone":"7055056025","website":""},{"name":"Mikary Music Academy","address":"79 Evo road phase II, Port Harcourt, Port Harcourt, Rivers","state":"Rivers","description":"Mikary Music Academy is one of Nigeria's leading music institute offering multifaceted training programs for all categories of people. The Academy, founded in 2012, has successfully trained over 400 p...","rating":"","reviews":"","location":{"lat":"4.8201064781797225","lng":"6.996350722431657"},"category":"Schools","link":"https://www.businesslist.com.ng/company/262241/mikary-music-academy","imageUrl":"https://www.businesslist.com.ng/img/ng/d/1538740665-49-mikary-music-academy.png","phone":"08102309264","website":"www.mikarymusicacademy.com"},{"name":"GLOBAL COLLEGE OF MARINE AND TECHNOLOGY","address":"Udu-Ughelli Road, Ujevwu Town, Warri, Delta","state":"Delta","description":"A college providing technology innovative training through vocational education ","rating":"","reviews":"","location":{"lat":"5.4653014266325926","lng":"5.8256614208221436"},"category":"Schools","link":"https://www.businesslist.com.ng/company/129382/global-college-of-marine-and-technology","imageUrl":"https://www.businesslist.com.ng/img/ng/n/1439489726_12028.jpg","phone":"080527599780802896024808022779727","website":"www.globalcollegeofmarinetec.com"}]