[{"name":"Teacher.com.ng","address":"23 Odogbolu Street, Lagos, Lagos","state":"Lagos","description":"Teacher.com.ng is the leading teacher job board and recruitment service, providing teachers, tutors and educators with information and opportunities that are beneficial to their professional developme...","rating":"","reviews":"","location":{},"category":"Schools","link":"https://www.businesslist.com.ng/company/257626/teachercomng","imageUrl":"https://www.businesslist.com.ng/img/ng/s/1490215630-39-teacher-com-ng.png","phone":"+234908 678 9860","website":"www.teacher.com.ng/"},{"name":"Our Lady of Hope Montessori schools, Benin city","address":"132A&B 2nd East circular road by wisdom street junction, Benin city., Benin City, Edo","state":"Edo","description":"Our Lady of Hope Montessori schools is a school setup to change the outlook of Hope education in Edo state. We offer topnotch educational services using the blend of unique international and local cur...","rating":"","reviews":"","location":{},"category":"Schools","link":"https://www.businesslist.com.ng/company/261553/our-lady-of-hope-montessori-schools-benin-city","imageUrl":"https://www.businesslist.com.ng/img/ng/a/1532427814-73-our-lady-of-hope-montessori-schools-benin-city.jpg","phone":"08134082834","website":""},{"name":"NATIONAL TEACHERS INSTITUTE","address":"KM 5 Kaduna - Zaria Express Way, Rigachikun, PMB 2191 Kaduna, Abuja","state":"","description":"To provide Courses of Instruction leading to the Upgrade, Development and Professional Certification of Nigerian Teachers as specified in the relevant Syllabuses using the Distant Learning System (DLS...","rating":"","reviews":"","location":{"lat":"10.4252994","lng":"7.402065499999935"},"category":"Schools","link":"https://www.businesslist.com.ng/company/129412/national-teachers-institute","imageUrl":"https://www.businesslist.com.ng/img/ng/b/1543102764-93-national-teachers-institute.png","phone":"234-(0)62-887873","website":"www.nti-nigeria.org/"},{"name":"Deoasis Ville Special Schools","address":"729 Jimmy Emefili After Global Success Church, Unity Estate, Amuwo odofin Lagos , Lagos, Lagos","state":"Lagos","description":"Management of children with speech, behavioral and physical disabilities or disorders such as Autism, Dyslexia, ADHD ADD, Writing and Reading difficulties. Co activities - music, ICT and Tailoring sch...","rating":"","reviews":"","location":{"lat":"6.470194682025406","lng":"3.299560326820372"},"category":"Schools","link":"https://www.businesslist.com.ng/company/266474/deoasis-ville-special-schools","imageUrl":"https://www.businesslist.com.ng/img/ng/l/1580116329-74-deoasis-ville-special-schools.jpg","phone":"08182072441","website":""},{"name":"ABUJA MENTORING AND PROFESSIONAL HOME TUTORING SERVICES","address":"PLOT 29F, DRIVE 3, PRINCE AND PRINCESS ESTATE, DUBOYI DISTRICT, ABUJA, Abuja, Abuja","state":"Abuja","description":"Professional Home Tutors offer a personalised and friendly private home tuition service within Abuja and its environs. Our personal tutors are able to offer extra support with many subjects including:...","rating":"","reviews":"","location":{},"category":"Schools","link":"https://www.businesslist.com.ng/company/255408/abuja-mentoring-and-professional-home-tutoring-services","phone":"08104020269","website":"phtutorsabuja.blogspot.com"},{"name":"School of Children Ministry and Parenting (SOCMAP)","address":"9 Sholaja Alagago Street, Ebute Ikorodu, Lagos, Nigeria., Lagos, Lagos","state":"Lagos","description":"School of Children Ministry and Parenting (SOCMAP) is an institution set up to sensitize and equip parents, adults, educators, and children ministry teachers with balanced and current information on e...","rating":"","reviews":"","location":{},"category":"Schools","link":"https://www.businesslist.com.ng/company/263919/school-of-children-ministry-and-parenting-socmap","imageUrl":"https://www.businesslist.com.ng/img/ng/e/1557700370-37-school-of-children-ministry-and-parenting-socmap.jpg","phone":"+2348074768345","website":""},{"name":"Kingdom WorldChanger Model School","address":"Green storey building, behind Deeper life Church, Worldchanger Avenue, Off Igwe junction, Agunfoye- Adamo road, Ikorodu, Lagos 104201 Nigeria, Ikorodu, Lagos","state":"Lagos","description":"Producing total man child and reliable leaders through holistic and innovative educational programs","rating":"","reviews":"","location":{},"category":"Schools","link":"https://www.businesslist.com.ng/company/190822/kingdom-worldchanger-model-school","phone":"08039502350","website":"worldchangermodelschool.gnbo.com.ng"},{"name":"DJ Smith Academy","address":"25 Mudashiru Street, Ibrahim Eletu Estate, Osapa London, Jakande, Lekki, Lagos Island, Lagos","state":"Lagos","description":"Are you an aspiring DJ or Music Producer? Do you want to be a professional in it? Then enroll with DJ Smith Academy. Learn all you need to know about DJing and music production and chances to learn fr...","rating":"","reviews":"","location":{},"category":"Schools","link":"https://www.businesslist.com.ng/company/262715/dj-smith-academy","imageUrl":"https://www.businesslist.com.ng/img/ng/f/1543676514-60-dj-smith-academy.jpg","phone":"+2348185781343","website":""},{"name":"Christ Vision College","address":"11 Okogan Street, Off Ita-Oluwo Bus-Stop, Ikorodu, Lagos, Ikorodu, Lagos","state":"Lagos","description":"A top quality day and boarding school with top notch facilities and high excellence rate in WAEC, JAMB and NECO.","rating":"","reviews":"","location":{},"category":"Schools","link":"https://www.businesslist.com.ng/company/260859/christ-vision-college","imageUrl":"https://www.businesslist.com.ng/img/ng/c/1526306401-93-christ-vision-college.jpg","phone":"08033039121","website":""},{"name":"Management Education And Training (Met) Ltd","address":"43A, Seriki Aro Street, Off Ajao Road, Off Adeniyi Jones, Ikeja , Lagos, Ikeja, Lagos","state":"Lagos","description":"Management Education and Training limited was established under the companies Act,1968 of the Federal Republic of Nigeria with registration number: RC 48483 (Herein refer to as the M.E.T LIMITED).M.E....","rating":"1.0","reviews":"1 Review","location":{},"category":"Schools","link":"https://www.businesslist.com.ng/company/122364/management-education-and-training-met-ltd","phone":"081223572680703783092","website":"www.meteducationng.com"}]