[{"name":"Lekki Peculiar School","address":"20, Arch John Agabri Street, Happyland estate, Olokonla, Lagos Island, Lagos","state":"Lagos","description":"Lekki Peculiar School, is a great school imparting intellectual, leadership and moral values in a conducive atmosphere.","rating":"","reviews":"","location":{},"category":"Schools","link":"https://www.businesslist.com.ng/company/259446/lekki-peculiar-school","imageUrl":"https://www.businesslist.com.ng/img/ng/a/1510920724-49-lekki-peculiar-school.jpg","phone":"08120009300","website":"www.lekkipeculiarschool"},{"name":"Lightrains Concepts","address":"6, Odeyemi Street, Oke-Odo, Lagos, Alagbado, Lagos","state":"Lagos","description":"Lightrains Concepts is an organisation with focus on Solar Solutions, Electrical services,Information Technology, Training and consultancy. We offer our services with our client in mind, tailoring our...","rating":"","reviews":"","location":{"lat":"6.633410324483527","lng":"3.300493061542511"},"category":"Schools","link":"https://www.businesslist.com.ng/company/257869/lightrains-concepts","imageUrl":"https://www.businesslist.com.ng/img/ng/k/1503501314-85-lightrains-concepts.jpg","phone":"08056015079","website":"www.facebook.com/lightrainz"},{"name":"Macwinner","address":"Shop 11 victory line zone A abada market Head bridge onitsha, anambra state, Onitsha, Anambra","state":"Anambra","description":"Macwinner is a fashion brand which our Major product manufactured by macwinner male senator wears, Africa native wears, men's suit, security uniform, school uniform,bedspread,T-shirt, monogram customi...","rating":"","reviews":"","location":{"lat":"9.048770117349346","lng":"7.30125200276143"},"category":"Schools","link":"https://www.businesslist.com.ng/company/260667/macwinner","imageUrl":"https://www.businesslist.com.ng/img/ng/n/1586729217-83-macwinner.jpg","phone":"08068853611","website":"www.macwinner.com.ng"},{"name":"Tumble Tots","address":"PLOT 25, TOSIN ADELOWO ST, OBA AMUSA ESTATE, IDADO, LEKKI, Lagos Island, Lagos","state":"Lagos","description":"Tumble Tots is a highly rated early year’s school with provision for children ages 3 months to 5 years. It first opened its doors in Victoria Island in 2004 before moving to Lekki Phase 1 and recent...","rating":"","reviews":"","location":{"lat":"6.433227156108462","lng":"3.477547629245123"},"category":"Schools","link":"https://www.businesslist.com.ng/company/148593/tumble-tots","imageUrl":"https://www.businesslist.com.ng/img/ng/x/1523602000_11771.png","phone":"09096318611","website":"www.tumbletots.com.ng"},{"name":"STUDY IN NIGERIA","address":"No 38, Opeifa Street Off Ajao Estate gate Anthony, Lagos Nigeria , Lagos, Lagos","state":"Lagos","description":"Since its creation in 2014, studyinnigeria has earned a reputation as the leading online school guide to parents in Nigeria. We have database of Nigerian Schools and detailed profile of over 6000 Scho...","rating":"","reviews":"","location":{"lat":"6.56393881209063","lng":"3.3710408667785714"},"category":"Schools","link":"https://www.businesslist.com.ng/company/258445/study-in-nigeria","imageUrl":"https://www.businesslist.com.ng/img/ng/l/1499528873-78-study-in-nigeria.png","phone":"080 5056 6120","website":"www.studyinnigeria.com"},{"name":"Pedam Daycare","address":"92 Femi Ayantuga street, Lagos, Lagos","state":"Lagos","description":"","rating":"4.0","reviews":"1 Review","location":{"lat":"6.495633144284743","lng":"3.3518922328948975"},"category":"Schools","link":"https://www.businesslist.com.ng/company/255165/pedam-daycare","phone":"08023680562","website":""},{"name":"Ace Elementary School","address":"Plot 1&2, Dan Archibong Estate, Ikot Effangha Layout, Calabar, Cross River State, Nigeria., Calabar, Cross River","state":"Cross River","description":"Ace Elementary School is a fully Nigerian based educational faculty with a wealthy combination of the muse level of the National Curriculum and the Montessori approach of schooling. Our purpose for th...","rating":"","reviews":"","location":{},"category":"Schools","link":"https://www.businesslist.com.ng/company/262719/ace-elementary-school","imageUrl":"https://www.businesslist.com.ng/img/ng/b/1543796863-22-ace-elementary-school.jpg","phone":"09024000278","website":"www.aceelementaryschool.com.ng"},{"name":"ABUJA PROFESSIONAL MENTORING & HOME TUTORING SERVICES","address":"PLOT 29F, DRIVE 3, PRINCE AND PRINCESS ESTATE, ABUJA, Abuja, Abuja","state":"Abuja","description":" WHY YOU NEED HOME TUTORS!s At Professional tutoring service, we provide quality education and tutoring services for all students. It is our belief that all children can learn and it is our mission to...","rating":"","reviews":"","location":{},"category":"Schools","link":"https://www.businesslist.com.ng/company/190938/abuja-professional-home-tutoring-services","imageUrl":"https://www.businesslist.com.ng/img/ng/a/1462318734-84-abuja-professional-mentoring-home-tutoring-services.jpg","phone":"07039595932","website":"www.phtutors49.blogspot.com"},{"name":"FRESH IELTS ACADEMY","address":"47 Ikpa Road (Beside UNIUYO Annex Gate), Uyo, Akwa Ibom","state":"Akwa Ibom","description":"Nigeria's preferred IELTS Training Center. Give your IELTS Exam with great confidence! Learn with our expert and certified tutors, get above 7 band in your IELTS Exam.","rating":"","reviews":"","location":{"lat":"5.042421394600184","lng":"7.922619962525005"},"category":"Schools","link":"https://www.businesslist.com.ng/company/265755/fresh-ielts-academy","phone":"08066886996","website":"fresh-ielts-academy.business.site"},{"name":"AMVILLE SCHOOL","address":"10, OLOWOGBOWO STREET, OFF COKER ROAD, ILUPEJU, Lagos, Lagos","state":"Lagos","description":"Amville School offers educational services at preschool and primary levels(ages 3months-11years). Ours is a well resourced educational institution located in a serene part of ilupeju. It is a stimulat...","rating":"","reviews":"","location":{"lat":"7.167906921703909","lng":"3.665511375000051"},"category":"Schools","link":"https://www.businesslist.com.ng/company/190164/amville-school","phone":"+2348088008008+2348096311607","website":"www.amvilleschool.com"},{"name":"Xtrao Kids Child Care Center","address":"5 Hassan Idowu Street, Aguda, Surulere, Lagos, Lagos","state":"Lagos","description":"Xtrao Kids is a child care center providing custodial care for children between the ages of 3 months and 5 years in a safe and healthy environment.","rating":"","reviews":"","location":{"lat":"6.487829991560511","lng":"3.331807851791382"},"category":"Schools","link":"https://www.businesslist.com.ng/company/254914/xtrao-kids-child-care-center","imageUrl":"https://www.businesslist.com.ng/img/ng/e/1447346219-63-xtrao-kids-child-care-center.jpg","phone":"","website":"www.xtraokids.com.ng"},{"name":"Audrey and miles","address":"102, new Ipaja Road Alimosho , Lagos, Lagos","state":"Lagos","description":"Audrey and miles is a fashion and style Academy that specializes in unisex clothing both ready to Wear and made to Measure with a specialist to create and design an outfit that Perfectly fits. Audrey ...","rating":"","reviews":"","location":{"lat":"6.6117702555144255","lng":"3.296306652580597"},"category":"Schools","link":"https://www.businesslist.com.ng/company/263283/audrey-and-miles","imageUrl":"https://www.businesslist.com.ng/img/ng/c/1549959682-46-audrey-and-miles.jpg","phone":"08065578373","website":""},{"name":"CRADLEHALL CHILD-CARE CRECHE","address":"3, Ibiyinka Olorunbe Close, off Amodu Ojikutu Street, off Saka Tinubu street, Victoria Island Lagos, Victoria Island, Lagos","state":"Lagos","description":"Cradle hall creche is an early childhood development centre where babies and toddlers are nutured to harness their full potential to become geniuses. With our experienced teachers and child-care staff...","rating":"","reviews":"","location":{"lat":"6.425239651884603","lng":"3.419692283203176"},"category":"Schools","link":"https://www.businesslist.com.ng/company/190483/cradlehall-child-care-creche","phone":"01-8447986","website":"www.cradlehall.org.ng"},{"name":"New Covenant Group of Schools","address":"15 Wogu Street Dline Portharcourt, Port Harcourt, Rivers","state":"Rivers","description":"The best school in portharcourt Located at the heart of portharcourt","rating":"","reviews":"","location":{"lat":"4.803103052679221","lng":"7.005580430557302"},"category":"Schools","link":"https://www.businesslist.com.ng/company/190698/new-covenant-group-of-schools","phone":"+2347034465202","website":"www.newcovenantgroupofschools.com"},{"name":"MegaSounDine","address":"14 Jonathan Coker road beside NNPC filling station , off Fagba Iju, Lagos, Lagos","state":"Lagos","description":"SounDivine is a music academy that cater for both children and adult musical growth in and around Lagos State","rating":"","reviews":"","location":{"lat":"6.542176907517086","lng":"3.3585755266472006"},"category":"Schools","link":"https://www.businesslist.com.ng/company/262633/megasoundine","imageUrl":"https://www.businesslist.com.ng/img/ng/c/1542684566-22-megasoundine.jpg","phone":"08033460050","website":""},{"name":"Bronte College","address":"Suite 209, IKEJA Plaza, 81 Mobolaji Bank Anthony Way, IKEJA LAGOS, Lagos","state":"","description":"Bronte College is a Canadian Institution located in Mississauga ON. We offer primarily grades 9 to 12 leading to the award of OSSD with options of IB and AP. With an integrated campus and state of the...","rating":"","reviews":"","location":{"lat":"6.5932815715822075","lng":"3.3427519030792308"},"category":"Schools","link":"https://www.businesslist.com.ng/company/240360/bronte-college-2","phone":"08033358660","website":"www.brontecollege.ca"},{"name":"The Outliers School","address":"59, Bode Thomas, Surulere, Lagos., Ikeja, Lagos","state":"Lagos","description":"We are dedicated to the development of every individual's desire to learn and achieve success by providing a safe and supportive environment that fosters a lifelong passion for learning and equip them...","rating":"","reviews":"","location":{"lat":"6.489239472373789","lng":"3.358437496906279"},"category":"Schools","link":"https://www.businesslist.com.ng/company/266556/the-outliers-school","phone":"+2348090925930","website":"theoutliersschool.com"},{"name":"Goshen Montessori Schools","address":"Plot No. 65 & 65A, Kubwa Annex (HE) Layout, Along Arab Road, Kubwa- Abuja, Abuja, Abuja","state":"Abuja","description":"Goshen Montessori Schools was established on the 13th of September 2010 on its temporary site. On the 21st of April 2012, it moved to its permanent site located along Arab Road, Kubwa. It’s a Montes...","rating":"","reviews":"","location":{},"category":"Schools","link":"https://www.businesslist.com.ng/company/254136/goshen-montessori-schools","imageUrl":"https://www.businesslist.com.ng/img/ng/z/1434429380-16-goshen-montessori-schools.jpg","phone":"08077362496","website":"goshenmontessorischools.com/"},{"name":"Education Trust Fund (Etf)","address":"No.5 Waterboard Road, Sanga Local Government Area Kaduna State Nigeria, Kaduna, Kaduna","state":"Kaduna","description":"GDUX WORLD is specialized in Shoes and Bags making, using available resources within our community. At affordable price. Above all train and empower young youths who have interest in skills acquisitio...","rating":"","reviews":"","location":{"lat":"10.514345791752932","lng":"7.433141469955444"},"category":"Schools","link":"https://www.businesslist.com.ng/company/122481/education-trust-fund-etf","imageUrl":"https://www.businesslist.com.ng/img/ng/l/1436525003_97092.jpg","phone":"+2348062246583","website":""},{"name":"OVA Couture ","address":"No 3, Ibide Edun close, off lalubu street, Opp. Alana Lawson school, okelewo., Abeokuta, Ogun","state":"Ogun","description":"Ova Couture is a Unisex Fashion designing Outfit. We started from a Small Space now to a Fashion House. It wasn't all Rosy but it's said \" Never despise a little Beginning\".","rating":"","reviews":"","location":{"lat":"7.1126324446673985","lng":"3.3727347979676097"},"category":"Schools","link":"https://www.businesslist.com.ng/company/261035/ova-couture","imageUrl":"https://www.businesslist.com.ng/img/ng/z/1527798826-73-adunni-couture.jpg","phone":"07059808273","website":""},{"name":"Standard Academy Akure","address":"13, Henry Fajemirokun Street, Ijapo Estate, Akure, Ondo State - Nigeria, Akure, Ondo","state":"Ondo","description":"Our goals and determination are to help bring out the genius in each child and raise them to becoming leaders who will proffer communities better. Excellent educational services to humanity define our...","rating":"","reviews":"","location":{"lat":"6.618367558136281","lng":"3.3982670225371976"},"category":"Schools","link":"https://www.businesslist.com.ng/company/265935/standard-academy-akure","phone":"0817 559 1252","website":"www.standardacademyng.com"},{"name":"TRACTRAIN CONSULTING","address":"NO 46 LOBITTO CRESCENT WUSE 2 ABUJA, Abuja, Abuja","state":"Abuja","description":"We are a career development company focused on delivering professional and effective career advice, GMAT and GRE-Prep, MBA Essays, Resume/CV.","rating":"","reviews":"","location":{"lat":"9.072257612130052","lng":"7.491997182369232"},"category":"Schools","link":"https://www.businesslist.com.ng/company/256227/tractrain-consulting","phone":"+23408143830879","website":"www.tractrain.com"},{"name":"StudyLocal Nigeria","address":"Study Local Nigeria Suite 405, Obum Plaza, 16 Ademola Adetokunbo Crescent, Wuse, Abuja, Nigeria, Abuja, Abuja","state":"Abuja","description":"StudyLocal Nigeria is an Online Directory for courses/programs offered by accredited institutions in Nigeria. At study local Nigeria, we are focused on encouraging students in Nigeria to remain in Nig...","rating":"","reviews":"","location":{"lat":"9.075894498390214","lng":"7.4012319033203084"},"category":"Schools","link":"https://www.businesslist.com.ng/company/260141/studylocal-nigeria","phone":"07088875136","website":"www.studylocal.ng"},{"name":"IYA D BILLY VENTURES","address":"75A WOJI ROAD RUMUOROLU TOWN, Port Harcourt, Rivers","state":"Rivers","description":"WEB DESIGN/HOSTING/MAINTENANCE. GENERAL CONTRACTS SERVICE. GENERAL SUPPLY. E-COMMERCE. IMPORT/EXPORT. SECURITY AND SAFETY SERVICE.EDUCATIONAL SERVICE, ETCETRA. CONTACT US ON +2348038316472","rating":"","reviews":"","location":{"lat":"6.508451939261254","lng":"3.4237003326416016"},"category":"Schools","link":"https://www.businesslist.com.ng/company/255349/iya-d-billy-ventures","phone":"+2348038316472","website":"www.elearning79.talentlms.com"}]