[{"name":"Main Tejuosho Shopping Complex","address":"Surulere, Lagos, Lagos","state":"Lagos","description":"The shopping mall at Surulere, Lagos is a state of the art shopping complex that is new and completed as cooperation between the Lagos government and the stomberg engineering company. The stomberg eng...","rating":"","reviews":"","location":{"lat":"6.506149086947743","lng":"3.367588520050049"},"category":"Shopping","link":"https://www.businesslist.com.ng/company/253979/main-tejuosho-shopping-complex","imageUrl":"https://www.businesslist.com.ng/img/ng/c/1431516369-12-main-tejuosho-shopping-complex.jpg","phone":"","website":"tejuosho.com.ng/"},{"name":"Ishopbest","address":"Shop 1, Block B, Olu & Olu Shopping Complex, By-Pass, Akure, Akure, Ondo","state":"Ondo","description":"Ishopbest is an online marketplace offering cost effective and convenient shopping experience to our customers nationwide. We offer a wide range of products in different retail market sphere, from fas...","rating":"","reviews":"","location":{"lat":"7.254262343677777","lng":"5.178819894790649"},"category":"Shopping","link":"https://www.businesslist.com.ng/company/256556/ishopbest","imageUrl":"https://www.businesslist.com.ng/img/ng/d/1473262627-23-ishopbest.jpg","phone":"08106299449","website":"www.ishopbest.org"},{"name":"RAJAB","address":"35 Adebisi Ogunniyi Crescent, Lekki Phase 1, Lagos, Lagos","state":"Lagos","description":"Buy electronics, phones and tablets, groceries, fashion apparel, collectibles, sport and fitness, automobile and industrial, kids fashion, hotel booking, and lots more on RAJAB, Nigeria online marketp...","rating":"5.0","reviews":"1 Review","location":{"lat":"6.43339106","lng":"3.47815303"},"category":"Shopping","link":"https://www.businesslist.com.ng/company/261373/rajab","imageUrl":"https://www.businesslist.com.ng/img/ng/g/1530974553-19-rajab.png","phone":"08151253543","website":"www.rajab.com.ng"},{"name":"GmotyShop","address":"Block 277 Flat 2 Amuwo Odofin Estate Mile 2, Lagos, Lagos","state":"Lagos","description":"Gmoty Shop is an errand running service primarily serving the untapped corporate market in Lagos, Nigeria. The company is able to do almost any errand the clients need, providing fast and reliable del...","rating":"","reviews":"","location":{"lat":"9.070811209353964","lng":"8.723342185546926"},"category":"Shopping","link":"https://www.businesslist.com.ng/company/190584/gmotyshop","imageUrl":"https://www.businesslist.com.ng/img/ng/x/1373662519_71026.jpg","phone":"","website":"www.gmotyshop.com"},{"name":"Rehmie Global Resources","address":"Plot 12 Road 6, Lekki County Homes, Ikota Villa Estate, Lekki, Lagos, Nigeria., Lagos Island, Lagos","state":"Lagos","description":"Rehmie is a unique IT company specializing in online buying and selling of products and services, advanced computer training including programming, and advanced photography, films and media production...","rating":"5.0","reviews":"1 Review","location":{"lat":"6.41285","lng":"4.0876"},"category":"Shopping","link":"https://www.businesslist.com.ng/company/262328/rehmie-global-resources","imageUrl":"https://www.businesslist.com.ng/img/ng/d/1539605084-58-rehmie-global-resources.jpg","phone":"09077770573","website":"www.rehmie.com"},{"name":"MyStore Nigeria","address":"Suite B17, Amori Complex, Orelope, Idimu-Egbeda Rd,, Lagos, Lagos","state":"Lagos","description":"Visit popular Nigerian online shopping store for huge discounts on mobiles, home, fashion, & electronic products. Free shipping & money back guarantee available...","rating":"5.0","reviews":"1 Review","location":{"lat":"6.441158","lng":"3.4179770000000644"},"category":"Shopping","link":"https://www.businesslist.com.ng/company/196461/mystore-nigeria","imageUrl":"https://www.businesslist.com.ng/img/ng/r/1377167836_32623.png","phone":"","website":"www.mystore.com.ng"},{"name":"Blenco Supermarket","address":" 53,Ado Road Ajah, Lagos, Lagos Island, Lagos","state":"Lagos","description":"BLENCO Mall is Lagos best shopping mall for luxury shopping at affordable prices. Numerous shops, more than 12 departments, and it's very own supermarket, BLENCO is the perfect place to take in the sp...","rating":"3.0","reviews":"1 Review","location":{"lat":"6.47896353033336","lng":"3.57030987739563"},"category":"Shopping","link":"https://www.businesslist.com.ng/company/256715/blenco-supermarket","phone":"0806701589","website":"blenco.com.ng"}]